{
"type": "FeatureCollection",
"name": "Accommodation",
"crs": { "type": "name", "properties": { "name": "urn:ogc:def:crs:OGC:1.3:CRS84" } },
"features": [
{ "type": "Feature", "properties": { "gml_id": "layer_hotel_pt.150597", "Name": "云麓山庄", "pyname": "ylsz", "kind": "5380", "zipcode": null, "telephone": "0731-88876236", "display_x": "112.9314", "display_y": "28.17197", "side": "R", "address": "麓山南路" }, "geometry": { "type": "Point", "coordinates": [ 112.92597558, 28.17549414 ] } },
{ "type": "Feature", "properties": { "gml_id": "layer_hotel_pt.150662", "Name": "港湾宾馆西站店", "pyname": "gwbgxzd", "kind": "5380", "zipcode": "410205", "telephone": "0731-82744898", "display_x": "112.91536", "display_y": "28.21117", "side": "R", "address": "岳麓大道791" }, "geometry": { "type": "Point", "coordinates": [ 112.90995036, 28.2147071 ] } },
{ "type": "Feature", "properties": { "gml_id": "layer_hotel_pt.150672", "Name": "芒果酒店", "pyname": "mgjd", "kind": "5380", "zipcode": null, "telephone": "0731-88210888", "display_x": "112.9488", "display_y": "28.16275", "side": "L", "address": "后湖艺术城3112" }, "geometry": { "type": "Point", "coordinates": [ 112.94333784, 28.16624417 ] } },
{ "type": "Feature", "properties": { "gml_id": "layer_hotel_pt.150947", "Name": "金绅家庭旅馆", "pyname": "jsjtlg", "kind": "5380", "zipcode": null, "telephone": "0731-88640011", "display_x": "112.94435", "display_y": "28.21505", "side": "L", "address": "岳华路69" }, "geometry": { "type": "Point", "coordinates": [ 112.93889688, 28.21855581 ] } },
{ "type": "Feature", "properties": { "gml_id": "layer_hotel_pt.151132", "Name": "银鸿客房部", "pyname": "yhkfb", "kind": "5380", "zipcode": "410013", "telephone": "0731-88805666", "display_x": "112.95542", "display_y": "28.21805", "side": "R", "address": "银盆南路214" }, "geometry": { "type": "Point", "coordinates": [ 112.94994006, 28.22153526 ] } },
{ "type": "Feature", "properties": { "gml_id": "layer_hotel_pt.151176", "Name": "茉莉花国际酒店", "pyname": "mlhgjjd", "kind": "5084", "zipcode": "410013", "telephone": "0731-88229999", "display_x": "112.93497", "display_y": "28.22324", "side": "R", "address": "金星中路528" }, "geometry": { "type": "Point", "coordinates": [ 112.92953274, 28.22675819 ] } },
{ "type": "Feature", "properties": { "gml_id": "layer_hotel_pt.151194", "Name": "东麟阁大酒店", "pyname": "dlgdjd", "kind": "5083", "zipcode": "410012", "telephone": "0731-88330888", "display_x": "112.92293", "display_y": "28.16438", "side": "R", "address": "左家垅王家湾" }, "geometry": { "type": "Point", "coordinates": [ 112.91751558, 28.16790975 ] } },
{ "type": "Feature", "properties": { "gml_id": "layer_hotel_pt.151199", "Name": "红楼宾馆", "pyname": "hlbg", "kind": "5083", "zipcode": "410006", "telephone": "0731-88872188", "display_x": "112.94733", "display_y": "28.19077", "side": "L", "address": "麓山南路36号" }, "geometry": { "type": "Point", "coordinates": [ 112.94186958, 28.19426855 ] } },
{ "type": "Feature", "properties": { "gml_id": "layer_hotel_pt.151215", "Name": "金澜宾馆", "pyname": "jlbg", "kind": "5380", "zipcode": null, "telephone": "0731-85456638", "display_x": "112.93171", "display_y": "28.19417", "side": "R", "address": "校区路" }, "geometry": { "type": "Point", "coordinates": [ 112.92628392, 28.19769534 ] } },
{ "type": "Feature", "properties": { "gml_id": "layer_hotel_pt.151243", "Name": "正茂客房", "pyname": "zmkf", "kind": "5380", "zipcode": "410006", "telephone": null, "display_x": "112.95009", "display_y": "28.19262", "side": "R", "address": "麓山路114" }, "geometry": { "type": "Point", "coordinates": [ 112.94462304, 28.19611364 ] } },
{ "type": "Feature", "properties": { "gml_id": "layer_hotel_pt.151271", "Name": "天马主题酒店", "pyname": "tmztjd", "kind": "5380", "zipcode": "410012", "telephone": "0731-82308899", "display_x": "112.94959", "display_y": "28.16478", "side": "R", "address": "阜埠河路162" }, "geometry": { "type": "Point", "coordinates": [ 112.94412588, 28.1682729 ] } },
{ "type": "Feature", "properties": { "gml_id": "layer_hotel_pt.151337", "Name": "湘奥商务宾馆", "pyname": "xaswbg", "kind": "5380", "zipcode": null, "telephone": "0731-84132666", "display_x": "112.93782", "display_y": "28.21938", "side": "R", "address": null }, "geometry": { "type": "Point", "coordinates": [ 112.93237944, 28.22289566 ] } },
{ "type": "Feature", "properties": { "gml_id": "layer_hotel_pt.151338", "Name": "麓江商务酒店", "pyname": "ljswjd", "kind": "5380", "zipcode": "410013", "telephone": "0731-84803888", "display_x": "112.95639", "display_y": "28.20077", "side": "L", "address": "银盆南路72" }, "geometry": { "type": "Point", "coordinates": [ 112.95090792, 28.20425256 ] } },
{ "type": "Feature", "properties": { "gml_id": "layer_hotel_pt.151339", "Name": "湘畔客房", "pyname": "xpkf", "kind": "5380", "zipcode": "410013", "telephone": "0731-88883296", "display_x": "112.95655", "display_y": "28.20096", "side": "L", "address": "银盆南路78" }, "geometry": { "type": "Point", "coordinates": [ 112.95106758, 28.20444228 ] } },
{ "type": "Feature", "properties": { "gml_id": "layer_hotel_pt.151421", "Name": "中加宾馆", "pyname": "zjbg", "kind": "5380", "zipcode": null, "telephone": "0731-88861851", "display_x": "112.94451", "display_y": "28.1689", "side": "L", "address": "阜埠河路湖南大学－教学楼西北方向附近" }, "geometry": { "type": "Point", "coordinates": [ 112.9390569, 28.17240183 ] } },
{ "type": "Feature", "properties": { "gml_id": "layer_hotel_pt.151476", "Name": "金沙迎宾大酒店", "pyname": "jsybdjd", "kind": "5380", "zipcode": null, "telephone": "0731-82780410", "display_x": "112.93164", "display_y": "28.19587", "side": "R", "address": "校区路" }, "geometry": { "type": "Point", "coordinates": [ 112.92621372, 28.19939544 ] } },
{ "type": "Feature", "properties": { "gml_id": "layer_hotel_pt.151536", "Name": "金桔酒店", "pyname": "jjjd", "kind": "5380", "zipcode": null, "telephone": "0731-88799558", "display_x": "112.93508", "display_y": "28.22095", "side": "L", "address": null }, "geometry": { "type": "Point", "coordinates": [ 112.92964308, 28.22446841 ] } },
{ "type": "Feature", "properties": { "gml_id": "layer_hotel_pt.151589", "Name": "新港宾馆", "pyname": "xgbg", "kind": "5380", "zipcode": "410006", "telephone": "0731-85797998", "display_x": "112.94937", "display_y": "28.19874", "side": "R", "address": "枫林路247" }, "geometry": { "type": "Point", "coordinates": [ 112.94390394, 28.2022349 ] } },
{ "type": "Feature", "properties": { "gml_id": "layer_hotel_pt.151667", "Name": "品驿宾馆", "pyname": "pybg", "kind": "5380", "zipcode": null, "telephone": "0731-82906600", "display_x": "112.94843", "display_y": "28.16317", "side": "L", "address": null }, "geometry": { "type": "Point", "coordinates": [ 112.94296848, 28.16666474 ] } },
{ "type": "Feature", "properties": { "gml_id": "layer_hotel_pt.151668", "Name": "蓉兰商务宾馆", "pyname": "rlswbg", "kind": "5380", "zipcode": null, "telephone": "0731-82651288", "display_x": "112.95137", "display_y": "28.16451", "side": "R", "address": null }, "geometry": { "type": "Point", "coordinates": [ 112.94590212, 28.16800002 ] } },
{ "type": "Feature", "properties": { "gml_id": "layer_hotel_pt.151920", "Name": "鼎恒宾馆", "pyname": "dhbg", "kind": "5380", "zipcode": null, "telephone": "0731-88331588", "display_x": "112.94397", "display_y": "28.21638", "side": "R", "address": "岳华路59" }, "geometry": { "type": "Point", "coordinates": [ 112.9385178, 28.21988669 ] } },
{ "type": "Feature", "properties": { "gml_id": "layer_hotel_pt.151963", "Name": "7天连锁酒店天马店", "pyname": "7tlsjdtmd", "kind": "5380", "zipcode": null, "telephone": "0731-88786777", "display_x": "112.94868", "display_y": "28.16187", "side": "L", "address": "天马公寓旁" }, "geometry": { "type": "Point", "coordinates": [ 112.94321832, 28.16536437 ] } },
{ "type": "Feature", "properties": { "gml_id": "layer_hotel_pt.152306", "Name": "西西里酒店", "pyname": "xxljd", "kind": "5380", "zipcode": null, "telephone": "0731-82667299", "display_x": "112.93925", "display_y": "28.21707", "side": "R", "address": "桐梓坡路271号" }, "geometry": { "type": "Point", "coordinates": [ 112.93380774, 28.22058441 ] } },
{ "type": "Feature", "properties": { "gml_id": "layer_hotel_pt.152343", "Name": "术园宾馆", "pyname": "sybg", "kind": "5380", "zipcode": null, "telephone": "0731-82780488", "display_x": "112.93415", "display_y": "28.19637", "side": "L", "address": "白云路386号湖南省行政学院" }, "geometry": { "type": "Point", "coordinates": [ 112.92871896, 28.19989193 ] } },
{ "type": "Feature", "properties": { "gml_id": "layer_hotel_pt.152489", "Name": "天穆大酒店", "pyname": "tmdjd", "kind": "5083", "zipcode": "410012", "telephone": "0731-82856888", "display_x": "112.9465", "display_y": "28.16683", "side": "L", "address": "阜埠河路185天马学生公寓八栋" }, "geometry": { "type": "Point", "coordinates": [ 112.94104266, 28.17032828 ] } },
{ "type": "Feature", "properties": { "gml_id": "layer_hotel_pt.152523", "Name": "今天连锁酒店桐梓坡店", "pyname": "jtlsjdtzpd", "kind": "5380", "zipcode": "410001", "telephone": "0731-85583333", "display_x": "112.95418", "display_y": "28.21939", "side": "L", "address": "桐梓坡路1" }, "geometry": { "type": "Point", "coordinates": [ 112.94870364, 28.22287811 ] } },
{ "type": "Feature", "properties": { "gml_id": "layer_hotel_pt.152545", "Name": "岳麓山大酒店", "pyname": "ylsdjd", "kind": "5083", "zipcode": "410013", "telephone": "0731-88629888", "display_x": "112.92582", "display_y": "28.22491", "side": "L", "address": "岳麓大道397" }, "geometry": { "type": "Point", "coordinates": [ 112.92039864, 28.22843984 ] } },
{ "type": "Feature", "properties": { "gml_id": "layer_hotel_pt.152558", "Name": "港湾宾馆共和世家店", "pyname": "gwbgghsjd", "kind": "5380", "zipcode": null, "telephone": "0731-88983468", "display_x": "112.93324", "display_y": "28.20227", "side": "R", "address": "石佳冲路8" }, "geometry": { "type": "Point", "coordinates": [ 112.92781032, 28.20579323 ] } },
{ "type": "Feature", "properties": { "gml_id": "layer_hotel_pt.152643", "Name": "延年澜景酒店", "pyname": "ynljjd", "kind": "5084", "zipcode": null, "telephone": "0731-88773333", "display_x": "112.95693", "display_y": "28.22638", "side": "L", "address": "岳麓大道36号" }, "geometry": { "type": "Point", "coordinates": [ 112.95144162, 28.22985869 ] } },
{ "type": "Feature", "properties": { "gml_id": "layer_hotel_pt.152788", "Name": "万德时尚酒店", "pyname": "wdssjd", "kind": "5380", "zipcode": null, "telephone": "0731-84251088", "display_x": "112.93934", "display_y": "28.15417", "side": "L", "address": "中南大学升华公寓旁" }, "geometry": { "type": "Point", "coordinates": [ 112.93389918, 28.1576795 ] } },
{ "type": "Feature", "properties": { "gml_id": "layer_hotel_pt.152863", "Name": "旺湘宾馆", "pyname": "wxbg", "kind": "5380", "zipcode": "410013", "telephone": "0731-88926618", "display_x": "112.95667", "display_y": "28.20118", "side": "L", "address": "银盆南路86" }, "geometry": { "type": "Point", "coordinates": [ 112.95118728, 28.20466211 ] } },
{ "type": "Feature", "properties": { "gml_id": "layer_hotel_pt.153169", "Name": "非特主题连锁酒店长沙创意店", "pyname": "ftztlsjdcscyd", "kind": "5380", "zipcode": null, "telephone": "0731-82060000", "display_x": "112.95581", "display_y": "28.21635", "side": "L", "address": "银盆南路323" }, "geometry": { "type": "Point", "coordinates": [ 112.95032958, 28.21983476 ] } },
{ "type": "Feature", "properties": { "gml_id": "layer_hotel_pt.153170", "Name": "金色假日大酒店", "pyname": "jsjrdjd", "kind": "5380", "zipcode": null, "telephone": "0731-85817733", "display_x": "112.9444", "display_y": "28.21582", "side": "R", "address": "岳华路52" }, "geometry": { "type": "Point", "coordinates": [ 112.93894674, 28.21932585 ] } },
{ "type": "Feature", "properties": { "gml_id": "layer_hotel_pt.153355", "Name": "七月你宾馆", "pyname": "qynbg", "kind": "5380", "zipcode": null, "telephone": "0731-85772520", "display_x": "112.93438", "display_y": "28.16388", "side": "R", "address": "麓山南路739号3楼" }, "geometry": { "type": "Point", "coordinates": [ 112.92894918, 28.16739828 ] } },
{ "type": "Feature", "properties": { "gml_id": "layer_hotel_pt.153660", "Name": "通程麓山大酒店", "pyname": "tclsdjd", "kind": "5083", "zipcode": "410006", "telephone": "0731-85863888", "display_x": "112.95416", "display_y": "28.19565", "side": "L", "address": "枫林一路19" }, "geometry": { "type": "Point", "coordinates": [ 112.94868348, 28.19913642 ] } },
{ "type": "Feature", "properties": { "gml_id": "layer_hotel_pt.153695", "Name": "豪运来商务宾馆", "pyname": "hylswbg", "kind": "5380", "zipcode": null, "telephone": "0731-88903355", "display_x": "112.92173", "display_y": "28.21874", "side": "R", "address": "桐梓坡路579号" }, "geometry": { "type": "Point", "coordinates": [ 112.91631462, 28.22227403 ] } },
{ "type": "Feature", "properties": { "gml_id": "layer_hotel_pt.153696", "Name": "双鱼谷宾馆", "pyname": "sygbg", "kind": "5380", "zipcode": null, "telephone": "0731-82492520", "display_x": "112.92178", "display_y": "28.22101", "side": "L", "address": "望岳路29" }, "geometry": { "type": "Point", "coordinates": [ 112.9163643, 28.22454378 ] } },
{ "type": "Feature", "properties": { "gml_id": "layer_hotel_pt.154000", "Name": "天马大酒店", "pyname": "tmdjd", "kind": "5083", "zipcode": null, "telephone": "0731-88680888", "display_x": "112.94839", "display_y": "28.16828", "side": "L", "address": "天马路115号" }, "geometry": { "type": "Point", "coordinates": [ 112.94292852, 28.1717753 ] } },
{ "type": "Feature", "properties": { "gml_id": "layer_hotel_pt.154007", "Name": "7天连锁酒店岳长沙岳麓山店", "pyname": "7tlsjdycsylsd", "kind": "5380", "zipcode": "410006", "telephone": "0731-88791388", "display_x": "112.95104", "display_y": "28.19364", "side": "R", "address": "麓山路33" }, "geometry": { "type": "Point", "coordinates": [ 112.94557074, 28.19713194 ] } },
{ "type": "Feature", "properties": { "gml_id": "layer_hotel_pt.154070", "Name": "万德大酒店", "pyname": "wddjd", "kind": "5380", "zipcode": null, "telephone": "0731-89782588", "display_x": "112.93932", "display_y": "28.1664", "side": "R", "address": "湖南师大音乐学院内" }, "geometry": { "type": "Point", "coordinates": [ 112.9338783, 28.16991027 ] } },
{ "type": "Feature", "properties": { "gml_id": "layer_hotel_pt.154075", "Name": "西湖家庭旅馆", "pyname": "xhjtlg", "kind": "5380", "zipcode": null, "telephone": "13787419553", "display_x": "112.93976", "display_y": "28.21256", "side": "L", "address": null }, "geometry": { "type": "Point", "coordinates": [ 112.93431714, 28.21607375 ] } },
{ "type": "Feature", "properties": { "gml_id": "layer_hotel_pt.154076", "Name": "湘岳家庭旅馆", "pyname": "xyjtlg", "kind": "5380", "zipcode": null, "telephone": "13787051256", "display_x": "112.93953", "display_y": "28.21306", "side": "L", "address": null }, "geometry": { "type": "Point", "coordinates": [ 112.93408782, 28.21657424 ] } },
{ "type": "Feature", "properties": { "gml_id": "layer_hotel_pt.154254", "Name": "金枫大酒店", "pyname": "jfdjd", "kind": "5083", "zipcode": "410205", "telephone": "0731-88811888", "display_x": "112.92752", "display_y": "28.20626", "side": "R", "address": "枫林二路139号" }, "geometry": { "type": "Point", "coordinates": [ 112.92209784, 28.20978887 ] } },
{ "type": "Feature", "properties": { "gml_id": "layer_hotel_pt.154325", "Name": "枫林宾馆", "pyname": "flbg", "kind": "5084", "zipcode": "410006", "telephone": "0731-88883188", "display_x": "112.94994", "display_y": "28.19668", "side": "L", "address": "枫林一路43号" }, "geometry": { "type": "Point", "coordinates": [ 112.94447292, 28.2001739 ] } },
{ "type": "Feature", "properties": { "gml_id": "layer_hotel_pt.154472", "Name": "淏驿酒店", "pyname": "hyjd", "kind": "5380", "zipcode": "410006", "telephone": "13507416181", "display_x": "112.94744", "display_y": "28.18242", "side": "L", "address": "麓山路303" }, "geometry": { "type": "Point", "coordinates": [ 112.94198046, 28.18591835 ] } },
{ "type": "Feature", "properties": { "gml_id": "layer_hotel_pt.154546", "Name": "廊桥商务酒店", "pyname": "lqswjd", "kind": "5380", "zipcode": "410013", "telephone": "0731-88273333", "display_x": "112.95625", "display_y": "28.20045", "side": "L", "address": "银盆南路60" }, "geometry": { "type": "Point", "coordinates": [ 112.95076824, 28.20393279 ] } },
{ "type": "Feature", "properties": { "gml_id": "layer_hotel_pt.154681", "Name": "君子兰旅店", "pyname": "jzlld", "kind": "5380", "zipcode": "410013", "telephone": "0731-88900690", "display_x": "112.95632", "display_y": "28.20067", "side": "L", "address": "银盆南路68" }, "geometry": { "type": "Point", "coordinates": [ 112.95083808, 28.20415266 ] } },
{ "type": "Feature", "properties": { "gml_id": "layer_hotel_pt.154698", "Name": "集贤宾馆", "pyname": "jxbg", "kind": "5083", "zipcode": null, "telephone": "0731-88821888", "display_x": "112.94203", "display_y": "28.18148", "side": "L", "address": "岳麓书院旁" }, "geometry": { "type": "Point", "coordinates": [ 112.93658226, 28.18498734 ] } },
{ "type": "Feature", "properties": { "gml_id": "layer_hotel_pt.154885", "Name": "宇庭商务酒店", "pyname": "ytswjd", "kind": "5380", "zipcode": null, "telephone": "0731-83936666", "display_x": "112.9292", "display_y": "28.16015", "side": "R", "address": "麓山南路999号" }, "geometry": { "type": "Point", "coordinates": [ 112.92377994, 28.16367606 ] } },
{ "type": "Feature", "properties": { "gml_id": "layer_hotel_pt.155044", "Name": "顺君商务酒店", "pyname": "sjswjd", "kind": "5380", "zipcode": null, "telephone": "0731-88572788", "display_x": "112.93255", "display_y": "28.21614", "side": "R", "address": "白鹤咀街12" }, "geometry": { "type": "Point", "coordinates": [ 112.92711804, 28.21966191 ] } },
{ "type": "Feature", "properties": { "gml_id": "layer_hotel_pt.155045", "Name": "润泽商务宾馆", "pyname": "rzswbg", "kind": "5380", "zipcode": null, "telephone": "0731-85778896", "display_x": "112.92737", "display_y": "28.21407", "side": "L", "address": "咸嘉湖路润泽园小区C9栋" }, "geometry": { "type": "Point", "coordinates": [ 112.92194628, 28.21759785 ] } },
{ "type": "Feature", "properties": { "gml_id": "layer_hotel_pt.155523", "Name": "银鸿宾馆", "pyname": "yhbg", "kind": "5380", "zipcode": null, "telephone": null, "display_x": "112.95558", "display_y": "28.21769", "side": "R", "address": "银盆南路194" }, "geometry": { "type": "Point", "coordinates": [ 112.95009972, 28.22117495 ] } },
{ "type": "Feature", "properties": { "gml_id": "layer_hotel_pt.155745", "Name": "雅兰宾馆", "pyname": "ylbg", "kind": "5380", "zipcode": "410013", "telephone": "0731-88880406", "display_x": "112.95531", "display_y": "28.19907", "side": "L", "address": "银盆南路24" }, "geometry": { "type": "Point", "coordinates": [ 112.94983044, 28.20255435 ] } },
{ "type": "Feature", "properties": { "gml_id": "layer_hotel_pt.155830", "Name": "升华宾馆", "pyname": "shbg", "kind": "5380", "zipcode": null, "telephone": "0731-82256952", "display_x": "112.93834", "display_y": "28.15444", "side": "R", "address": null }, "geometry": { "type": "Point", "coordinates": [ 112.93290108, 28.15795107 ] } },
{ "type": "Feature", "properties": { "gml_id": "layer_hotel_pt.155867", "Name": "威盛宾馆", "pyname": "wsbg", "kind": "5380", "zipcode": null, "telephone": "0731-88642766", "display_x": "112.95419", "display_y": "28.22035", "side": "R", "address": "银盆南路357－3号威胜大厦B座3层301～306" }, "geometry": { "type": "Point", "coordinates": [ 112.94871318, 28.22383778 ] } },
{ "type": "Feature", "properties": { "gml_id": "layer_hotel_pt.155942", "Name": "新长江宾馆", "pyname": "xcjbg", "kind": "5380", "zipcode": "410013", "telephone": "0731-88807868", "display_x": "112.95364", "display_y": "28.2219", "side": "R", "address": "银盆南路371号" }, "geometry": { "type": "Point", "coordinates": [ 112.94816436, 28.22538879 ] } },
{ "type": "Feature", "properties": { "gml_id": "layer_hotel_pt.155952", "Name": "易夜连锁酒店岳麓山店", "pyname": "yylsjdylsd", "kind": "5380", "zipcode": "410006", "telephone": "0731-85219888", "display_x": "112.95149", "display_y": "28.1944", "side": "R", "address": "麓山路21" }, "geometry": { "type": "Point", "coordinates": [ 112.94601966, 28.19789114 ] } },
{ "type": "Feature", "properties": { "gml_id": "layer_hotel_pt.156087", "Name": "怡和宾馆", "pyname": "yhbg", "kind": "5380", "zipcode": null, "telephone": "0731-88908877", "display_x": "112.94337", "display_y": "28.21787", "side": "L", "address": "桐梓坡路105" }, "geometry": { "type": "Point", "coordinates": [ 112.9379193, 28.22137794 ] } },
{ "type": "Feature", "properties": { "gml_id": "layer_hotel_pt.156088", "Name": "富家宾馆", "pyname": "fjbg", "kind": "5380", "zipcode": null, "telephone": "0731-85411838", "display_x": "112.95526", "display_y": "28.21363", "side": "L", "address": "集贤路1" }, "geometry": { "type": "Point", "coordinates": [ 112.94978148, 28.21711613 ] } },
{ "type": "Feature", "properties": { "gml_id": "layer_hotel_pt.156143", "Name": "凯旋龙连锁酒店长沙西站店", "pyname": "kxllsjdcsxzd", "kind": "5380", "zipcode": "410205", "telephone": "0731-82130888", "display_x": "112.91658", "display_y": "28.2101", "side": "R", "address": "枫林二路649" }, "geometry": { "type": "Point", "coordinates": [ 112.9111695, 28.21363659 ] } },
{ "type": "Feature", "properties": { "gml_id": "layer_hotel_pt.156215", "Name": "星阳宾馆", "pyname": "xybg", "kind": "5380", "zipcode": "410013", "telephone": "0731-82858588", "display_x": "112.94578", "display_y": "28.21808", "side": "L", "address": "桐梓坡路59" }, "geometry": { "type": "Point", "coordinates": [ 112.94032374, 28.22158364 ] } },
{ "type": "Feature", "properties": { "gml_id": "layer_hotel_pt.156252", "Name": "久久宾馆河西店", "pyname": "jjbghxd", "kind": "5380", "zipcode": "410205", "telephone": "0731-88232999", "display_x": "112.91801", "display_y": "28.20999", "side": "L", "address": "枫林二路589号" }, "geometry": { "type": "Point", "coordinates": [ 112.91259834, 28.21352603 ] } },
{ "type": "Feature", "properties": { "gml_id": "layer_hotel_pt.156470", "Name": "通程麓山大酒店－二号楼", "pyname": "tclsdjd-ehl", "kind": "5083", "zipcode": null, "telephone": "0731-85863888", "display_x": "112.95394", "display_y": "28.19539", "side": "R", "address": "枫林一路19" }, "geometry": { "type": "Point", "coordinates": [ 112.94846388, 28.19887682 ] } },
{ "type": "Feature", "properties": { "gml_id": "layer_hotel_pt.156769", "Name": "时代帝景大酒店", "pyname": "sddjdjd", "kind": "5084", "zipcode": "410013", "telephone": "0731-88989999", "display_x": "112.93401", "display_y": "28.2174", "side": "R", "address": "桐梓坡路399" }, "geometry": { "type": "Point", "coordinates": [ 112.9285755, 28.22092011 ] } },
{ "type": "Feature", "properties": { "gml_id": "layer_hotel_pt.156845", "Name": "瑞都宾馆", "pyname": "rdbg", "kind": "5380", "zipcode": "410013", "telephone": "0731-88800868", "display_x": "112.94397", "display_y": "28.21792", "side": "L", "address": "桐梓坡路85" }, "geometry": { "type": "Point", "coordinates": [ 112.9385178, 28.22142686 ] } },
{ "type": "Feature", "properties": { "gml_id": "layer_hotel_pt.157015", "Name": "嘉客酒店", "pyname": "jkjd", "kind": "5380", "zipcode": "410000", "telephone": "0731-85867688", "display_x": "112.9225", "display_y": "28.21728", "side": "R", "address": "望岳南路1－205" }, "geometry": { "type": "Point", "coordinates": [ 112.91708394, 28.22081351 ] } },
{ "type": "Feature", "properties": { "gml_id": "layer_hotel_pt.157042", "Name": "新创宾馆", "pyname": "xcbg", "kind": "5380", "zipcode": "410006", "telephone": "0731-82131188", "display_x": "112.95064", "display_y": "28.19262", "side": "R", "address": "麓山路63" }, "geometry": { "type": "Point", "coordinates": [ 112.94517186, 28.19611265 ] } },
{ "type": "Feature", "properties": { "gml_id": "layer_hotel_pt.157092", "Name": "溪水浴国际水会酒店", "pyname": "xsygjshjd", "kind": "5380", "zipcode": "410205", "telephone": "0731-85512777", "display_x": "112.92844", "display_y": "28.22382", "side": "L", "address": "岳麓大道369号" }, "geometry": { "type": "Point", "coordinates": [ 112.92301404, 28.22734643 ] } },
{ "type": "Feature", "properties": { "gml_id": "layer_hotel_pt.157204", "Name": "7天连锁酒店岳麓山NO．2", "pyname": "7tlsjdylsn2", "kind": "5380", "zipcode": "410006", "telephone": "0731-85519177", "display_x": "112.95499", "display_y": "28.19215", "side": "L", "address": "爱民路67" }, "geometry": { "type": "Point", "coordinates": [ 112.94951202, 28.19563493 ] } },
{ "type": "Feature", "properties": { "gml_id": "layer_hotel_pt.157403", "Name": "银海商务宾馆", "pyname": "yhswbg", "kind": "5380", "zipcode": "410006", "telephone": "0731-82293033", "display_x": "112.95513", "display_y": "28.19197", "side": "L", "address": "新民路12" }, "geometry": { "type": "Point", "coordinates": [ 112.9496517, 28.1954547 ] } },
{ "type": "Feature", "properties": { "gml_id": "layer_hotel_pt.157411", "Name": "湘之都宾馆", "pyname": "xzdbg", "kind": "5380", "zipcode": null, "telephone": null, "display_x": "112.92725", "display_y": "28.15924", "side": "R", "address": null }, "geometry": { "type": "Point", "coordinates": [ 112.9218318, 28.16276715 ] } },
{ "type": "Feature", "properties": { "gml_id": "layer_hotel_pt.157475", "Name": "银馨宾馆", "pyname": "yxbg", "kind": "5380", "zipcode": null, "telephone": "0731-88902808", "display_x": "112.9543", "display_y": "28.22197", "side": "L", "address": "银盆南路298号银盆大厦4层" }, "geometry": { "type": "Point", "coordinates": [ 112.94882226, 28.22545701 ] } },
{ "type": "Feature", "properties": { "gml_id": "layer_hotel_pt.157536", "Name": "易佰连锁旅店长沙市政府店", "pyname": "yblsldcsszfd", "kind": "5380", "zipcode": null, "telephone": "0731-88616777|0731-88861677", "display_x": "112.93247", "display_y": "28.22227", "side": "R", "address": "银双路408－3" }, "geometry": { "type": "Point", "coordinates": [ 112.92703686, 28.22579118 ] } },
{ "type": "Feature", "properties": { "gml_id": "layer_hotel_pt.157548", "Name": "东骏家庭旅馆", "pyname": "djjtlg", "kind": "5380", "zipcode": null, "telephone": "0731-84167867", "display_x": "112.93793", "display_y": "28.21991", "side": "R", "address": null }, "geometry": { "type": "Point", "coordinates": [ 112.93248906, 28.22342544 ] } },
{ "type": "Feature", "properties": { "gml_id": "layer_hotel_pt.157582", "Name": "鑫华家庭旅馆", "pyname": "xhjtlg", "kind": "5380", "zipcode": null, "telephone": "15573175606", "display_x": "112.9252", "display_y": "28.21414", "side": "R", "address": null }, "geometry": { "type": "Point", "coordinates": [ 112.91977944, 28.21767021 ] } },
{ "type": "Feature", "properties": { "gml_id": "layer_hotel_pt.157584", "Name": "易夜连锁酒店中南大学店", "pyname": "yylsjdzndxd", "kind": "5380", "zipcode": null, "telephone": "0731-85157799", "display_x": "112.93267", "display_y": "28.16351", "side": "R", "address": "麓南广场旁（中南大学对面）" }, "geometry": { "type": "Point", "coordinates": [ 112.92724278, 28.16703108 ] } },
{ "type": "Feature", "properties": { "gml_id": "layer_hotel_pt.157645", "Name": "大地住宿", "pyname": "ddzs", "kind": "5380", "zipcode": null, "telephone": "0731-88912692", "display_x": "112.94636", "display_y": "28.21867", "side": "R", "address": "桐梓坡路106" }, "geometry": { "type": "Point", "coordinates": [ 112.94090244, 28.22217264 ] } },
{ "type": "Feature", "properties": { "gml_id": "layer_hotel_pt.157675", "Name": "金天鑫商务旅馆", "pyname": "jtxswlg", "kind": "5380", "zipcode": null, "telephone": null, "display_x": "112.93568", "display_y": "28.16509", "side": "L", "address": "麓山南路" }, "geometry": { "type": "Point", "coordinates": [ 112.93024626, 28.16860622 ] } },
{ "type": "Feature", "properties": { "gml_id": "layer_hotel_pt.157701", "Name": "港湾商务酒店西湖店", "pyname": "gwswjdxhd", "kind": "5380", "zipcode": null, "telephone": "0731-89710928", "display_x": "112.93464", "display_y": "28.2023", "side": "R", "address": "枫林一路627号" }, "geometry": { "type": "Point", "coordinates": [ 112.9292082, 28.20582167 ] } },
{ "type": "Feature", "properties": { "gml_id": "layer_hotel_pt.157702", "Name": "起点客房", "pyname": "qdkf", "kind": "5380", "zipcode": null, "telephone": "0731-82491304", "display_x": "112.9219", "display_y": "28.2098", "side": "L", "address": "枫林二路" }, "geometry": { "type": "Point", "coordinates": [ 112.9164849, 28.21333401 ] } },
{ "type": "Feature", "properties": { "gml_id": "layer_hotel_pt.157844", "Name": "德力家庭旅馆", "pyname": "dljtlg", "kind": "5380", "zipcode": null, "telephone": "18890395640", "display_x": "112.93561", "display_y": "28.20229", "side": "R", "address": "枫林一路" }, "geometry": { "type": "Point", "coordinates": [ 112.93017606, 28.20580997 ] } },
{ "type": "Feature", "properties": { "gml_id": "layer_hotel_pt.157845", "Name": "奥奥家庭旅馆", "pyname": "aajtlg", "kind": "5380", "zipcode": null, "telephone": "18684679810", "display_x": "112.94099", "display_y": "28.16637", "side": "R", "address": "麓山南路" }, "geometry": { "type": "Point", "coordinates": [ 112.93554474, 28.16987747 ] } },
{ "type": "Feature", "properties": { "gml_id": "layer_hotel_pt.157848", "Name": "美眠家庭商务旅馆", "pyname": "mmjtswlg", "kind": "5380", "zipcode": null, "telephone": "0731-89602079", "display_x": "112.92212", "display_y": "28.22384", "side": "L", "address": "窑塘新村1片114" }, "geometry": { "type": "Point", "coordinates": [ 112.91670378, 28.22737334 ] } },
{ "type": "Feature", "properties": { "gml_id": "layer_hotel_pt.157969", "Name": "今生缘家庭旅馆", "pyname": "jsyjtlg", "kind": "5380", "zipcode": null, "telephone": "0731-89677192", "display_x": "112.93635", "display_y": "28.21182", "side": "R", "address": "咸嘉湖西路" }, "geometry": { "type": "Point", "coordinates": [ 112.93091334, 28.2153384 ] } },
{ "type": "Feature", "properties": { "gml_id": "layer_hotel_pt.158010", "Name": "中俊商务酒店", "pyname": "zjswjd", "kind": "5380", "zipcode": "410012", "telephone": "0731-82545288", "display_x": "112.93586", "display_y": "28.16459", "side": "R", "address": "麓山美庐4楼" }, "geometry": { "type": "Point", "coordinates": [ 112.9304259, 28.16810586 ] } },
{ "type": "Feature", "properties": { "gml_id": "layer_hotel_pt.158011", "Name": "居众宾馆", "pyname": "jzbg", "kind": "5380", "zipcode": "410012", "telephone": "0731-82943390", "display_x": "112.93586", "display_y": "28.16459", "side": "R", "address": "麓山美庐3楼" }, "geometry": { "type": "Point", "coordinates": [ 112.9304259, 28.16810586 ] } },
{ "type": "Feature", "properties": { "gml_id": "layer_hotel_pt.158032", "Name": "爱慕旅店", "pyname": "amld", "kind": "5380", "zipcode": null, "telephone": "0731-82240003", "display_x": "112.93446", "display_y": "28.16457", "side": "L", "address": "麓山南路876" }, "geometry": { "type": "Point", "coordinates": [ 112.92902892, 28.16808822 ] } },
{ "type": "Feature", "properties": { "gml_id": "layer_hotel_pt.158190", "Name": "全季酒店长沙岳麓书院店", "pyname": "qjjdcsylsyd", "kind": "5380", "zipcode": null, "telephone": "0731-85307666", "display_x": "112.95506", "display_y": "28.19551", "side": "R", "address": "枫林一路9号" }, "geometry": { "type": "Point", "coordinates": [ 112.94958132, 28.19899481 ] } },
{ "type": "Feature", "properties": { "gml_id": "layer_hotel_pt.158322", "Name": "天华宾馆桐梓坡路店", "pyname": "thbgtzpld", "kind": "5380", "zipcode": null, "telephone": "13307496208", "display_x": "112.94643", "display_y": "28.21815", "side": "L", "address": "桐梓坡路51－1" }, "geometry": { "type": "Point", "coordinates": [ 112.94097228, 28.22165249 ] } },
{ "type": "Feature", "properties": { "gml_id": "layer_hotel_pt.158390", "Name": "银双客房", "pyname": "yskf", "kind": "5380", "zipcode": null, "telephone": "0731-82293975", "display_x": "112.94708", "display_y": "28.22242", "side": "R", "address": "银双路" }, "geometry": { "type": "Point", "coordinates": [ 112.941621, 28.22592182 ] } },
{ "type": "Feature", "properties": { "gml_id": "layer_hotel_pt.158945", "Name": "时尚家庭旅馆", "pyname": "ssjtlg", "kind": "5380", "zipcode": null, "telephone": "13080515138", "display_x": "112.94936", "display_y": "28.16221", "side": "R", "address": null }, "geometry": { "type": "Point", "coordinates": [ 112.94389674, 28.16570327 ] } },
{ "type": "Feature", "properties": { "gml_id": "layer_hotel_pt.158949", "Name": "快乐惠酒店溁湾镇岳枫店", "pyname": "klhjdywzyfd", "kind": "5380", "zipcode": null, "telephone": "0731-89798498", "display_x": "112.95097", "display_y": "28.19555", "side": "R", "address": "麓山路12" }, "geometry": { "type": "Point", "coordinates": [ 112.94550072, 28.19904206 ] } },
{ "type": "Feature", "properties": { "gml_id": "layer_hotel_pt.159102", "Name": "湘澧盐化驻长招待所", "pyname": "xlyhzczds", "kind": "5380", "zipcode": "410006", "telephone": "0731-88883769", "display_x": "112.9523", "display_y": "28.19253", "side": "R", "address": "新民路147" }, "geometry": { "type": "Point", "coordinates": [ 112.94682804, 28.19601972 ] } },
{ "type": "Feature", "properties": { "gml_id": "layer_hotel_pt.159167", "Name": "家熙宾馆", "pyname": "jxbg", "kind": "5380", "zipcode": null, "telephone": "0731-82093333", "display_x": "112.92182", "display_y": "28.21781", "side": "L", "address": "望岳南路1－101" }, "geometry": { "type": "Point", "coordinates": [ 112.9164048, 28.2213441 ] } },
{ "type": "Feature", "properties": { "gml_id": "layer_hotel_pt.159175", "Name": "福尚家庭旅馆银双店", "pyname": "fsjtlgysd", "kind": "5380", "zipcode": null, "telephone": "0731-85828308", "display_x": "112.942", "display_y": "28.22196", "side": "L", "address": "银双路105" }, "geometry": { "type": "Point", "coordinates": [ 112.93655256, 28.22547069 ] } },
{ "type": "Feature", "properties": { "gml_id": "layer_hotel_pt.159320", "Name": "后湖客栈", "pyname": "hhkz", "kind": "5380", "zipcode": null, "telephone": "0731-84323018", "display_x": "112.93971", "display_y": "28.15178", "side": "R", "address": "靳江路后湖新村1栋旁" }, "geometry": { "type": "Point", "coordinates": [ 112.93426872, 28.15528896 ] } },
{ "type": "Feature", "properties": { "gml_id": "layer_hotel_pt.159425", "Name": "金绅宾馆", "pyname": "jsbg", "kind": "5380", "zipcode": null, "telephone": "0731-82254688", "display_x": "112.94426", "display_y": "28.21521", "side": "L", "address": "岳华路73" }, "geometry": { "type": "Point", "coordinates": [ 112.93880706, 28.21871601 ] } },
{ "type": "Feature", "properties": { "gml_id": "layer_hotel_pt.159509", "Name": "锦和家庭宾馆", "pyname": "jhjtbg", "kind": "5380", "zipcode": null, "telephone": "18974975624", "display_x": "112.93931", "display_y": "28.21701", "side": "R", "address": null }, "geometry": { "type": "Point", "coordinates": [ 112.93386768, 28.22052438 ] } },
{ "type": "Feature", "properties": { "gml_id": "layer_hotel_pt.159527", "Name": "龙泽主题家庭旅馆", "pyname": "lzztjtlg", "kind": "5380", "zipcode": null, "telephone": "0731-88759191", "display_x": "112.94136", "display_y": "28.15375", "side": "L", "address": null }, "geometry": { "type": "Point", "coordinates": [ 112.935915, 28.15725627 ] } },
{ "type": "Feature", "properties": { "gml_id": "layer_hotel_pt.159551", "Name": "鑫旺家庭旅馆", "pyname": "xwjtlg", "kind": "5380", "zipcode": null, "telephone": "0731-82308822", "display_x": "112.95157", "display_y": "28.16392", "side": "R", "address": "阜埠河路" }, "geometry": { "type": "Point", "coordinates": [ 112.94610192, 28.16740971 ] } },
{ "type": "Feature", "properties": { "gml_id": "layer_hotel_pt.159633", "Name": "7天连锁酒店岳麓山湖大店", "pyname": "7tlsjdylshdd", "kind": "5380", "zipcode": null, "telephone": "0731-88780777", "display_x": "112.94505", "display_y": "28.1682", "side": "L", "address": "阜埠河路天马村鱼湾市B栋" }, "geometry": { "type": "Point", "coordinates": [ 112.93959582, 28.17170087 ] } },
{ "type": "Feature", "properties": { "gml_id": "layer_hotel_pt.159646", "Name": "广圣家庭旅馆", "pyname": "gsjtlg", "kind": "5380", "zipcode": null, "telephone": null, "display_x": "112.94327", "display_y": "28.16817", "side": "R", "address": null }, "geometry": { "type": "Point", "coordinates": [ 112.93781958, 28.17167387 ] } },
{ "type": "Feature", "properties": { "gml_id": "layer_hotel_pt.159707", "Name": "京浙旅馆", "pyname": "jzlg", "kind": "5380", "zipcode": null, "telephone": "0731-82072126", "display_x": "112.94099", "display_y": "28.16637", "side": "R", "address": "麓山南路" }, "geometry": { "type": "Point", "coordinates": [ 112.93554474, 28.16987747 ] } },
{ "type": "Feature", "properties": { "gml_id": "layer_hotel_pt.159857", "Name": "爱民商务旅馆", "pyname": "amswlg", "kind": "5380", "zipcode": null, "telephone": "0731-82297539", "display_x": "112.95436", "display_y": "28.19416", "side": "R", "address": "爱民路" }, "geometry": { "type": "Point", "coordinates": [ 112.9488831, 28.19764607 ] } },
{ "type": "Feature", "properties": { "gml_id": "layer_hotel_pt.159905", "Name": "久久家庭旅馆", "pyname": "jjjtlg", "kind": "5380", "zipcode": null, "telephone": null, "display_x": "112.92682", "display_y": "28.20094", "side": "L", "address": "望新路42" }, "geometry": { "type": "Point", "coordinates": [ 112.92139908, 28.20446928 ] } },
{ "type": "Feature", "properties": { "gml_id": "layer_hotel_pt.159977", "Name": "红楼宾馆二号楼", "pyname": "hlbgehl", "kind": "5083", "zipcode": null, "telephone": "0731-88872188", "display_x": "112.94746", "display_y": "28.19213", "side": "R", "address": "麓山南路36号" }, "geometry": { "type": "Point", "coordinates": [ 112.94199918, 28.19562831 ] } },
{ "type": "Feature", "properties": { "gml_id": "layer_hotel_pt.160139", "Name": "华丰园家庭旅馆", "pyname": "hfyjtlg", "kind": "5380", "zipcode": null, "telephone": "18664470198", "display_x": "112.92241", "display_y": "28.22355", "side": "R", "address": null }, "geometry": { "type": "Point", "coordinates": [ 112.91699358, 28.22708327 ] } },
{ "type": "Feature", "properties": { "gml_id": "layer_hotel_pt.160140", "Name": "远军家庭旅馆", "pyname": "yjjtlg", "kind": "5380", "zipcode": null, "telephone": "18627560783", "display_x": "112.92232", "display_y": "28.22356", "side": "R", "address": null }, "geometry": { "type": "Point", "coordinates": [ 112.91690358, 28.2270933 ] } },
{ "type": "Feature", "properties": { "gml_id": "layer_hotel_pt.160533", "Name": "穆泰酒店", "pyname": "mtjd", "kind": "5380", "zipcode": null, "telephone": "0731-89708188", "display_x": "112.93829", "display_y": "28.15436", "side": "L", "address": "后湖路后湖小区23栋" }, "geometry": { "type": "Point", "coordinates": [ 112.93285122, 28.15787115 ] } },
{ "type": "Feature", "properties": { "gml_id": "layer_hotel_pt.160637", "Name": "佳乐宾馆", "pyname": "jlbg", "kind": "5380", "zipcode": null, "telephone": "15573137617", "display_x": "112.93438", "display_y": "28.16388", "side": "R", "address": "麓山南路739号3楼" }, "geometry": { "type": "Point", "coordinates": [ 112.92894918, 28.16739828 ] } },
{ "type": "Feature", "properties": { "gml_id": "layer_hotel_pt.160713", "Name": "新隆家庭旅馆", "pyname": "xljtlg", "kind": "5380", "zipcode": null, "telephone": null, "display_x": "112.93881", "display_y": "28.19949", "side": "L", "address": "谭石路" }, "geometry": { "type": "Point", "coordinates": [ 112.93336854, 28.2030039 ] } },
{ "type": "Feature", "properties": { "gml_id": "layer_hotel_pt.160744", "Name": "麓枫华天假日酒店", "pyname": "lfhtjrjd", "kind": "5084", "zipcode": null, "telephone": "0731-88311999", "display_x": "112.94422", "display_y": "28.16907", "side": "R", "address": "麓山南路与阜埠河路交汇处" }, "geometry": { "type": "Point", "coordinates": [ 112.93876764, 28.17257234 ] } },
{ "type": "Feature", "properties": { "gml_id": "layer_hotel_pt.160759", "Name": "学习吧时尚酒店", "pyname": "xxbssjd", "kind": "5380", "zipcode": null, "telephone": "0731-85860328", "display_x": "112.93956", "display_y": "28.15555", "side": "R", "address": "后湖小区27栋" }, "geometry": { "type": "Point", "coordinates": [ 112.93411842, 28.15905911 ] } },
{ "type": "Feature", "properties": { "gml_id": "layer_hotel_pt.160912", "Name": "汉庭快捷酒店长沙岳麓山店", "pyname": "htkjjdcsylsd", "kind": "5380", "zipcode": null, "telephone": "0731-85819595", "display_x": "112.95163", "display_y": "28.19382", "side": "R", "address": "麓山路29号" }, "geometry": { "type": "Point", "coordinates": [ 112.94615934, 28.19731091 ] } },
{ "type": "Feature", "properties": { "gml_id": "layer_hotel_pt.160926", "Name": "人缘家庭旅馆", "pyname": "ryjtlg", "kind": "5380", "zipcode": null, "telephone": "15074921973", "display_x": "112.95175", "display_y": "28.16389", "side": "R", "address": "阜埠河路32" }, "geometry": { "type": "Point", "coordinates": [ 112.94628156, 28.16737943 ] } },
{ "type": "Feature", "properties": { "gml_id": "layer_hotel_pt.161053", "Name": "鸿业楼宾馆", "pyname": "hylbg", "kind": "5380", "zipcode": null, "telephone": "0731-88837601", "display_x": "112.93655", "display_y": "28.1628", "side": "R", "address": "中南大学南校区内" }, "geometry": { "type": "Point", "coordinates": [ 112.9311144, 28.16631455 ] } },
{ "type": "Feature", "properties": { "gml_id": "layer_hotel_pt.161079", "Name": "阳光宾馆", "pyname": "ygbg", "kind": "5380", "zipcode": "410012", "telephone": "0731-88631596", "display_x": "112.93586", "display_y": "28.16459", "side": "R", "address": "麓山美庐2楼" }, "geometry": { "type": "Point", "coordinates": [ 112.9304259, 28.16810586 ] } },
{ "type": "Feature", "properties": { "gml_id": "layer_hotel_pt.161080", "Name": "湘腾盘龙山酒店", "pyname": "xtplsjd", "kind": "5380", "zipcode": null, "telephone": "0731-88983888", "display_x": "112.93511", "display_y": "28.2196", "side": "L", "address": "金星大道438号" }, "geometry": { "type": "Point", "coordinates": [ 112.92967332, 28.22311859 ] } },
{ "type": "Feature", "properties": { "gml_id": "layer_hotel_pt.161091", "Name": "小青年家庭旅馆", "pyname": "xqnjtlg", "kind": "5380", "zipcode": null, "telephone": "0731-88299191", "display_x": "112.95147", "display_y": "28.16404", "side": "R", "address": null }, "geometry": { "type": "Point", "coordinates": [ 112.94600202, 28.16752986 ] } },
{ "type": "Feature", "properties": { "gml_id": "layer_hotel_pt.161222", "Name": "麓枫客房", "pyname": "lfkf", "kind": "5380", "zipcode": null, "telephone": "13723881266", "display_x": "112.95151", "display_y": "28.16453", "side": "R", "address": null }, "geometry": { "type": "Point", "coordinates": [ 112.9460418, 28.16801978 ] } },
{ "type": "Feature", "properties": { "gml_id": "layer_hotel_pt.161269", "Name": "快乐驿站宾馆", "pyname": "klyzbg", "kind": "5380", "zipcode": null, "telephone": "0731-82366588", "display_x": "112.93438", "display_y": "28.16388", "side": "R", "address": "麓山南路739号3楼" }, "geometry": { "type": "Point", "coordinates": [ 112.92894918, 28.16739828 ] } },
{ "type": "Feature", "properties": { "gml_id": "layer_hotel_pt.161311", "Name": "金水湾酒店河西分店", "pyname": "jswjdhxfd", "kind": "5380", "zipcode": null, "telephone": "0731-85196999", "display_x": "112.9293", "display_y": "28.21765", "side": "L", "address": "桐梓坡路沁园春御院8／9栋第3层" }, "geometry": { "type": "Point", "coordinates": [ 112.92387246, 28.22117522 ] } },
{ "type": "Feature", "properties": { "gml_id": "layer_hotel_pt.161457", "Name": "盛逸酒店", "pyname": "syjd", "kind": "5380", "zipcode": null, "telephone": "0731-85288088", "display_x": "112.91758", "display_y": "28.22285", "side": "R", "address": "岳麓大道545号" }, "geometry": { "type": "Point", "coordinates": [ 112.91216724, 28.22638509 ] } },
{ "type": "Feature", "properties": { "gml_id": "layer_hotel_pt.161545", "Name": "美奥斯乐酒店", "pyname": "masljd", "kind": "5084", "zipcode": null, "telephone": "0731-89925656", "display_x": "112.93446", "display_y": "28.21449", "side": "L", "address": "金星中路400" }, "geometry": { "type": "Point", "coordinates": [ 112.9290255, 28.21801005 ] } },
{ "type": "Feature", "properties": { "gml_id": "layer_hotel_pt.161592", "Name": "鑫海家庭旅馆", "pyname": "xhjtlg", "kind": "5380", "zipcode": null, "telephone": "0731-85144016", "display_x": "112.952", "display_y": "28.16385", "side": "R", "address": "阜埠河路46" }, "geometry": { "type": "Point", "coordinates": [ 112.94653104, 28.16733902 ] } },
{ "type": "Feature", "properties": { "gml_id": "layer_hotel_pt.161608", "Name": "雅韵客房", "pyname": "yykf", "kind": "5380", "zipcode": null, "telephone": null, "display_x": "112.9419", "display_y": "28.20176", "side": "R", "address": "枫林一路" }, "geometry": { "type": "Point", "coordinates": [ 112.9364514, 28.20526866 ] } },
{ "type": "Feature", "properties": { "gml_id": "layer_hotel_pt.161800", "Name": "湘浦客房部", "pyname": "xpkfb", "kind": "5380", "zipcode": null, "telephone": "0731-82293418", "display_x": "112.92538", "display_y": "28.17555", "side": "L", "address": null }, "geometry": { "type": "Point", "coordinates": [ 112.91996196, 28.17907862 ] } },
{ "type": "Feature", "properties": { "gml_id": "layer_hotel_pt.161915", "Name": "新青年旅馆", "pyname": "xqnlg", "kind": "5380", "zipcode": null, "telephone": "0731-88802268", "display_x": "112.93775", "display_y": "28.15829", "side": "R", "address": null }, "geometry": { "type": "Point", "coordinates": [ 112.93231176, 28.16180204 ] } },
{ "type": "Feature", "properties": { "gml_id": "layer_hotel_pt.161956", "Name": "北湾商务酒店", "pyname": "bwswjd", "kind": "5380", "zipcode": null, "telephone": "0731-88645999", "display_x": "112.95675", "display_y": "28.21436", "side": "L", "address": "银盆南路305－2" }, "geometry": { "type": "Point", "coordinates": [ 112.95126738, 28.21784288 ] } },
{ "type": "Feature", "properties": { "gml_id": "layer_hotel_pt.161957", "Name": "和润·香水湾都市假日酒店", "pyname": "hrxswdsjrjd", "kind": "5085", "zipcode": null, "telephone": "0731-89835555", "display_x": "112.9548", "display_y": "28.2184", "side": "L", "address": "银盆南路337号" }, "geometry": { "type": "Point", "coordinates": [ 112.94932212, 28.2218868 ] } },
{ "type": "Feature", "properties": { "gml_id": "layer_hotel_pt.161960", "Name": "华湘商务宾馆", "pyname": "hxswbg", "kind": "5380", "zipcode": null, "telephone": "0731-82051888", "display_x": "112.94086", "display_y": "28.20201", "side": "R", "address": "枫林一路与白云路交界处" }, "geometry": { "type": "Point", "coordinates": [ 112.93541388, 28.20552053 ] } },
{ "type": "Feature", "properties": { "gml_id": "layer_hotel_pt.161961", "Name": "简爱家庭旅馆", "pyname": "jajtlg", "kind": "5380", "zipcode": null, "telephone": "0731-89927278", "display_x": "112.94034", "display_y": "28.20203", "side": "R", "address": "枫林一路" }, "geometry": { "type": "Point", "coordinates": [ 112.93489512, 28.2055415 ] } },
{ "type": "Feature", "properties": { "gml_id": "layer_hotel_pt.162027", "Name": "晚风宾馆", "pyname": "wfbg", "kind": "5380", "zipcode": null, "telephone": null, "display_x": "112.92325", "display_y": "28.21624", "side": "L", "address": null }, "geometry": { "type": "Point", "coordinates": [ 112.91783256, 28.21977252 ] } },
{ "type": "Feature", "properties": { "gml_id": "layer_hotel_pt.162104", "Name": "豪来登酒店", "pyname": "hldjd", "kind": "5380", "zipcode": null, "telephone": "0731-89729555", "display_x": "112.93895", "display_y": "28.19946", "side": "L", "address": "谭石路" }, "geometry": { "type": "Point", "coordinates": [ 112.93350822, 28.20297366 ] } },
{ "type": "Feature", "properties": { "gml_id": "layer_hotel_pt.162118", "Name": "尚亿精品酒店", "pyname": "syjpjd", "kind": "5380", "zipcode": null, "telephone": "0731-85866588", "display_x": "112.92629", "display_y": "28.21379", "side": "R", "address": "润泽园C区11栋" }, "geometry": { "type": "Point", "coordinates": [ 112.9208679, 28.21731908 ] } },
{ "type": "Feature", "properties": { "gml_id": "layer_hotel_pt.162119", "Name": "富民家庭旅馆", "pyname": "fmjtlg", "kind": "5380", "zipcode": null, "telephone": "13677392835", "display_x": "112.94521", "display_y": "28.17346", "side": "L", "address": "麓山南路218－2" }, "geometry": { "type": "Point", "coordinates": [ 112.9397553, 28.17696114 ] } },
{ "type": "Feature", "properties": { "gml_id": "layer_hotel_pt.162124", "Name": "觅人酒店", "pyname": "mrjd", "kind": "5380", "zipcode": null, "telephone": "0731-88795888", "display_x": "112.95514", "display_y": "28.19796", "side": "L", "address": "银盆南路10" }, "geometry": { "type": "Point", "coordinates": [ 112.94966088, 28.20144465 ] } },
{ "type": "Feature", "properties": { "gml_id": "layer_hotel_pt.162218", "Name": "星期吧家庭旅馆", "pyname": "xqbjtlg", "kind": "5380", "zipcode": null, "telephone": "18874785706", "display_x": "112.93731", "display_y": "28.16562", "side": "L", "address": "麓山南路" }, "geometry": { "type": "Point", "coordinates": [ 112.93187274, 28.16913357 ] } },
{ "type": "Feature", "properties": { "gml_id": "layer_hotel_pt.162294", "Name": "如家酒店连锁中联科技园店", "pyname": "rjjdlszlkjyd", "kind": "5380", "zipcode": null, "telephone": "0731-82788322", "display_x": "112.95198", "display_y": "28.21983", "side": "R", "address": "桐梓坡路34号" }, "geometry": { "type": "Point", "coordinates": [ 112.94650944, 28.22332271 ] } },
{ "type": "Feature", "properties": { "gml_id": "layer_hotel_pt.162342", "Name": "汉庭快捷酒店银盆南路店", "pyname": "htkjjdypnld", "kind": "5380", "zipcode": null, "telephone": "0731-88601166", "display_x": "112.95529", "display_y": "28.21683", "side": "L", "address": "银盆岭麓源路102号" }, "geometry": { "type": "Point", "coordinates": [ 112.94981118, 28.22031599 ] } },
{ "type": "Feature", "properties": { "gml_id": "layer_hotel_pt.162449", "Name": "御天宾馆", "pyname": "ytbg", "kind": "5380", "zipcode": "410006", "telephone": "15273161816", "display_x": "112.94969", "display_y": "28.19845", "side": "R", "address": "枫林路225" }, "geometry": { "type": "Point", "coordinates": [ 112.94422326, 28.20194433 ] } },
{ "type": "Feature", "properties": { "gml_id": "layer_hotel_pt.162452", "Name": "86悦巢连锁酒店", "pyname": "86yclsjd", "kind": "5380", "zipcode": null, "telephone": "0731-85782938", "display_x": "112.93438", "display_y": "28.16388", "side": "R", "address": "麓山南路739号3楼" }, "geometry": { "type": "Point", "coordinates": [ 112.92894918, 28.16739828 ] } },
{ "type": "Feature", "properties": { "gml_id": "layer_hotel_pt.162453", "Name": "一生缘商务客房", "pyname": "ysyswkf", "kind": "5380", "zipcode": null, "telephone": "0731-84553806", "display_x": "112.92827", "display_y": "28.16181", "side": "L", "address": null }, "geometry": { "type": "Point", "coordinates": [ 112.9228506, 28.16533665 ] } },
{ "type": "Feature", "properties": { "gml_id": "layer_hotel_pt.162622", "Name": "兰卡威公寓旅馆", "pyname": "lkwgylg", "kind": "5501", "zipcode": null, "telephone": "0731-89772678", "display_x": "112.95275", "display_y": "28.22481", "side": "R", "address": "兰卡威国际公寓19层1916" }, "geometry": { "type": "Point", "coordinates": [ 112.94727606, 28.22830025 ] } },
{ "type": "Feature", "properties": { "gml_id": "layer_hotel_pt.162630", "Name": "天天宾馆", "pyname": "ttbg", "kind": "5380", "zipcode": null, "telephone": null, "display_x": "112.93482", "display_y": "28.16485", "side": "L", "address": "麓山南路826" }, "geometry": { "type": "Point", "coordinates": [ 112.9293882, 28.16836763 ] } },
{ "type": "Feature", "properties": { "gml_id": "layer_hotel_pt.162824", "Name": "星月旅馆", "pyname": "xylg", "kind": "5380", "zipcode": null, "telephone": "0731-89727272", "display_x": "112.93752", "display_y": "28.21072", "side": "L", "address": "咸嘉湖路676号" }, "geometry": { "type": "Point", "coordinates": [ 112.9320819, 28.21423725 ] } },
{ "type": "Feature", "properties": { "gml_id": "layer_hotel_pt.163041", "Name": "和园学生公寓", "pyname": "hyxsgy", "kind": "5502", "zipcode": null, "telephone": null, "display_x": "112.91791", "display_y": "28.21574", "side": "L", "address": null }, "geometry": { "type": "Point", "coordinates": [ 112.9124979, 28.21927577 ] } },
{ "type": "Feature", "properties": { "gml_id": "layer_hotel_pt.163114", "Name": "7天连锁酒店长沙银盆岭湘雅附三店", "pyname": "7tlsjdcsyplxyfsd", "kind": "5380", "zipcode": "410013", "telephone": "0731-82098777", "display_x": "112.95443", "display_y": "28.22117", "side": "L", "address": "银盆南路282" }, "geometry": { "type": "Point", "coordinates": [ 112.94895204, 28.22465691 ] } },
{ "type": "Feature", "properties": { "gml_id": "layer_hotel_pt.163115", "Name": "泓群小宾馆", "pyname": "hqxbg", "kind": "5380", "zipcode": null, "telephone": "13974913830", "display_x": "112.94398", "display_y": "28.21784", "side": "L", "address": "岳华路" }, "geometry": { "type": "Point", "coordinates": [ 112.93852788, 28.2213468 ] } },
{ "type": "Feature", "properties": { "gml_id": "layer_hotel_pt.163116", "Name": "岳华客房", "pyname": "yhkf", "kind": "5380", "zipcode": null, "telephone": "0731-84899209", "display_x": "112.94453", "display_y": "28.21478", "side": "L", "address": "岳华路47" }, "geometry": { "type": "Point", "coordinates": [ 112.93907634, 28.2182855 ] } },
{ "type": "Feature", "properties": { "gml_id": "layer_hotel_pt.163161", "Name": "璐升宾馆", "pyname": "lsbg", "kind": "5380", "zipcode": null, "telephone": null, "display_x": "112.92203", "display_y": "28.1709", "side": "R", "address": "溁左路" }, "geometry": { "type": "Point", "coordinates": [ 112.91661558, 28.17443043 ] } },
{ "type": "Feature", "properties": { "gml_id": "layer_hotel_pt.163673", "Name": "悦达家庭旅馆", "pyname": "ydjtlg", "kind": "5380", "zipcode": null, "telephone": "0731-83933590", "display_x": "112.9232", "display_y": "28.16228", "side": "R", "address": null }, "geometry": { "type": "Point", "coordinates": [ 112.9177854, 28.16580951 ] } },
{ "type": "Feature", "properties": { "gml_id": "layer_hotel_pt.163759", "Name": "寓意时尚商务酒店", "pyname": "yyssswjd", "kind": "5380", "zipcode": null, "telephone": "0731-85778999", "display_x": "112.92157", "display_y": "28.22279", "side": "L", "address": "望岳路85号" }, "geometry": { "type": "Point", "coordinates": [ 112.91615424, 28.22632362 ] } },
{ "type": "Feature", "properties": { "gml_id": "layer_hotel_pt.164082", "Name": "西米快捷酒店溁湾镇店", "pyname": "xmkjjdywzd", "kind": "5380", "zipcode": "410006", "telephone": "0731-88707188", "display_x": "112.94865", "display_y": "28.19897", "side": "R", "address": "枫林一路303" }, "geometry": { "type": "Point", "coordinates": [ 112.94318574, 28.20246624 ] } },
{ "type": "Feature", "properties": { "gml_id": "layer_hotel_pt.164118", "Name": "转角爱家庭旅馆", "pyname": "zjajtlg", "kind": "5380", "zipcode": null, "telephone": "0731-82021057", "display_x": "112.92725", "display_y": "28.20044", "side": "R", "address": "石佳冲路" }, "geometry": { "type": "Point", "coordinates": [ 112.92182856, 28.20396893 ] } },
{ "type": "Feature", "properties": { "gml_id": "layer_hotel_pt.164178", "Name": "蚁巢连锁旅馆", "pyname": "yclslg", "kind": "5380", "zipcode": null, "telephone": "0731-89712233", "display_x": "112.93529", "display_y": "28.2196", "side": "L", "address": null }, "geometry": { "type": "Point", "coordinates": [ 112.92985314, 28.22311836 ] } },
{ "type": "Feature", "properties": { "gml_id": "layer_hotel_pt.164179", "Name": "坤龙酒店", "pyname": "kljd", "kind": "5380", "zipcode": null, "telephone": "0731-89715079", "display_x": "112.93347", "display_y": "28.21528", "side": "R", "address": "金星中路313号新天地大厦旁" }, "geometry": { "type": "Point", "coordinates": [ 112.92803676, 28.21880102 ] } },
{ "type": "Feature", "properties": { "gml_id": "layer_hotel_pt.164293", "Name": "枫华家庭旅馆", "pyname": "fhjtlg", "kind": "5380", "zipcode": "410006", "telephone": null, "display_x": "112.94906", "display_y": "28.19896", "side": "R", "address": "枫林一路269" }, "geometry": { "type": "Point", "coordinates": [ 112.9435947, 28.20245549 ] } },
{ "type": "Feature", "properties": { "gml_id": "layer_hotel_pt.164318", "Name": "金盛宾馆", "pyname": "jsbg", "kind": "5380", "zipcode": "410013", "telephone": "0731-88901658", "display_x": "112.94866", "display_y": "28.21857", "side": "L", "address": "桐梓坡路41" }, "geometry": { "type": "Point", "coordinates": [ 112.94319708, 28.22206851 ] } },
{ "type": "Feature", "properties": { "gml_id": "layer_hotel_pt.164330", "Name": "雅之静宾馆", "pyname": "yzjbg", "kind": "5380", "zipcode": null, "telephone": "0731-88632818", "display_x": "112.93438", "display_y": "28.16388", "side": "R", "address": "麓山南路739号3楼" }, "geometry": { "type": "Point", "coordinates": [ 112.92894918, 28.16739828 ] } },
{ "type": "Feature", "properties": { "gml_id": "layer_hotel_pt.164383", "Name": "家天下商务宾馆", "pyname": "jtxswbg", "kind": "5380", "zipcode": null, "telephone": "0731-82059292", "display_x": "112.93438", "display_y": "28.16388", "side": "R", "address": "麓山南路739号3楼" }, "geometry": { "type": "Point", "coordinates": [ 112.92894918, 28.16739828 ] } },
{ "type": "Feature", "properties": { "gml_id": "layer_hotel_pt.164410", "Name": "金纳斯酒店", "pyname": "jnsjd", "kind": "5380", "zipcode": "410300", "telephone": "0731-89867777", "display_x": "112.93278", "display_y": "28.16256", "side": "R", "address": "麓山南路中南大学旁" }, "geometry": { "type": "Point", "coordinates": [ 112.92735258, 28.16608082 ] } },
{ "type": "Feature", "properties": { "gml_id": "layer_hotel_pt.164534", "Name": "美天宾馆", "pyname": "mtbg", "kind": "5380", "zipcode": null, "telephone": "0731-88632877", "display_x": "112.93438", "display_y": "28.16388", "side": "R", "address": "麓山南路739号3楼" }, "geometry": { "type": "Point", "coordinates": [ 112.92894918, 28.16739828 ] } },
{ "type": "Feature", "properties": { "gml_id": "layer_hotel_pt.164547", "Name": "通程麓山大酒店－三号楼", "pyname": "tclsdjd-shl", "kind": "5083", "zipcode": null, "telephone": "0731-85863888", "display_x": "112.95373", "display_y": "28.19512", "side": "L", "address": "枫林一路19" }, "geometry": { "type": "Point", "coordinates": [ 112.94825454, 28.19860718 ] } },
{ "type": "Feature", "properties": { "gml_id": "layer_hotel_pt.164581", "Name": "枫翔商务大酒店", "pyname": "fxswdjd", "kind": "5380", "zipcode": null, "telephone": "13574852315", "display_x": "112.9303", "display_y": "28.20716", "side": "R", "address": "金星中路171" }, "geometry": { "type": "Point", "coordinates": [ 112.92487362, 28.21068572 ] } },
{ "type": "Feature", "properties": { "gml_id": "layer_hotel_pt.164582", "Name": "港湾宾馆天马店", "pyname": "gwbgtmd", "kind": "5380", "zipcode": null, "telephone": "0731-82307188", "display_x": "112.94451", "display_y": "28.1689", "side": "L", "address": "湖南大学天马村渔湾市A栋" }, "geometry": { "type": "Point", "coordinates": [ 112.9390569, 28.17240183 ] } },
{ "type": "Feature", "properties": { "gml_id": "layer_hotel_pt.164583", "Name": "西岸悦海家庭旅馆", "pyname": "xayhjtlg", "kind": "5380", "zipcode": null, "telephone": "0731-88652999", "display_x": "112.93781", "display_y": "28.21859", "side": "R", "address": null }, "geometry": { "type": "Point", "coordinates": [ 112.93236954, 28.22210577 ] } },
{ "type": "Feature", "properties": { "gml_id": "layer_hotel_pt.164686", "Name": "佳馨旅馆", "pyname": "jxlg", "kind": "5380", "zipcode": null, "telephone": "0731-82307939", "display_x": "112.94483", "display_y": "28.17229", "side": "L", "address": "麓山南路256" }, "geometry": { "type": "Point", "coordinates": [ 112.93937622, 28.17579168 ] } },
{ "type": "Feature", "properties": { "gml_id": "layer_hotel_pt.164755", "Name": "万顺旅馆", "pyname": "wslg", "kind": "5380", "zipcode": null, "telephone": "0731-84717318", "display_x": "112.94447", "display_y": "28.17136", "side": "L", "address": "麓山南路" }, "geometry": { "type": "Point", "coordinates": [ 112.93901694, 28.17486216 ] } },
{ "type": "Feature", "properties": { "gml_id": "layer_hotel_pt.165194", "Name": "爱尚客房", "pyname": "askf", "kind": "5380", "zipcode": null, "telephone": "0731-84768015", "display_x": "112.95275", "display_y": "28.22474", "side": "R", "address": "兰卡威国际公寓10层" }, "geometry": { "type": "Point", "coordinates": [ 112.94727606, 28.22823027 ] } },
{ "type": "Feature", "properties": { "gml_id": "layer_hotel_pt.165277", "Name": "鸿天酒店", "pyname": "htjd", "kind": "5380", "zipcode": null, "telephone": "0731-82082288", "display_x": "112.95515", "display_y": "28.19294", "side": "L", "address": "爱民路49" }, "geometry": { "type": "Point", "coordinates": [ 112.9496715, 28.19642468 ] } },
{ "type": "Feature", "properties": { "gml_id": "layer_hotel_pt.165408", "Name": "红叶住宿", "pyname": "hyzs", "kind": "5380", "zipcode": null, "telephone": null, "display_x": "112.94277", "display_y": "28.17855", "side": "L", "address": "登高路" }, "geometry": { "type": "Point", "coordinates": [ 112.93732062, 28.18205577 ] } },
{ "type": "Feature", "properties": { "gml_id": "layer_hotel_pt.165435", "Name": "才苑客房", "pyname": "cykf", "kind": "5380", "zipcode": null, "telephone": "15111412776", "display_x": "112.95411", "display_y": "28.20002", "side": "R", "address": "麓山才苑E栋4层407" }, "geometry": { "type": "Point", "coordinates": [ 112.94863308, 28.20350655 ] } },
{ "type": "Feature", "properties": { "gml_id": "layer_hotel_pt.165475", "Name": "麓南宾馆", "pyname": "lnbg", "kind": "5380", "zipcode": null, "telephone": "0731-88632616", "display_x": "112.93556", "display_y": "28.16505", "side": "L", "address": "麓山南路790" }, "geometry": { "type": "Point", "coordinates": [ 112.93012656, 28.16856644 ] } },
{ "type": "Feature", "properties": { "gml_id": "layer_hotel_pt.165489", "Name": "鸿烨快捷宾馆", "pyname": "hykjbg", "kind": "5380", "zipcode": null, "telephone": "0731-88887007", "display_x": "112.93845", "display_y": "28.19801", "side": "R", "address": "白云路136" }, "geometry": { "type": "Point", "coordinates": [ 112.93300926, 28.20152439 ] } },
{ "type": "Feature", "properties": { "gml_id": "layer_hotel_pt.165508", "Name": "路易自助公寓", "pyname": "lyzzgy", "kind": "5502", "zipcode": null, "telephone": "0731-89721018", "display_x": "112.93529", "display_y": "28.2196", "side": "L", "address": "湘腾城市广场3栋20层" }, "geometry": { "type": "Point", "coordinates": [ 112.92985314, 28.22311836 ] } },
{ "type": "Feature", "properties": { "gml_id": "layer_hotel_pt.165509", "Name": "2599爱情公寓", "pyname": "2599aqgy", "kind": "5502", "zipcode": null, "telephone": "0731-85232599", "display_x": "112.93529", "display_y": "28.2196", "side": "L", "address": "湘腾城市广场3栋15层" }, "geometry": { "type": "Point", "coordinates": [ 112.92985314, 28.22311836 ] } },
{ "type": "Feature", "properties": { "gml_id": "layer_hotel_pt.165607", "Name": "麦颂商务酒店河西店", "pyname": "msswjdhxd", "kind": "5380", "zipcode": null, "telephone": "0731-88857270", "display_x": "112.92173", "display_y": "28.21854", "side": "R", "address": "桐梓坡路579号" }, "geometry": { "type": "Point", "coordinates": [ 112.91631462, 28.22207405 ] } },
{ "type": "Feature", "properties": { "gml_id": "layer_hotel_pt.165641", "Name": "锦华商务酒店", "pyname": "jhswjd", "kind": "5380", "zipcode": null, "telephone": "0731-88632800", "display_x": "112.93438", "display_y": "28.16388", "side": "R", "address": "麓山南路739号3楼" }, "geometry": { "type": "Point", "coordinates": [ 112.92894918, 28.16739828 ] } },
{ "type": "Feature", "properties": { "gml_id": "layer_hotel_pt.165642", "Name": "和瑞宾馆", "pyname": "hrbg", "kind": "5380", "zipcode": null, "telephone": "0731-82038019", "display_x": "112.95136", "display_y": "28.16404", "side": "R", "address": null }, "geometry": { "type": "Point", "coordinates": [ 112.94589222, 28.16753004 ] } },
{ "type": "Feature", "properties": { "gml_id": "layer_hotel_pt.165679", "Name": "酷巢酒店", "pyname": "kcjd", "kind": "5380", "zipcode": null, "telephone": "0731-84331100", "display_x": "112.95463", "display_y": "28.1918", "side": "R", "address": "新民路35号" }, "geometry": { "type": "Point", "coordinates": [ 112.94915274, 28.19528559 ] } },
{ "type": "Feature", "properties": { "gml_id": "layer_hotel_pt.165680", "Name": "绿源旅馆", "pyname": "lylg", "kind": "5380", "zipcode": null, "telephone": "0731-82307442", "display_x": "112.94418", "display_y": "28.17085", "side": "L", "address": "麓山南路368号" }, "geometry": { "type": "Point", "coordinates": [ 112.93872768, 28.17435263 ] } },
{ "type": "Feature", "properties": { "gml_id": "layer_hotel_pt.165735", "Name": "莱客·自助公寓", "pyname": "lkzzgy", "kind": "5502", "zipcode": null, "telephone": "0731-88611717", "display_x": "112.93529", "display_y": "28.2196", "side": "L", "address": "湘腾城市广场3栋17层" }, "geometry": { "type": "Point", "coordinates": [ 112.92985314, 28.22311836 ] } },
{ "type": "Feature", "properties": { "gml_id": "layer_hotel_pt.165736", "Name": "枫茂宾馆", "pyname": "fmbg", "kind": "5380", "zipcode": null, "telephone": null, "display_x": "112.9444", "display_y": "28.20086", "side": "R", "address": "枫林一路" }, "geometry": { "type": "Point", "coordinates": [ 112.93894566, 28.20436407 ] } },
{ "type": "Feature", "properties": { "gml_id": "layer_hotel_pt.165769", "Name": "嘉桐商务酒店", "pyname": "jtswjd", "kind": "5380", "zipcode": "410013", "telephone": "0731-82344417", "display_x": "112.93669", "display_y": "28.21219", "side": "R", "address": "嘉桐街45" }, "geometry": { "type": "Point", "coordinates": [ 112.93125282, 28.21570794 ] } },
{ "type": "Feature", "properties": { "gml_id": "layer_hotel_pt.165879", "Name": "唐公小学", "pyname": "tgxx", "kind": "5380", "zipcode": null, "telephone": "18874883636", "display_x": "112.94636", "display_y": "28.16697", "side": "L", "address": "阜埠河路" }, "geometry": { "type": "Point", "coordinates": [ 112.94090298, 28.17046854 ] } },
{ "type": "Feature", "properties": { "gml_id": "layer_hotel_pt.166085", "Name": "郁金香酒店", "pyname": "yjxjd", "kind": "5380", "zipcode": null, "telephone": "0731-82942898", "display_x": "112.95472", "display_y": "28.2143", "side": "L", "address": "集贤路29" }, "geometry": { "type": "Point", "coordinates": [ 112.94924274, 28.21778717 ] } },
{ "type": "Feature", "properties": { "gml_id": "layer_hotel_pt.166220", "Name": "金园家庭旅馆", "pyname": "jyjtlg", "kind": "5380", "zipcode": null, "telephone": "0731-88861321", "display_x": "112.92208", "display_y": "28.22282", "side": "R", "address": "望岳路" }, "geometry": { "type": "Point", "coordinates": [ 112.91666382, 28.22635346 ] } },
{ "type": "Feature", "properties": { "gml_id": "layer_hotel_pt.166221", "Name": "飞跃客房", "pyname": "fykf", "kind": "5380", "zipcode": null, "telephone": null, "display_x": "112.95469", "display_y": "28.22017", "side": "L", "address": "银盆南路" }, "geometry": { "type": "Point", "coordinates": [ 112.9492116, 28.22365652 ] } },
{ "type": "Feature", "properties": { "gml_id": "layer_hotel_pt.166222", "Name": "锦江之星长沙河西银盆岭南路店", "pyname": "jjzxcshxyplnld", "kind": "5380", "zipcode": null, "telephone": "0731-88295666", "display_x": "112.95504", "display_y": "28.2176", "side": "R", "address": "银盆南路329号" }, "geometry": { "type": "Point", "coordinates": [ 112.94956152, 28.22108639 ] } },
{ "type": "Feature", "properties": { "gml_id": "layer_hotel_pt.166316", "Name": "1＋1宾馆", "pyname": "1+1bg", "kind": "5380", "zipcode": null, "telephone": "18684789545", "display_x": "112.92311", "display_y": "28.16356", "side": "R", "address": null }, "geometry": { "type": "Point", "coordinates": [ 112.9176954, 28.16708963 ] } },
{ "type": "Feature", "properties": { "gml_id": "layer_hotel_pt.166352", "Name": "湖湘驿岳麓山国际青年旅舍", "pyname": "hxyylsgjqnls", "kind": "5380", "zipcode": null, "telephone": "0731-85368418", "display_x": "112.95418", "display_y": "28.19286", "side": "N", "address": "新民路50号麓山华侨村内" }, "geometry": { "type": "Point", "coordinates": [ 112.94870364, 28.19634638 ] } },
{ "type": "Feature", "properties": { "gml_id": "layer_hotel_pt.166358", "Name": "逸莱酒店", "pyname": "yljd", "kind": "5380", "zipcode": null, "telephone": null, "display_x": "112.92146", "display_y": "28.21959", "side": "R", "address": "桐梓坡路342" }, "geometry": { "type": "Point", "coordinates": [ 112.9160448, 28.22312403 ] } },
{ "type": "Feature", "properties": { "gml_id": "layer_hotel_pt.166490", "Name": "家到家酒店式自助公寓", "pyname": "jdjjdszzgy", "kind": "5501", "zipcode": null, "telephone": "0731-88916516", "display_x": "112.95364", "display_y": "28.2219", "side": "R", "address": "银盆南路371号新天地5层506室" }, "geometry": { "type": "Point", "coordinates": [ 112.94816436, 28.22538879 ] } },
{ "type": "Feature", "properties": { "gml_id": "layer_hotel_pt.166523", "Name": "舜港家庭旅馆", "pyname": "sgjtlg", "kind": "5380", "zipcode": null, "telephone": "0731-83298037", "display_x": "112.9359", "display_y": "28.20226", "side": "R", "address": "枫林一路" }, "geometry": { "type": "Point", "coordinates": [ 112.93046532, 28.20577946 ] } },
{ "type": "Feature", "properties": { "gml_id": "layer_hotel_pt.166543", "Name": "艾尚家庭宾馆", "pyname": "asjtbg", "kind": "5380", "zipcode": null, "telephone": "0731-82052233", "display_x": "112.93931", "display_y": "28.21687", "side": "R", "address": null }, "geometry": { "type": "Point", "coordinates": [ 112.93386768, 28.22038439 ] } },
{ "type": "Feature", "properties": { "gml_id": "layer_hotel_pt.166544", "Name": "怡家公寓酒店", "pyname": "yjgyjd", "kind": "5380", "zipcode": null, "telephone": "0731-82259856", "display_x": "112.9393", "display_y": "28.21669", "side": "R", "address": null }, "geometry": { "type": "Point", "coordinates": [ 112.93385778, 28.22020443 ] } },
{ "type": "Feature", "properties": { "gml_id": "layer_hotel_pt.166694", "Name": "楷栈宾馆", "pyname": "kzbg", "kind": "5380", "zipcode": null, "telephone": "0731-88815477", "display_x": "112.92738", "display_y": "28.21431", "side": "L", "address": null }, "geometry": { "type": "Point", "coordinates": [ 112.92195618, 28.21783784 ] } },
{ "type": "Feature", "properties": { "gml_id": "layer_hotel_pt.166736", "Name": "海森天麓大酒店", "pyname": "hstldjd", "kind": "5083", "zipcode": null, "telephone": "0731-89960868", "display_x": "112.95186", "display_y": "28.17076", "side": "R", "address": "潇湘中路与天马路交汇处" }, "geometry": { "type": "Point", "coordinates": [ 112.94639082, 28.17424976 ] } },
{ "type": "Feature", "properties": { "gml_id": "layer_hotel_pt.166839", "Name": "润嘉商务家庭旅馆", "pyname": "rjswjtlg", "kind": "5380", "zipcode": null, "telephone": null, "display_x": "112.92276", "display_y": "28.21601", "side": "R", "address": null }, "geometry": { "type": "Point", "coordinates": [ 112.91734332, 28.21954311 ] } },
{ "type": "Feature", "properties": { "gml_id": "layer_hotel_pt.166903", "Name": "长健酒店", "pyname": "cjjd", "kind": "5380", "zipcode": null, "telephone": "0731-89915088", "display_x": "112.94374", "display_y": "28.21741", "side": "L", "address": "桐梓坡路123号雄海雅苑14栋" }, "geometry": { "type": "Point", "coordinates": [ 112.9382883, 28.22091719 ] } },
{ "type": "Feature", "properties": { "gml_id": "layer_hotel_pt.166920", "Name": "金麓国际大酒店", "pyname": "jlgjdjd", "kind": "5085", "zipcode": null, "telephone": "0731-89966666", "display_x": "112.93634", "display_y": "28.2251", "side": "L", "address": "岳麓大道311" }, "geometry": { "type": "Point", "coordinates": [ 112.9309002, 28.22861646 ] } },
{ "type": "Feature", "properties": { "gml_id": "layer_hotel_pt.167039", "Name": "岭南雅集酒店", "pyname": "lnyjjd", "kind": "5380", "zipcode": null, "telephone": "0731-89912813", "display_x": "112.95488", "display_y": "28.19309", "side": "R", "address": "爱民路98" }, "geometry": { "type": "Point", "coordinates": [ 112.94940204, 28.19657516 ] } },
{ "type": "Feature", "properties": { "gml_id": "layer_hotel_pt.167186", "Name": "今天连锁酒店中南大学店", "pyname": "jtlsjdzndxd", "kind": "5380", "zipcode": null, "telephone": "0731-89913666", "display_x": "112.92458", "display_y": "28.16125", "side": "R", "address": "西二环王家湾步步高生活广场" }, "geometry": { "type": "Point", "coordinates": [ 112.9191642, 28.16477874 ] } }
]
}
