{
"type": "FeatureCollection",
"name": "FinancialServices",
"crs": { "type": "name", "properties": { "name": "urn:ogc:def:crs:OGC:1.3:CRS84" } },
"features": [
{ "type": "Feature", "properties": { "gml_id": "layer_financial_pt.207877", "Name": "中国建设银行ATM", "pyname": "zgjsyha", "kind": "A199", "zipcode": null, "telephone": null, "display_x": "112.95346", "display_y": "28.21979", "side": "R", "address": "桐梓坡路16" }, "geometry": { "type": "Point", "coordinates": [ 112.9479858, 28.22327991 ] } },
{ "type": "Feature", "properties": { "gml_id": "layer_financial_pt.207899", "Name": "中国银行财院路支行", "pyname": "zgyhcylzh", "kind": "A184", "zipcode": "410006", "telephone": "0731-84168177", "display_x": "112.93269", "display_y": "28.2026", "side": "L", "address": "枫林一路717" }, "geometry": { "type": "Point", "coordinates": [ 112.92726114, 28.20612375 ] } },
{ "type": "Feature", "properties": { "gml_id": "layer_financial_pt.207929", "Name": "交通银行长沙麓山南路支行", "pyname": "jtyhcslsnlzh", "kind": "A185", "zipcode": null, "telephone": "0731-82855803", "display_x": "112.93824", "display_y": "28.16544", "side": "R", "address": "麓山南路529号" }, "geometry": { "type": "Point", "coordinates": [ 112.93280064, 28.168952 ] } },
{ "type": "Feature", "properties": { "gml_id": "layer_financial_pt.207930", "Name": "交通银行ATM", "pyname": "jtyha", "kind": "A199", "zipcode": null, "telephone": null, "display_x": "112.93831", "display_y": "28.16547", "side": "R", "address": "麓山南路557号附近" }, "geometry": { "type": "Point", "coordinates": [ 112.93287048, 28.16898188 ] } },
{ "type": "Feature", "properties": { "gml_id": "layer_financial_pt.208051", "Name": "中国邮政储蓄银行ATM", "pyname": "zgyzcxyha", "kind": "A199", "zipcode": null, "telephone": null, "display_x": "112.95568", "display_y": "28.20489", "side": "R", "address": "月宫街103号附近" }, "geometry": { "type": "Point", "coordinates": [ 112.9501998, 28.20837434 ] } },
{ "type": "Feature", "properties": { "gml_id": "layer_financial_pt.208052", "Name": "中国农业银行长沙岳麓区支行", "pyname": "zgnyyhcsylqzh", "kind": "A183", "zipcode": "410013", "telephone": null, "display_x": "112.95438", "display_y": "28.21943", "side": "L", "address": "银盆南路355" }, "geometry": { "type": "Point", "coordinates": [ 112.94890308, 28.22291757 ] } },
{ "type": "Feature", "properties": { "gml_id": "layer_financial_pt.208061", "Name": "中国建设银行ATM", "pyname": "zgjsyha", "kind": "A199", "zipcode": null, "telephone": null, "display_x": "112.93403", "display_y": "28.164", "side": "R", "address": "麓山南路739号" }, "geometry": { "type": "Point", "coordinates": [ 112.9285998, 28.16751888 ] } },
{ "type": "Feature", "properties": { "gml_id": "layer_financial_pt.208072", "Name": "中国工商银行咸嘉新村分理处", "pyname": "zggsyhxjxcflc", "kind": "A181", "zipcode": "410013", "telephone": "0731-88911320", "display_x": "112.92891", "display_y": "28.21862", "side": "L", "address": "桐梓坡路312" }, "geometry": { "type": "Point", "coordinates": [ 112.92348276, 28.22214551 ] } },
{ "type": "Feature", "properties": { "gml_id": "layer_financial_pt.208073", "Name": "中国工商银行ATM", "pyname": "zggsyha", "kind": "A199", "zipcode": null, "telephone": null, "display_x": "112.92904", "display_y": "28.21864", "side": "L", "address": "桐梓坡路312" }, "geometry": { "type": "Point", "coordinates": [ 112.92361254, 28.22216535 ] } },
{ "type": "Feature", "properties": { "gml_id": "layer_financial_pt.208093", "Name": "湖南望城农村商业银行财专分理处", "pyname": "hnwcncsyyhczflc", "kind": "A180", "zipcode": null, "telephone": "0731-88811353", "display_x": "112.92487", "display_y": "28.20644", "side": "L", "address": "枫林路519号" }, "geometry": { "type": "Point", "coordinates": [ 112.91945166, 28.20997157 ] } },
{ "type": "Feature", "properties": { "gml_id": "layer_financial_pt.208094", "Name": "湖南望城农村商业银行ATM", "pyname": "hnwcncsyyha", "kind": "A199", "zipcode": null, "telephone": null, "display_x": "112.92482", "display_y": "28.20645", "side": "L", "address": "枫林二路139湖南财政经济学院" }, "geometry": { "type": "Point", "coordinates": [ 112.91940162, 28.20998156 ] } },
{ "type": "Feature", "properties": { "gml_id": "layer_financial_pt.208172", "Name": "中国邮政储蓄银行望月湖支行", "pyname": "zgyzcxyhwyhzh", "kind": "A18B", "zipcode": "410006", "telephone": "0731-88882593", "display_x": "112.95564", "display_y": "28.20489", "side": "R", "address": "望月湖6片" }, "geometry": { "type": "Point", "coordinates": [ 112.95016002, 28.20837438 ] } },
{ "type": "Feature", "properties": { "gml_id": "layer_financial_pt.208303", "Name": "长沙银行ATM", "pyname": "csyha", "kind": "A199", "zipcode": null, "telephone": null, "display_x": "112.93761", "display_y": "28.15906", "side": "L", "address": null }, "geometry": { "type": "Point", "coordinates": [ 112.93217208, 28.16257235 ] } },
{ "type": "Feature", "properties": { "gml_id": "layer_financial_pt.208345", "Name": "招商银行ATM", "pyname": "zsyha", "kind": "A199", "zipcode": null, "telephone": null, "display_x": "112.93758", "display_y": "28.21721", "side": "R", "address": "嘉桐街" }, "geometry": { "type": "Point", "coordinates": [ 112.93214022, 28.22072621 ] } },
{ "type": "Feature", "properties": { "gml_id": "layer_financial_pt.208527", "Name": "中国民生银行ATM", "pyname": "zgmsyha", "kind": "A199", "zipcode": null, "telephone": null, "display_x": "112.92453", "display_y": "28.20608", "side": "L", "address": "枫林二路139湖南财政经济学院" }, "geometry": { "type": "Point", "coordinates": [ 112.91911182, 28.2096117 ] } },
{ "type": "Feature", "properties": { "gml_id": "layer_financial_pt.208591", "Name": "中国农业发展银行建湘支行", "pyname": "zgnyfzyhjxzh", "kind": "A180", "zipcode": null, "telephone": null, "display_x": "112.92977", "display_y": "28.22477", "side": "L", "address": "岳麓大道369－3" }, "geometry": { "type": "Point", "coordinates": [ 112.92434172, 28.2282948 ] } },
{ "type": "Feature", "properties": { "gml_id": "layer_financial_pt.208592", "Name": "中国建设银行长沙中大支行", "pyname": "zgjsyhcszdzh", "kind": "A182", "zipcode": null, "telephone": "0731-88631661", "display_x": "112.93406", "display_y": "28.16401", "side": "R", "address": "麓山南路" }, "geometry": { "type": "Point", "coordinates": [ 112.92862986, 28.16752883 ] } },
{ "type": "Feature", "properties": { "gml_id": "layer_financial_pt.208663", "Name": "兴业银行ATM", "pyname": "xyyha", "kind": "A199", "zipcode": null, "telephone": null, "display_x": "112.92448", "display_y": "28.16639", "side": "R", "address": "溁左路16湖南师大树达学院" }, "geometry": { "type": "Point", "coordinates": [ 112.91906376, 28.16991891 ] } },
{ "type": "Feature", "properties": { "gml_id": "layer_financial_pt.208681", "Name": "中国农业银行长沙江岸景苑支行", "pyname": "zgnyyhcsjajyzh", "kind": "A183", "zipcode": "410013", "telephone": "0731-88883420", "display_x": "112.95526", "display_y": "28.19888", "side": "L", "address": "银盆南路16" }, "geometry": { "type": "Point", "coordinates": [ 112.94978058, 28.20236445 ] } },
{ "type": "Feature", "properties": { "gml_id": "layer_financial_pt.208854", "Name": "交通银行ATM", "pyname": "jtyha", "kind": "A199", "zipcode": null, "telephone": null, "display_x": "112.92314", "display_y": "28.16414", "side": "R", "address": "西二环" }, "geometry": { "type": "Point", "coordinates": [ 112.91772528, 28.16766963 ] } },
{ "type": "Feature", "properties": { "gml_id": "layer_financial_pt.208912", "Name": "交通银行ATM", "pyname": "jtyha", "kind": "A199", "zipcode": null, "telephone": null, "display_x": "112.95291", "display_y": "28.18542", "side": "L", "address": null }, "geometry": { "type": "Point", "coordinates": [ 112.94743752, 28.18890864 ] } },
{ "type": "Feature", "properties": { "gml_id": "layer_financial_pt.208970", "Name": "中国建设银行桐梓坡支行", "pyname": "zgjsyhtzpzh", "kind": "A182", "zipcode": "410013", "telephone": "0731-88809709", "display_x": "112.95337", "display_y": "28.21978", "side": "R", "address": "桐梓坡路16" }, "geometry": { "type": "Point", "coordinates": [ 112.94789616, 28.22327015 ] } },
{ "type": "Feature", "properties": { "gml_id": "layer_financial_pt.208979", "Name": "中国银行ATM", "pyname": "zgyha", "kind": "A199", "zipcode": "410013", "telephone": null, "display_x": "112.94448", "display_y": "28.21804", "side": "L", "address": "桐梓坡路77" }, "geometry": { "type": "Point", "coordinates": [ 112.93902666, 28.22154597 ] } },
{ "type": "Feature", "properties": { "gml_id": "layer_financial_pt.209078", "Name": "招商银行ATM", "pyname": "zsyha", "kind": "A199", "zipcode": null, "telephone": null, "display_x": "112.93387", "display_y": "28.22298", "side": "R", "address": "金星中路479" }, "geometry": { "type": "Point", "coordinates": [ 112.92843438, 28.22649944 ] } },
{ "type": "Feature", "properties": { "gml_id": "layer_financial_pt.209079", "Name": "中国光大银行溁湾支行", "pyname": "zggdyhywzh", "kind": "A189", "zipcode": "410013", "telephone": "0731-89750050|0731-89750052", "display_x": "112.95537", "display_y": "28.20097", "side": "L", "address": "银盆南路227" }, "geometry": { "type": "Point", "coordinates": [ 112.9498902, 28.20445443 ] } },
{ "type": "Feature", "properties": { "gml_id": "layer_financial_pt.209080", "Name": "中国光大银行ATM", "pyname": "zggdyha", "kind": "A199", "zipcode": null, "telephone": null, "display_x": "112.95555", "display_y": "28.20103", "side": "L", "address": "银盆南路227" }, "geometry": { "type": "Point", "coordinates": [ 112.95006984, 28.2045141 ] } },
{ "type": "Feature", "properties": { "gml_id": "layer_financial_pt.209081", "Name": "中信银行ATM", "pyname": "zxyha", "kind": "A199", "zipcode": null, "telephone": null, "display_x": "112.95525", "display_y": "28.20004", "side": "R", "address": "银盆南路199号附近" }, "geometry": { "type": "Point", "coordinates": [ 112.9497705, 28.20352451 ] } },
{ "type": "Feature", "properties": { "gml_id": "layer_financial_pt.209129", "Name": "长沙先导农村商业银行ATM", "pyname": "csxdncsyyha", "kind": "A199", "zipcode": null, "telephone": null, "display_x": "112.95422", "display_y": "28.22019", "side": "R", "address": "银盆南路357－2" }, "geometry": { "type": "Point", "coordinates": [ 112.94874324, 28.22367776 ] } },
{ "type": "Feature", "properties": { "gml_id": "layer_financial_pt.209262", "Name": "中国工商银行长沙左家垅支行", "pyname": "zggsyhcszjlzh", "kind": "A181", "zipcode": "410012", "telephone": "0731-88882772", "display_x": "112.93678", "display_y": "28.16503", "side": "R", "address": "麓山南路603" }, "geometry": { "type": "Point", "coordinates": [ 112.9313439, 28.16854439 ] } },
{ "type": "Feature", "properties": { "gml_id": "layer_financial_pt.209263", "Name": "长沙市邮政局石佳冲储蓄点", "pyname": "cssyzjsjccxd", "kind": "A18B", "zipcode": null, "telephone": null, "display_x": "112.93164", "display_y": "28.19579", "side": "R", "address": "校区路" }, "geometry": { "type": "Point", "coordinates": [ 112.92621372, 28.19931543 ] } },
{ "type": "Feature", "properties": { "gml_id": "layer_financial_pt.209264", "Name": "中国工商银行ATM", "pyname": "zggsyha", "kind": "A199", "zipcode": null, "telephone": null, "display_x": "112.93166", "display_y": "28.19564", "side": "R", "address": "石佳冲51号" }, "geometry": { "type": "Point", "coordinates": [ 112.92623388, 28.1991654 ] } },
{ "type": "Feature", "properties": { "gml_id": "layer_financial_pt.209302", "Name": "中国建设银行ATM", "pyname": "zgjsyha", "kind": "A199", "zipcode": null, "telephone": null, "display_x": "112.93496", "display_y": "28.22354", "side": "R", "address": "金星中路528－2" }, "geometry": { "type": "Point", "coordinates": [ 112.92952266, 28.22705816 ] } },
{ "type": "Feature", "properties": { "gml_id": "layer_financial_pt.209304", "Name": "中国建设银行ATM", "pyname": "zgjsyha", "kind": "A199", "zipcode": null, "telephone": null, "display_x": "112.94958", "display_y": "28.19936", "side": "L", "address": "枫林一路222号附近" }, "geometry": { "type": "Point", "coordinates": [ 112.94411346, 28.20285459 ] } },
{ "type": "Feature", "properties": { "gml_id": "layer_financial_pt.209465", "Name": "兴业银行ATM", "pyname": "xyyha", "kind": "A199", "zipcode": null, "telephone": "0731-82817799", "display_x": "112.94672", "display_y": "28.16663", "side": "L", "address": "阜埠河路181" }, "geometry": { "type": "Point", "coordinates": [ 112.94126208, 28.17012789 ] } },
{ "type": "Feature", "properties": { "gml_id": "layer_financial_pt.209746", "Name": "长沙银行ATM", "pyname": "csyha", "kind": "A199", "zipcode": null, "telephone": null, "display_x": "112.94227", "display_y": "28.22245", "side": "L", "address": null }, "geometry": { "type": "Point", "coordinates": [ 112.93682202, 28.22596029 ] } },
{ "type": "Feature", "properties": { "gml_id": "layer_financial_pt.209765", "Name": "交通银行ATM", "pyname": "jtyha", "kind": "A199", "zipcode": null, "telephone": null, "display_x": "112.95686", "display_y": "28.21419", "side": "L", "address": "银盆南路303号附近" }, "geometry": { "type": "Point", "coordinates": [ 112.951377, 28.21767264 ] } },
{ "type": "Feature", "properties": { "gml_id": "layer_financial_pt.209847", "Name": "长沙银行先导区支行", "pyname": "csyhxdqzh", "kind": "A180", "zipcode": "410013", "telephone": "0731-88713911", "display_x": "112.92863", "display_y": "28.21781", "side": "L", "address": "桐梓坡路8－101" }, "geometry": { "type": "Point", "coordinates": [ 112.9232034, 28.22133591 ] } },
{ "type": "Feature", "properties": { "gml_id": "layer_financial_pt.210039", "Name": "招商银行大河西先导区支行", "pyname": "zsyhdhxxdqzh", "kind": "A186", "zipcode": null, "telephone": "0731-82273171|0731-82273180", "display_x": "112.93386", "display_y": "28.22292", "side": "R", "address": "金星中路479" }, "geometry": { "type": "Point", "coordinates": [ 112.92842448, 28.22643945 ] } },
{ "type": "Feature", "properties": { "gml_id": "layer_financial_pt.210126", "Name": "中国建设银行新民路支行", "pyname": "zgjsyhxmlzh", "kind": "A182", "zipcode": "410006", "telephone": "0731-88852359", "display_x": "112.95097", "display_y": "28.19298", "side": "R", "address": "新民路197" }, "geometry": { "type": "Point", "coordinates": [ 112.94550108, 28.19647206 ] } },
{ "type": "Feature", "properties": { "gml_id": "layer_financial_pt.210127", "Name": "中国农业银行长沙枫林分理处", "pyname": "zgnyyhcsflflc", "kind": "A183", "zipcode": "410006", "telephone": null, "display_x": "112.95046", "display_y": "28.19192", "side": "R", "address": "麓山路95" }, "geometry": { "type": "Point", "coordinates": [ 112.9449924, 28.19541299 ] } },
{ "type": "Feature", "properties": { "gml_id": "layer_financial_pt.210331", "Name": "中国工商银行ATM", "pyname": "zggsyha", "kind": "A199", "zipcode": null, "telephone": null, "display_x": "112.92571", "display_y": "28.21294", "side": "R", "address": "咸嘉湖西路" }, "geometry": { "type": "Point", "coordinates": [ 112.92028902, 28.21646984 ] } },
{ "type": "Feature", "properties": { "gml_id": "layer_financial_pt.210332", "Name": "阳光财产保险股份有限公司", "pyname": "ygccbxgfyxgs", "kind": "AA80", "zipcode": null, "telephone": null, "display_x": "112.93511", "display_y": "28.2196", "side": "L", "address": "金星大道438号湘腾城市广场3栋10层" }, "geometry": { "type": "Point", "coordinates": [ 112.92967332, 28.22311859 ] } },
{ "type": "Feature", "properties": { "gml_id": "layer_financial_pt.210429", "Name": "中国邮政储蓄银行岳麓山支行", "pyname": "zgyzcxyhylszh", "kind": "A18B", "zipcode": null, "telephone": "0731-88825020", "display_x": "112.94309", "display_y": "28.17877", "side": "L", "address": "登高路7" }, "geometry": { "type": "Point", "coordinates": [ 112.93763994, 28.18227528 ] } },
{ "type": "Feature", "properties": { "gml_id": "layer_financial_pt.210442", "Name": "中国光大银行ATM", "pyname": "zggdyha", "kind": "A199", "zipcode": null, "telephone": null, "display_x": "112.94501", "display_y": "28.16838", "side": "L", "address": "阜埠河路247" }, "geometry": { "type": "Point", "coordinates": [ 112.93955586, 28.17188096 ] } },
{ "type": "Feature", "properties": { "gml_id": "layer_financial_pt.210504", "Name": "长沙银行ATM", "pyname": "csyha", "kind": "A199", "zipcode": null, "telephone": null, "display_x": "112.95211", "display_y": "28.21809", "side": "L", "address": "桐兴巷" }, "geometry": { "type": "Point", "coordinates": [ 112.94663904, 28.22158229 ] } },
{ "type": "Feature", "properties": { "gml_id": "layer_financial_pt.210590", "Name": "中国建设银行格林支行", "pyname": "zgjsyhglzh", "kind": "A182", "zipcode": null, "telephone": null, "display_x": "112.93241", "display_y": "28.21118", "side": "R", "address": "金星中路219" }, "geometry": { "type": "Point", "coordinates": [ 112.92697944, 28.21470278 ] } },
{ "type": "Feature", "properties": { "gml_id": "layer_financial_pt.210591", "Name": "中国建设银行ATM", "pyname": "zgjsyha", "kind": "A199", "zipcode": null, "telephone": null, "display_x": "112.93238", "display_y": "28.21109", "side": "R", "address": "金星中路219" }, "geometry": { "type": "Point", "coordinates": [ 112.92694956, 28.21461282 ] } },
{ "type": "Feature", "properties": { "gml_id": "layer_financial_pt.210613", "Name": "中国银行银盆岭支行", "pyname": "zgyhyplzh", "kind": "A184", "zipcode": null, "telephone": "0731-88904496", "display_x": "112.95414", "display_y": "28.22067", "side": "R", "address": "银盆南路359" }, "geometry": { "type": "Point", "coordinates": [ 112.94866332, 28.22415782 ] } },
{ "type": "Feature", "properties": { "gml_id": "layer_financial_pt.210698", "Name": "中国邮政储蓄银行ATM", "pyname": "zgyzcxyha", "kind": "A199", "zipcode": "410006", "telephone": null, "display_x": "112.94789", "display_y": "28.18799", "side": "L", "address": "麓山路280" }, "geometry": { "type": "Point", "coordinates": [ 112.94242866, 28.19148755 ] } },
{ "type": "Feature", "properties": { "gml_id": "layer_financial_pt.210832", "Name": "中国光大银行景秀江山社区支行", "pyname": "zggdyhjxjssqzh", "kind": "A189", "zipcode": null, "telephone": null, "display_x": "112.95515", "display_y": "28.21312", "side": "R", "address": "铜盆湖路1－6" }, "geometry": { "type": "Point", "coordinates": [ 112.94967168, 28.21660623 ] } },
{ "type": "Feature", "properties": { "gml_id": "layer_financial_pt.211107", "Name": "中国农业银行ATM", "pyname": "zgnyyha", "kind": "A199", "zipcode": null, "telephone": null, "display_x": "112.93364", "display_y": "28.16391", "side": "R", "address": "麓山南路761" }, "geometry": { "type": "Point", "coordinates": [ 112.92821064, 28.16742951 ] } },
{ "type": "Feature", "properties": { "gml_id": "layer_financial_pt.211148", "Name": "中国建设银行ATM", "pyname": "zgjsyha", "kind": "A199", "zipcode": null, "telephone": null, "display_x": "112.93163", "display_y": "28.19594", "side": "R", "address": "校区路" }, "geometry": { "type": "Point", "coordinates": [ 112.92620382, 28.19946546 ] } },
{ "type": "Feature", "properties": { "gml_id": "layer_financial_pt.211226", "Name": "中国银行天马ATM", "pyname": "zgyhtma", "kind": "A199", "zipcode": "410012", "telephone": null, "display_x": "112.94586", "display_y": "28.16812", "side": "R", "address": "阜埠河路272" }, "geometry": { "type": "Point", "coordinates": [ 112.94040402, 28.17161951 ] } },
{ "type": "Feature", "properties": { "gml_id": "layer_financial_pt.211272", "Name": "长沙银行ATM", "pyname": "csyha", "kind": "A199", "zipcode": null, "telephone": null, "display_x": "112.91767", "display_y": "28.21981", "side": "L", "address": "岳麓大道569湖南商学院" }, "geometry": { "type": "Point", "coordinates": [ 112.9122576, 28.22334543 ] } },
{ "type": "Feature", "properties": { "gml_id": "layer_financial_pt.211331", "Name": "中信银行长沙岳麓山支行", "pyname": "zxyhcsylszh", "kind": "A187", "zipcode": "410006", "telephone": "0731-88615897", "display_x": "112.95155", "display_y": "28.1961", "side": "L", "address": "枫林路81" }, "geometry": { "type": "Point", "coordinates": [ 112.94607942, 28.19959106 ] } },
{ "type": "Feature", "properties": { "gml_id": "layer_financial_pt.211595", "Name": "中国邮政储蓄银行ATM", "pyname": "zgyzcxyha", "kind": "A199", "zipcode": null, "telephone": null, "display_x": "112.93389", "display_y": "28.22259", "side": "R", "address": "金星中路473" }, "geometry": { "type": "Point", "coordinates": [ 112.92845436, 28.22610947 ] } },
{ "type": "Feature", "properties": { "gml_id": "layer_financial_pt.211657", "Name": "中国农业银行长沙湖大支行", "pyname": "zgnyyhcshdzh", "kind": "A183", "zipcode": null, "telephone": "0731-88824277", "display_x": "112.94605", "display_y": "28.16725", "side": "L", "address": "阜埠河路221号潇湘大厦1楼4／5号门面" }, "geometry": { "type": "Point", "coordinates": [ 112.94059356, 28.17074912 ] } },
{ "type": "Feature", "properties": { "gml_id": "layer_financial_pt.211658", "Name": "交通银行ATM", "pyname": "jtyha", "kind": "A199", "zipcode": null, "telephone": null, "display_x": "112.95582", "display_y": "28.20456", "side": "L", "address": "月宫街91号附近" }, "geometry": { "type": "Point", "coordinates": [ 112.95033948, 28.20804404 ] } },
{ "type": "Feature", "properties": { "gml_id": "layer_financial_pt.211829", "Name": "中国工商银行师大支行", "pyname": "zggsyhsdzh", "kind": "A181", "zipcode": "410006", "telephone": "0731-88851330", "display_x": "112.94816", "display_y": "28.18852", "side": "R", "address": "麓山路268" }, "geometry": { "type": "Point", "coordinates": [ 112.94269794, 28.19201706 ] } },
{ "type": "Feature", "properties": { "gml_id": "layer_financial_pt.211900", "Name": "中国农业银行ATM", "pyname": "zgnyyha", "kind": "A199", "zipcode": null, "telephone": null, "display_x": "112.94283", "display_y": "28.17893", "side": "R", "address": "登高路16号附近" }, "geometry": { "type": "Point", "coordinates": [ 112.93738056, 28.18243571 ] } },
{ "type": "Feature", "properties": { "gml_id": "layer_financial_pt.211903", "Name": "长沙银行ATM", "pyname": "csyha", "kind": "A199", "zipcode": null, "telephone": null, "display_x": "112.92763", "display_y": "28.20619", "side": "R", "address": "枫林二路139号附近" }, "geometry": { "type": "Point", "coordinates": [ 112.92220782, 28.20971876 ] } },
{ "type": "Feature", "properties": { "gml_id": "layer_financial_pt.211909", "Name": "中信银行ATM", "pyname": "zxyha", "kind": "A199", "zipcode": "410006", "telephone": null, "display_x": "112.95155", "display_y": "28.1961", "side": "L", "address": "枫林路81" }, "geometry": { "type": "Point", "coordinates": [ 112.94607942, 28.19959106 ] } },
{ "type": "Feature", "properties": { "gml_id": "layer_financial_pt.211910", "Name": "湖南望城农村商业银行高叶塘支行", "pyname": "hnwcncsyyhgytzh", "kind": "A180", "zipcode": "410006", "telephone": "0731-88883649", "display_x": "112.94817", "display_y": "28.19938", "side": "R", "address": "枫林一路323" }, "geometry": { "type": "Point", "coordinates": [ 112.94270676, 28.20287714 ] } },
{ "type": "Feature", "properties": { "gml_id": "layer_financial_pt.211928", "Name": "中国工商银行ATM", "pyname": "zggsyha", "kind": "A199", "zipcode": "410012", "telephone": null, "display_x": "112.93671", "display_y": "28.165", "side": "R", "address": "麓山南路603" }, "geometry": { "type": "Point", "coordinates": [ 112.93127406, 28.16851451 ] } },
{ "type": "Feature", "properties": { "gml_id": "layer_financial_pt.211935", "Name": "上海浦东发展银行麓山后街ATM", "pyname": "shpdfzyhlshja", "kind": "A199", "zipcode": null, "telephone": null, "display_x": "112.95218", "display_y": "28.19401", "side": "L", "address": "岳民巷" }, "geometry": { "type": "Point", "coordinates": [ 112.94670816, 28.19749995 ] } },
{ "type": "Feature", "properties": { "gml_id": "layer_financial_pt.211961", "Name": "中信银行ATM", "pyname": "zxyha", "kind": "A199", "zipcode": null, "telephone": null, "display_x": "112.92453", "display_y": "28.16635", "side": "L", "address": null }, "geometry": { "type": "Point", "coordinates": [ 112.9191138, 28.16987891 ] } },
{ "type": "Feature", "properties": { "gml_id": "layer_financial_pt.211983", "Name": "交通银行长沙溁湾镇支行", "pyname": "jtyhcsywzzh", "kind": "A185", "zipcode": "410013", "telephone": "0731-88882211", "display_x": "112.95532", "display_y": "28.20048", "side": "R", "address": "银盆南路205" }, "geometry": { "type": "Point", "coordinates": [ 112.94984034, 28.20396443 ] } },
{ "type": "Feature", "properties": { "gml_id": "layer_financial_pt.212094", "Name": "长沙先导农村商业银行ATM", "pyname": "csxdncsyyha", "kind": "A199", "zipcode": null, "telephone": null, "display_x": "112.93818", "display_y": "28.1544", "side": "R", "address": null }, "geometry": { "type": "Point", "coordinates": [ 112.93274142, 28.15791134 ] } },
{ "type": "Feature", "properties": { "gml_id": "layer_financial_pt.212121", "Name": "中国邮政储蓄银行ATM", "pyname": "zgyzcxyha", "kind": "A199", "zipcode": "410006", "telephone": null, "display_x": "112.95569", "display_y": "28.19802", "side": "L", "address": "溁湾路27" }, "geometry": { "type": "Point", "coordinates": [ 112.9502097, 28.20150369 ] } },
{ "type": "Feature", "properties": { "gml_id": "layer_financial_pt.212425", "Name": "中国银行麓山支行", "pyname": "zgyhlszh", "kind": "A184", "zipcode": "410006", "telephone": "0731-88883671", "display_x": "112.95358", "display_y": "28.19565", "side": "L", "address": "枫林一路27" }, "geometry": { "type": "Point", "coordinates": [ 112.94810478, 28.19913746 ] } },
{ "type": "Feature", "properties": { "gml_id": "layer_financial_pt.212729", "Name": "上海浦东发展银行ATM", "pyname": "shpdfzyha", "kind": "A199", "zipcode": null, "telephone": null, "display_x": "112.93598", "display_y": "28.15793", "side": "R", "address": "升华学生公寓18栋学生美发中心" }, "geometry": { "type": "Point", "coordinates": [ 112.93054578, 28.16144496 ] } },
{ "type": "Feature", "properties": { "gml_id": "layer_financial_pt.212730", "Name": "中国邮政储蓄银行ATM", "pyname": "zgyzcxyha", "kind": "A199", "zipcode": null, "telephone": null, "display_x": "112.92784", "display_y": "28.1731", "side": "R", "address": null }, "geometry": { "type": "Point", "coordinates": [ 112.92241986, 28.17662715 ] } },
{ "type": "Feature", "properties": { "gml_id": "layer_financial_pt.212731", "Name": "中国光大银行ATM", "pyname": "zggdyha", "kind": "A199", "zipcode": null, "telephone": null, "display_x": "112.94142", "display_y": "28.2177", "side": "L", "address": "桐梓坡路187号附近" }, "geometry": { "type": "Point", "coordinates": [ 112.93597368, 28.2212114 ] } },
{ "type": "Feature", "properties": { "gml_id": "layer_financial_pt.212847", "Name": "兴业银行ATM", "pyname": "xyyha", "kind": "A199", "zipcode": null, "telephone": "0731-82817799", "display_x": "112.95379", "display_y": "28.18624", "side": "L", "address": "麓山路36号湖南师范大学" }, "geometry": { "type": "Point", "coordinates": [ 112.94831538, 28.1897271 ] } },
{ "type": "Feature", "properties": { "gml_id": "layer_financial_pt.212943", "Name": "中国工商银行湘雅三医院支行", "pyname": "zggsyhxysyyzh", "kind": "A181", "zipcode": null, "telephone": "0731-88901143", "display_x": "112.9457", "display_y": "28.21862", "side": "R", "address": "桐梓坡路118号" }, "geometry": { "type": "Point", "coordinates": [ 112.940244, 28.22212382 ] } },
{ "type": "Feature", "properties": { "gml_id": "layer_financial_pt.212944", "Name": "中国工商银行ATM", "pyname": "zggsyha", "kind": "A199", "zipcode": null, "telephone": null, "display_x": "112.94561", "display_y": "28.21861", "side": "R", "address": "桐梓坡路118号" }, "geometry": { "type": "Point", "coordinates": [ 112.94015418, 28.22211401 ] } },
{ "type": "Feature", "properties": { "gml_id": "layer_financial_pt.212945", "Name": "中国邮政储蓄银行银盆岭支行", "pyname": "zgyzcxyhyplzh", "kind": "A18B", "zipcode": null, "telephone": "0731-88809467", "display_x": "112.95292", "display_y": "28.22312", "side": "L", "address": "银双路28－2" }, "geometry": { "type": "Point", "coordinates": [ 112.94744634, 28.22661032 ] } },
{ "type": "Feature", "properties": { "gml_id": "layer_financial_pt.213041", "Name": "中国工商银行金鹏支行", "pyname": "zggsyhjpzh", "kind": "A181", "zipcode": null, "telephone": "0731-88800954", "display_x": "112.95195", "display_y": "28.22261", "side": "R", "address": "银双路56－7" }, "geometry": { "type": "Point", "coordinates": [ 112.94647974, 28.22610303 ] } },
{ "type": "Feature", "properties": { "gml_id": "layer_financial_pt.213042", "Name": "中国工商银行ATM", "pyname": "zggsyha", "kind": "A199", "zipcode": null, "telephone": null, "display_x": "112.95205", "display_y": "28.22261", "side": "R", "address": "银双路56－7" }, "geometry": { "type": "Point", "coordinates": [ 112.94657928, 28.22610276 ] } },
{ "type": "Feature", "properties": { "gml_id": "layer_financial_pt.213074", "Name": "中国工商银行咸嘉湖支行", "pyname": "zggsyhxjhzh", "kind": "A181", "zipcode": null, "telephone": null, "display_x": "112.93784", "display_y": "28.21704", "side": "R", "address": "桐梓坡路283号" }, "geometry": { "type": "Point", "coordinates": [ 112.93239996, 28.22055597 ] } },
{ "type": "Feature", "properties": { "gml_id": "layer_financial_pt.213126", "Name": "长沙先导农村商业银行ATM", "pyname": "csxdncsyyha", "kind": "A199", "zipcode": "410205", "telephone": null, "display_x": "112.92033", "display_y": "28.2101", "side": "L", "address": "枫林二路378" }, "geometry": { "type": "Point", "coordinates": [ 112.91491656, 28.21363502 ] } },
{ "type": "Feature", "properties": { "gml_id": "layer_financial_pt.213197", "Name": "中国光大银行岳麓支行", "pyname": "zggdyhylzh", "kind": "A189", "zipcode": "410013", "telephone": "0731-85359080|0731-85359086", "display_x": "112.93193", "display_y": "28.21804", "side": "L", "address": "桐梓坡路284" }, "geometry": { "type": "Point", "coordinates": [ 112.92649848, 28.22156226 ] } },
{ "type": "Feature", "properties": { "gml_id": "layer_financial_pt.213198", "Name": "中国邮政储蓄银行ATM", "pyname": "zgyzcxyha", "kind": "A199", "zipcode": null, "telephone": null, "display_x": "112.92791", "display_y": "28.21976", "side": "R", "address": "谷丰路22" }, "geometry": { "type": "Point", "coordinates": [ 112.92248466, 28.2232868 ] } },
{ "type": "Feature", "properties": { "gml_id": "layer_financial_pt.213201", "Name": "长沙先导农村商业银行ATM", "pyname": "csxdncsyyha", "kind": "A199", "zipcode": "410006", "telephone": null, "display_x": "112.95159", "display_y": "28.19463", "side": "R", "address": "麓山路11" }, "geometry": { "type": "Point", "coordinates": [ 112.94611938, 28.198121 ] } },
{ "type": "Feature", "properties": { "gml_id": "layer_financial_pt.213288", "Name": "中国建设银行ATM", "pyname": "zgjsyha", "kind": "A199", "zipcode": null, "telephone": null, "display_x": "112.92454", "display_y": "28.20683", "side": "L", "address": "枫林二路139湖南财政经济学院" }, "geometry": { "type": "Point", "coordinates": [ 112.9191219, 28.21036181 ] } },
{ "type": "Feature", "properties": { "gml_id": "layer_financial_pt.213346", "Name": "中国工商银行石佳冲分理处", "pyname": "zggsyhsjcflc", "kind": "A181", "zipcode": null, "telephone": "0731-88883640", "display_x": "112.93166", "display_y": "28.19567", "side": "R", "address": "石佳冲51号" }, "geometry": { "type": "Point", "coordinates": [ 112.92623388, 28.19919542 ] } },
{ "type": "Feature", "properties": { "gml_id": "layer_financial_pt.213540", "Name": "长沙先导农村商业银行ATM", "pyname": "csxdncsyyha", "kind": "A199", "zipcode": "410012", "telephone": null, "display_x": "112.94944", "display_y": "28.16491", "side": "R", "address": "阜埠河路174" }, "geometry": { "type": "Point", "coordinates": [ 112.9439763, 28.16840318 ] } },
{ "type": "Feature", "properties": { "gml_id": "layer_financial_pt.213563", "Name": "中信银行ATM", "pyname": "zxyha", "kind": "A199", "zipcode": null, "telephone": null, "display_x": "112.94847", "display_y": "28.16832", "side": "R", "address": "天马路115号" }, "geometry": { "type": "Point", "coordinates": [ 112.94300826, 28.17181517 ] } },
{ "type": "Feature", "properties": { "gml_id": "layer_financial_pt.213759", "Name": "中国邮政储蓄银行ATM", "pyname": "zgyzcxyha", "kind": "A199", "zipcode": null, "telephone": null, "display_x": "112.94312", "display_y": "28.17879", "side": "R", "address": "登高路7" }, "geometry": { "type": "Point", "coordinates": [ 112.93766982, 28.18229522 ] } },
{ "type": "Feature", "properties": { "gml_id": "layer_financial_pt.213905", "Name": "长沙先导农村商业银行梅溪湖支行", "pyname": "csxdncsyyhmxhzh", "kind": "A180", "zipcode": "410205", "telephone": "0731-88610547", "display_x": "112.92024", "display_y": "28.21012", "side": "L", "address": "枫林二路378" }, "geometry": { "type": "Point", "coordinates": [ 112.91482656, 28.21365509 ] } },
{ "type": "Feature", "properties": { "gml_id": "layer_financial_pt.213915", "Name": "中国建设银行ATM", "pyname": "zgjsyha", "kind": "A199", "zipcode": null, "telephone": null, "display_x": "112.94692", "display_y": "28.16647", "side": "L", "address": "阜埠河路171" }, "geometry": { "type": "Point", "coordinates": [ 112.9414617, 28.16996756 ] } },
{ "type": "Feature", "properties": { "gml_id": "layer_financial_pt.213941", "Name": "长沙银行ATM", "pyname": "csyha", "kind": "A199", "zipcode": null, "telephone": null, "display_x": "112.92856", "display_y": "28.20053", "side": "R", "address": null }, "geometry": { "type": "Point", "coordinates": [ 112.92313734, 28.20405816 ] } },
{ "type": "Feature", "properties": { "gml_id": "layer_financial_pt.214063", "Name": "中国银行ATM", "pyname": "zgyha", "kind": "A199", "zipcode": null, "telephone": null, "display_x": "112.94274", "display_y": "28.17887", "side": "R", "address": "登高路18" }, "geometry": { "type": "Point", "coordinates": [ 112.93729074, 28.18237586 ] } },
{ "type": "Feature", "properties": { "gml_id": "layer_financial_pt.214164", "Name": "长沙银行ATM", "pyname": "csyha", "kind": "A199", "zipcode": "410013", "telephone": null, "display_x": "112.92849", "display_y": "28.2178", "side": "R", "address": "桐梓坡路8－101" }, "geometry": { "type": "Point", "coordinates": [ 112.92306372, 28.2213261 ] } },
{ "type": "Feature", "properties": { "gml_id": "layer_financial_pt.214439", "Name": "兴业银行ATM", "pyname": "xyyha", "kind": "A199", "zipcode": null, "telephone": "0731-82817799", "display_x": "112.93102", "display_y": "28.20068", "side": "L", "address": "石佳冲路98" }, "geometry": { "type": "Point", "coordinates": [ 112.92559398, 28.2042059 ] } },
{ "type": "Feature", "properties": { "gml_id": "layer_financial_pt.214882", "Name": "交通银行ATM", "pyname": "jtyha", "kind": "A199", "zipcode": null, "telephone": null, "display_x": "112.95186", "display_y": "28.19495", "side": "R", "address": "麓山路与枫林一路交叉口通程商业广场" }, "geometry": { "type": "Point", "coordinates": [ 112.94638884, 28.1984405 ] } },
{ "type": "Feature", "properties": { "gml_id": "layer_financial_pt.215008", "Name": "中国邮政储蓄银行师大支行", "pyname": "zgyzcxyhsdzh", "kind": "A18B", "zipcode": "410006", "telephone": "0731-88882601", "display_x": "112.94789", "display_y": "28.18796", "side": "L", "address": "麓山路280" }, "geometry": { "type": "Point", "coordinates": [ 112.94242866, 28.19145758 ] } },
{ "type": "Feature", "properties": { "gml_id": "layer_financial_pt.215060", "Name": "中国银行ATM", "pyname": "zgyha", "kind": "A199", "zipcode": null, "telephone": null, "display_x": "112.95354", "display_y": "28.19566", "side": "L", "address": "枫林一路27" }, "geometry": { "type": "Point", "coordinates": [ 112.94806482, 28.19914749 ] } },
{ "type": "Feature", "properties": { "gml_id": "layer_financial_pt.215080", "Name": "中国邮政储蓄银行桐梓坡支行", "pyname": "zgyzcxyhtzpzh", "kind": "A18B", "zipcode": "410013", "telephone": "0731-88809223", "display_x": "112.95093", "display_y": "28.21813", "side": "R", "address": "桐兴巷36" }, "geometry": { "type": "Point", "coordinates": [ 112.94546184, 28.22162441 ] } },
{ "type": "Feature", "properties": { "gml_id": "layer_financial_pt.215381", "Name": "中国农业银行长沙工大分理处", "pyname": "zgnyyhcsgdflc", "kind": "A183", "zipcode": null, "telephone": "0731-88827592", "display_x": "112.9336", "display_y": "28.1639", "side": "R", "address": "麓山南路761" }, "geometry": { "type": "Point", "coordinates": [ 112.92817086, 28.16741957 ] } },
{ "type": "Feature", "properties": { "gml_id": "layer_financial_pt.215437", "Name": "中国邮政储蓄银行ATM", "pyname": "zgyzcxyha", "kind": "A199", "zipcode": null, "telephone": null, "display_x": "112.94995", "display_y": "28.16196", "side": "R", "address": "阜埠河路天马安置小区" }, "geometry": { "type": "Point", "coordinates": [ 112.94448552, 28.16545235 ] } },
{ "type": "Feature", "properties": { "gml_id": "layer_financial_pt.215481", "Name": "湖南望城农村商业银行桐梓坡支行", "pyname": "hnwcncsyyhtzpzh", "kind": "A180", "zipcode": "410013", "telephone": "0731-88803961", "display_x": "112.9476", "display_y": "28.21842", "side": "L", "address": "桐梓坡路49" }, "geometry": { "type": "Point", "coordinates": [ 112.94213958, 28.22192042 ] } },
{ "type": "Feature", "properties": { "gml_id": "layer_financial_pt.215499", "Name": "上海浦东发展银行ATM", "pyname": "shpdfzyha", "kind": "A199", "zipcode": null, "telephone": null, "display_x": "112.93005", "display_y": "28.21746", "side": "L", "address": "桐梓坡路485湖南商学院咸嘉学生公寓" }, "geometry": { "type": "Point", "coordinates": [ 112.92462144, 28.22098442 ] } },
{ "type": "Feature", "properties": { "gml_id": "layer_financial_pt.215510", "Name": "交通银行ATM", "pyname": "jtyha", "kind": "A199", "zipcode": null, "telephone": null, "display_x": "112.93406", "display_y": "28.20957", "side": "R", "address": "咸嘉湖路519号附近" }, "geometry": { "type": "Point", "coordinates": [ 112.92862734, 28.21309124 ] } },
{ "type": "Feature", "properties": { "gml_id": "layer_financial_pt.215511", "Name": "交通银行ATM", "pyname": "jtyha", "kind": "A199", "zipcode": null, "telephone": null, "display_x": "112.9554", "display_y": "28.19847", "side": "R", "address": "溁湾路" }, "geometry": { "type": "Point", "coordinates": [ 112.94992026, 28.20195419 ] } },
{ "type": "Feature", "properties": { "gml_id": "layer_financial_pt.215704", "Name": "交通银行ATM", "pyname": "jtyha", "kind": "A199", "zipcode": null, "telephone": null, "display_x": "112.95529", "display_y": "28.20037", "side": "R", "address": "银盆南路205" }, "geometry": { "type": "Point", "coordinates": [ 112.94981046, 28.20385449 ] } },
{ "type": "Feature", "properties": { "gml_id": "layer_financial_pt.215732", "Name": "招商银行长沙天马ATM", "pyname": "zsyhcstma", "kind": "A199", "zipcode": null, "telephone": null, "display_x": "112.94385", "display_y": "28.16892", "side": "R", "address": "湖南大学天马学生公寓宿舍区第一区第2栋102室" }, "geometry": { "type": "Point", "coordinates": [ 112.93839846, 28.17242294 ] } },
{ "type": "Feature", "properties": { "gml_id": "layer_financial_pt.215745", "Name": "中国农业银行ATM", "pyname": "zgnyyha", "kind": "A199", "zipcode": null, "telephone": null, "display_x": "112.95441", "display_y": "28.21937", "side": "L", "address": "银盆南路355" }, "geometry": { "type": "Point", "coordinates": [ 112.94893296, 28.2228575 ] } },
{ "type": "Feature", "properties": { "gml_id": "layer_financial_pt.215755", "Name": "中国银行中南大学支行", "pyname": "zgyhzndxzh", "kind": "A184", "zipcode": "410083", "telephone": null, "display_x": "112.93267", "display_y": "28.1678", "side": "R", "address": "中南工大学六食堂后侧" }, "geometry": { "type": "Point", "coordinates": [ 112.92724278, 28.17132156 ] } },
{ "type": "Feature", "properties": { "gml_id": "layer_financial_pt.215897", "Name": "长沙先导农村商业银行桔洲分理处", "pyname": "csxdncsyyhjzflc", "kind": "A180", "zipcode": "410012", "telephone": "0731-88676822", "display_x": "112.94947", "display_y": "28.16488", "side": "R", "address": "阜埠河路172" }, "geometry": { "type": "Point", "coordinates": [ 112.94400618, 28.16837312 ] } },
{ "type": "Feature", "properties": { "gml_id": "layer_financial_pt.216069", "Name": "中国邮政储蓄银行ATM", "pyname": "zgyzcxyha", "kind": "A199", "zipcode": "410013", "telephone": null, "display_x": "112.95094", "display_y": "28.21809", "side": "R", "address": "桐兴巷36" }, "geometry": { "type": "Point", "coordinates": [ 112.94547174, 28.22158436 ] } },
{ "type": "Feature", "properties": { "gml_id": "layer_financial_pt.216070", "Name": "中国工商银行ATM", "pyname": "zggsyha", "kind": "A199", "zipcode": null, "telephone": null, "display_x": "112.95094", "display_y": "28.21798", "side": "R", "address": "桐兴巷40" }, "geometry": { "type": "Point", "coordinates": [ 112.94547174, 28.22147438 ] } },
{ "type": "Feature", "properties": { "gml_id": "layer_financial_pt.216180", "Name": "兴业银行ATM", "pyname": "xyyha", "kind": "A199", "zipcode": null, "telephone": "0731-82817799", "display_x": "112.94822", "display_y": "28.16735", "side": "R", "address": "天马路109" }, "geometry": { "type": "Point", "coordinates": [ 112.94275878, 28.17084546 ] } },
{ "type": "Feature", "properties": { "gml_id": "layer_financial_pt.216410", "Name": "中国工商银行长沙岳麓山支行", "pyname": "zggsyhcsylszh", "kind": "A181", "zipcode": null, "telephone": "0731-88882901", "display_x": "112.95573", "display_y": "28.21376", "side": "R", "address": "火炬城M7－1－2" }, "geometry": { "type": "Point", "coordinates": [ 112.95025038, 28.21724528 ] } },
{ "type": "Feature", "properties": { "gml_id": "layer_financial_pt.216519", "Name": "长沙先导农村商业银行银盆支行", "pyname": "csxdncsyyhypzh", "kind": "A180", "zipcode": "410013", "telephone": "0731-88800810", "display_x": "112.95421", "display_y": "28.22027", "side": "R", "address": "银盆南路357－2" }, "geometry": { "type": "Point", "coordinates": [ 112.94873316, 28.22375777 ] } },
{ "type": "Feature", "properties": { "gml_id": "layer_financial_pt.216520", "Name": "长沙先导农村商业银行麓山支行", "pyname": "csxdncsyyhlszh", "kind": "A180", "zipcode": "410006", "telephone": "0731-88881819", "display_x": "112.95157", "display_y": "28.19458", "side": "R", "address": "麓山路11" }, "geometry": { "type": "Point", "coordinates": [ 112.9460994, 28.198071 ] } },
{ "type": "Feature", "properties": { "gml_id": "layer_financial_pt.216866", "Name": "中国银行ATM", "pyname": "zgyha", "kind": "A199", "zipcode": null, "telephone": null, "display_x": "112.93261", "display_y": "28.20263", "side": "L", "address": "枫林一路717" }, "geometry": { "type": "Point", "coordinates": [ 112.92718122, 28.20615386 ] } },
{ "type": "Feature", "properties": { "gml_id": "layer_financial_pt.216900", "Name": "中国邮政储蓄银行长沙市溁湾路支行", "pyname": "zgyzcxyhcssywlzh", "kind": "A18B", "zipcode": "410006", "telephone": null, "display_x": "112.95579", "display_y": "28.198", "side": "L", "address": "溁湾路27" }, "geometry": { "type": "Point", "coordinates": [ 112.95030942, 28.20148353 ] } },
{ "type": "Feature", "properties": { "gml_id": "layer_financial_pt.216956", "Name": "交通银行ATM", "pyname": "jtyha", "kind": "A199", "zipcode": "410013", "telephone": null, "display_x": "112.94468", "display_y": "28.21807", "side": "L", "address": "桐梓坡路69" }, "geometry": { "type": "Point", "coordinates": [ 112.93922628, 28.22157558 ] } },
{ "type": "Feature", "properties": { "gml_id": "layer_financial_pt.216979", "Name": "招商银行ATM", "pyname": "zsyha", "kind": "A199", "zipcode": "410006", "telephone": null, "display_x": "112.95146", "display_y": "28.19435", "side": "R", "address": "麓山路23" }, "geometry": { "type": "Point", "coordinates": [ 112.94598978, 28.19784119 ] } },
{ "type": "Feature", "properties": { "gml_id": "layer_financial_pt.216993", "Name": "长沙银行ATM", "pyname": "csyha", "kind": "A199", "zipcode": null, "telephone": null, "display_x": "112.94611", "display_y": "28.16814", "side": "R", "address": "阜埠河路" }, "geometry": { "type": "Point", "coordinates": [ 112.9406535, 28.17163908 ] } },
{ "type": "Feature", "properties": { "gml_id": "layer_financial_pt.217009", "Name": "招商银行长沙银盆岭ATM", "pyname": "zsyhcsypla", "kind": "A199", "zipcode": null, "telephone": "0731-82681239", "display_x": "112.9539", "display_y": "28.22164", "side": "R", "address": "银盆南路373－5" }, "geometry": { "type": "Point", "coordinates": [ 112.94842356, 28.22512815 ] } },
{ "type": "Feature", "properties": { "gml_id": "layer_financial_pt.217040", "Name": "中国邮政储蓄银行ATM", "pyname": "zgyzcxyha", "kind": "A199", "zipcode": null, "telephone": null, "display_x": "112.92218", "display_y": "28.22205", "side": "R", "address": "晨风路" }, "geometry": { "type": "Point", "coordinates": [ 112.9167639, 28.22558351 ] } },
{ "type": "Feature", "properties": { "gml_id": "layer_financial_pt.217141", "Name": "中信银行金麓支行", "pyname": "zxyhjlzh", "kind": "A187", "zipcode": null, "telephone": null, "display_x": "112.93567", "display_y": "28.2244", "side": "L", "address": "岳麓大道311－1号金麓国际" }, "geometry": { "type": "Point", "coordinates": [ 112.93023132, 28.22791725 ] } },
{ "type": "Feature", "properties": { "gml_id": "layer_financial_pt.217142", "Name": "中信银行ATM", "pyname": "zxyha", "kind": "A199", "zipcode": null, "telephone": null, "display_x": "112.93572", "display_y": "28.22451", "side": "L", "address": "岳麓大道311－1" }, "geometry": { "type": "Point", "coordinates": [ 112.93028136, 28.22802719 ] } },
{ "type": "Feature", "properties": { "gml_id": "layer_financial_pt.217154", "Name": "兴业银行ATM", "pyname": "xyyha", "kind": "A199", "zipcode": null, "telephone": null, "display_x": "112.93508", "display_y": "28.22067", "side": "L", "address": null }, "geometry": { "type": "Point", "coordinates": [ 112.92964308, 28.22418846 ] } },
{ "type": "Feature", "properties": { "gml_id": "layer_financial_pt.217176", "Name": "中国建设银行湖大支行", "pyname": "zgjsyhhdzh", "kind": "A182", "zipcode": null, "telephone": "0731-88649619", "display_x": "112.94422", "display_y": "28.16907", "side": "R", "address": "麓山南路与阜埠河路交汇处" }, "geometry": { "type": "Point", "coordinates": [ 112.93876764, 28.17257234 ] } },
{ "type": "Feature", "properties": { "gml_id": "layer_financial_pt.217179", "Name": "中国银行商学院支行", "pyname": "zgyhsxyzh", "kind": "A184", "zipcode": null, "telephone": null, "display_x": "112.92172", "display_y": "28.21885", "side": "R", "address": "桐梓坡路A－105" }, "geometry": { "type": "Point", "coordinates": [ 112.91630472, 28.22238405 ] } },
{ "type": "Feature", "properties": { "gml_id": "layer_financial_pt.217180", "Name": "中国银行ATM", "pyname": "zgyha", "kind": "A199", "zipcode": null, "telephone": null, "display_x": "112.92172", "display_y": "28.21893", "side": "L", "address": null }, "geometry": { "type": "Point", "coordinates": [ 112.91630472, 28.22246402 ] } },
{ "type": "Feature", "properties": { "gml_id": "layer_financial_pt.217181", "Name": "中国农业银行商学院分理处", "pyname": "zgnyyhsxyflc", "kind": "A183", "zipcode": null, "telephone": null, "display_x": "112.9215", "display_y": "28.21893", "side": "L", "address": "桐梓坡路A－104" }, "geometry": { "type": "Point", "coordinates": [ 112.91608476, 28.22246411 ] } },
{ "type": "Feature", "properties": { "gml_id": "layer_financial_pt.217182", "Name": "中国农业银行ATM", "pyname": "zgnyyha", "kind": "A199", "zipcode": null, "telephone": null, "display_x": "112.92159", "display_y": "28.21893", "side": "L", "address": null }, "geometry": { "type": "Point", "coordinates": [ 112.91617476, 28.22246406 ] } },
{ "type": "Feature", "properties": { "gml_id": "layer_financial_pt.217268", "Name": "中国建设银行ATM", "pyname": "zgjsyha", "kind": "A199", "zipcode": "410006", "telephone": null, "display_x": "112.94789", "display_y": "28.18813", "side": "L", "address": "麓山路278" }, "geometry": { "type": "Point", "coordinates": [ 112.94242866, 28.19162754 ] } },
{ "type": "Feature", "properties": { "gml_id": "layer_financial_pt.217269", "Name": "中国农业银行ATM", "pyname": "zgnyyha", "kind": "A199", "zipcode": "410006", "telephone": null, "display_x": "112.95044", "display_y": "28.19194", "side": "R", "address": "麓山路95" }, "geometry": { "type": "Point", "coordinates": [ 112.94497242, 28.19543301 ] } },
{ "type": "Feature", "properties": { "gml_id": "layer_financial_pt.217270", "Name": "中国建设银行ATM", "pyname": "zgjsyha", "kind": "A199", "zipcode": "410006", "telephone": null, "display_x": "112.95103", "display_y": "28.19296", "side": "R", "address": "新民路193" }, "geometry": { "type": "Point", "coordinates": [ 112.94556084, 28.19645199 ] } },
{ "type": "Feature", "properties": { "gml_id": "layer_financial_pt.217271", "Name": "长沙先导农村商业银行望月湖分理处", "pyname": "csxdncsyyhwyhflc", "kind": "A180", "zipcode": "410013", "telephone": "0731-88866165", "display_x": "112.95584", "display_y": "28.1999", "side": "L", "address": "银盆南路52－7" }, "geometry": { "type": "Point", "coordinates": [ 112.9503591, 28.20338343 ] } },
{ "type": "Feature", "properties": { "gml_id": "layer_financial_pt.217272", "Name": "中国农业银行ATM", "pyname": "zgnyyha", "kind": "A199", "zipcode": "410013", "telephone": null, "display_x": "112.95527", "display_y": "28.19892", "side": "L", "address": "银盆南路16" }, "geometry": { "type": "Point", "coordinates": [ 112.94979048, 28.20240441 ] } },
{ "type": "Feature", "properties": { "gml_id": "layer_financial_pt.217279", "Name": "中信银行ATM", "pyname": "zxyha", "kind": "A199", "zipcode": null, "telephone": null, "display_x": "112.93148", "display_y": "28.21734", "side": "L", "address": "沁园春·御院底商2－120" }, "geometry": { "type": "Point", "coordinates": [ 112.92604938, 28.22086287 ] } },
{ "type": "Feature", "properties": { "gml_id": "layer_financial_pt.217431", "Name": "中国邮政储蓄银行岳麓支行", "pyname": "zgyzcxyhylzh", "kind": "A18B", "zipcode": null, "telephone": "0731-85714537", "display_x": "112.93389", "display_y": "28.22248", "side": "R", "address": "金星中路473" }, "geometry": { "type": "Point", "coordinates": [ 112.92845454, 28.22599949 ] } },
{ "type": "Feature", "properties": { "gml_id": "layer_financial_pt.217447", "Name": "中国人民保险", "pyname": "zgrmbx", "kind": "AA87", "zipcode": null, "telephone": null, "display_x": "112.93648", "display_y": "28.22234", "side": "R", "address": "金星中路528－16" }, "geometry": { "type": "Point", "coordinates": [ 112.9310406, 28.22585666 ] } },
{ "type": "Feature", "properties": { "gml_id": "layer_financial_pt.217520", "Name": "中国银行ATM", "pyname": "zgyha", "kind": "A199", "zipcode": null, "telephone": null, "display_x": "112.95418", "display_y": "28.22051", "side": "R", "address": "银盆南路359号" }, "geometry": { "type": "Point", "coordinates": [ 112.94870328, 28.22399775 ] } },
{ "type": "Feature", "properties": { "gml_id": "layer_financial_pt.217656", "Name": "交通银行高新支行", "pyname": "jtyhgxzh", "kind": "A185", "zipcode": "410013", "telephone": "0731-88907003", "display_x": "112.94464", "display_y": "28.21807", "side": "L", "address": "桐梓坡路69" }, "geometry": { "type": "Point", "coordinates": [ 112.93918632, 28.22157567 ] } },
{ "type": "Feature", "properties": { "gml_id": "layer_financial_pt.217725", "Name": "中国工商银行ATM", "pyname": "zggsyha", "kind": "A199", "zipcode": null, "telephone": null, "display_x": "112.94292", "display_y": "28.17899", "side": "R", "address": "登高路8" }, "geometry": { "type": "Point", "coordinates": [ 112.93747038, 28.1824956 ] } },
{ "type": "Feature", "properties": { "gml_id": "layer_financial_pt.217884", "Name": "中国人民财产保险股份有限公司长沙市岳麓支公司", "pyname": "zgrmccbxgfyxgscssylzgs", "kind": "AA87", "zipcode": null, "telephone": null, "display_x": "112.95514", "display_y": "28.21861", "side": "R", "address": "银盆南路" }, "geometry": { "type": "Point", "coordinates": [ 112.94966088, 28.22209583 ] } },
{ "type": "Feature", "properties": { "gml_id": "layer_financial_pt.217888", "Name": "中信银行ATM", "pyname": "zxyha", "kind": "A199", "zipcode": null, "telephone": null, "display_x": "112.93332", "display_y": "28.20237", "side": "R", "address": "石佳冲路2" }, "geometry": { "type": "Point", "coordinates": [ 112.92789024, 28.20589313 ] } },
{ "type": "Feature", "properties": { "gml_id": "layer_financial_pt.217896", "Name": "招商银行河西支行", "pyname": "zsyhhxzh", "kind": "A186", "zipcode": "410006", "telephone": "0731-88863397", "display_x": "112.95144", "display_y": "28.19431", "side": "R", "address": "麓山路23" }, "geometry": { "type": "Point", "coordinates": [ 112.9459698, 28.19780123 ] } },
{ "type": "Feature", "properties": { "gml_id": "layer_financial_pt.218064", "Name": "中国光大银行银盆南路ATM", "pyname": "zggdyhypnla", "kind": "A199", "zipcode": null, "telephone": null, "display_x": "112.95606", "display_y": "28.21581", "side": "L", "address": "银盆南路" }, "geometry": { "type": "Point", "coordinates": [ 112.95057906, 28.21929426 ] } },
{ "type": "Feature", "properties": { "gml_id": "layer_financial_pt.218098", "Name": "中国工商银行麓山南路分理处", "pyname": "zggsyhlsnlflc", "kind": "A181", "zipcode": null, "telephone": "0731-88825467", "display_x": "112.93143", "display_y": "28.16359", "side": "L", "address": "麓山南路962" }, "geometry": { "type": "Point", "coordinates": [ 112.92600564, 28.16711321 ] } },
{ "type": "Feature", "properties": { "gml_id": "layer_financial_pt.218102", "Name": "中国工商银行ATM", "pyname": "zggsyha", "kind": "A199", "zipcode": null, "telephone": null, "display_x": "112.93225", "display_y": "28.16928", "side": "R", "address": "麓山南路中南大学" }, "geometry": { "type": "Point", "coordinates": [ 112.92682374, 28.17280242 ] } },
{ "type": "Feature", "properties": { "gml_id": "layer_financial_pt.218183", "Name": "中国建设银行金星支行", "pyname": "zgjsyhjxzh", "kind": "A182", "zipcode": null, "telephone": "0731-88645318", "display_x": "112.93496", "display_y": "28.22343", "side": "R", "address": "金星中路528－2" }, "geometry": { "type": "Point", "coordinates": [ 112.92952266, 28.22694818 ] } },
{ "type": "Feature", "properties": { "gml_id": "layer_financial_pt.218213", "Name": "中国邮政储蓄银行麓山南路支行", "pyname": "zgyzcxyhlsnlzh", "kind": "A18B", "zipcode": null, "telephone": "0731-88882052", "display_x": "112.93283", "display_y": "28.16225", "side": "R", "address": "清水路59号" }, "geometry": { "type": "Point", "coordinates": [ 112.92740244, 28.16577072 ] } },
{ "type": "Feature", "properties": { "gml_id": "layer_financial_pt.218214", "Name": "华融湘江银行ATM", "pyname": "hrxjyha", "kind": "A199", "zipcode": null, "telephone": null, "display_x": "112.93526", "display_y": "28.15799", "side": "R", "address": null }, "geometry": { "type": "Point", "coordinates": [ 112.92982722, 28.16150616 ] } },
{ "type": "Feature", "properties": { "gml_id": "layer_financial_pt.218525", "Name": "上海浦东发展银行ATM", "pyname": "shpdfzyha", "kind": "A199", "zipcode": null, "telephone": null, "display_x": "112.93978", "display_y": "28.16345", "side": "L", "address": "麓山南路湖南大学德智园学生公寓" }, "geometry": { "type": "Point", "coordinates": [ 112.9343373, 28.16695917 ] } },
{ "type": "Feature", "properties": { "gml_id": "layer_financial_pt.218584", "Name": "长沙银行ATM", "pyname": "csyha", "kind": "A199", "zipcode": null, "telephone": null, "display_x": "112.93021", "display_y": "28.21047", "side": "L", "address": "咸嘉湖路609号附近" }, "geometry": { "type": "Point", "coordinates": [ 112.9247829, 28.21399529 ] } },
{ "type": "Feature", "properties": { "gml_id": "layer_financial_pt.218637", "Name": "长沙先导农村商业银行ATM", "pyname": "csxdncsyyha", "kind": "A199", "zipcode": "410013", "telephone": null, "display_x": "112.95585", "display_y": "28.19992", "side": "L", "address": "银盆南路52－7" }, "geometry": { "type": "Point", "coordinates": [ 112.95036918, 28.20340341 ] } },
{ "type": "Feature", "properties": { "gml_id": "layer_financial_pt.218668", "Name": "兴业银行ATM", "pyname": "xyyha", "kind": "A199", "zipcode": null, "telephone": "0731-82817799", "display_x": "112.95027", "display_y": "28.19775", "side": "R", "address": "枫林一路81号指南针商业广场" }, "geometry": { "type": "Point", "coordinates": [ 112.94480214, 28.20124332 ] } },
{ "type": "Feature", "properties": { "gml_id": "layer_financial_pt.218713", "Name": "中国银行湖南师范大学支行", "pyname": "zgyhhnsfdxzh", "kind": "A184", "zipcode": "410006", "telephone": null, "display_x": "112.94817", "display_y": "28.18856", "side": "R", "address": "麓山路266" }, "geometry": { "type": "Point", "coordinates": [ 112.94270802, 28.19205707 ] } },
{ "type": "Feature", "properties": { "gml_id": "layer_financial_pt.218787", "Name": "中国建设银行ATM", "pyname": "zgjsyha", "kind": "A199", "zipcode": null, "telephone": null, "display_x": "112.93165", "display_y": "28.21734", "side": "L", "address": "沁园春·御院底商2－123" }, "geometry": { "type": "Point", "coordinates": [ 112.92621912, 28.22086269 ] } },
{ "type": "Feature", "properties": { "gml_id": "layer_financial_pt.219212", "Name": "中国工商银行ATM", "pyname": "zggsyha", "kind": "A199", "zipcode": null, "telephone": null, "display_x": "112.93783", "display_y": "28.21717", "side": "R", "address": "嘉桐街" }, "geometry": { "type": "Point", "coordinates": [ 112.93238988, 28.22068598 ] } },
{ "type": "Feature", "properties": { "gml_id": "layer_financial_pt.219273", "Name": "中国邮政储蓄银行ATM", "pyname": "zgyzcxyha", "kind": "A199", "zipcode": null, "telephone": null, "display_x": "112.92116", "display_y": "28.2178", "side": "L", "address": null }, "geometry": { "type": "Point", "coordinates": [ 112.91574528, 28.22133438 ] } },
{ "type": "Feature", "properties": { "gml_id": "layer_financial_pt.219310", "Name": "华融湘江银行ATM", "pyname": "hrxjyha", "kind": "A199", "zipcode": null, "telephone": null, "display_x": "112.93388", "display_y": "28.2236", "side": "R", "address": "岳麓大道355" }, "geometry": { "type": "Point", "coordinates": [ 112.92844446, 28.22711949 ] } },
{ "type": "Feature", "properties": { "gml_id": "layer_financial_pt.219323", "Name": "中国农业银行ATM", "pyname": "zgnyyha", "kind": "A199", "zipcode": null, "telephone": null, "display_x": "112.91709", "display_y": "28.21077", "side": "R", "address": "枫林二路500" }, "geometry": { "type": "Point", "coordinates": [ 112.91167908, 28.21430642 ] } },
{ "type": "Feature", "properties": { "gml_id": "layer_financial_pt.219325", "Name": "中国农业银行ATM", "pyname": "zgnyyha", "kind": "A199", "zipcode": null, "telephone": null, "display_x": "112.9461", "display_y": "28.16721", "side": "L", "address": "阜埠河路225号附近" }, "geometry": { "type": "Point", "coordinates": [ 112.94064342, 28.17070902 ] } },
{ "type": "Feature", "properties": { "gml_id": "layer_financial_pt.219443", "Name": "中国邮政储蓄银行长沙市左家垅支行", "pyname": "zgyzcxyhcsszjlzh", "kind": "A18B", "zipcode": "410012", "telephone": "0731-82228090", "display_x": "112.9338", "display_y": "28.16395", "side": "R", "address": "麓山南路739号103／105号门面" }, "geometry": { "type": "Point", "coordinates": [ 112.9283703, 28.16746925 ] } },
{ "type": "Feature", "properties": { "gml_id": "layer_financial_pt.219462", "Name": "长沙银行ATM", "pyname": "csyha", "kind": "A199", "zipcode": null, "telephone": null, "display_x": "112.94983", "display_y": "28.1619", "side": "R", "address": "潇湘中路318号" }, "geometry": { "type": "Point", "coordinates": [ 112.94436582, 28.16539254 ] } },
{ "type": "Feature", "properties": { "gml_id": "layer_financial_pt.219495", "Name": "中国邮政储蓄银行ATM", "pyname": "zgyzcxyha", "kind": "A199", "zipcode": "410012", "telephone": null, "display_x": "112.93386", "display_y": "28.16396", "side": "R", "address": "麓山南路" }, "geometry": { "type": "Point", "coordinates": [ 112.92843024, 28.16747915 ] } },
{ "type": "Feature", "properties": { "gml_id": "layer_financial_pt.219539", "Name": "中国建设银行ATM", "pyname": "zgjsyha", "kind": "A199", "zipcode": null, "telephone": null, "display_x": "112.91783", "display_y": "28.21849", "side": "R", "address": "枫桦路" }, "geometry": { "type": "Point", "coordinates": [ 112.91241762, 28.22202549 ] } },
{ "type": "Feature", "properties": { "gml_id": "layer_financial_pt.219670", "Name": "交通银行ATM", "pyname": "jtyha", "kind": "A199", "zipcode": null, "telephone": null, "display_x": "112.93299", "display_y": "28.20248", "side": "L", "address": "枫林一路701～703" }, "geometry": { "type": "Point", "coordinates": [ 112.92756066, 28.20600347 ] } },
{ "type": "Feature", "properties": { "gml_id": "layer_financial_pt.219678", "Name": "交通银行ATM", "pyname": "jtyha", "kind": "A199", "zipcode": null, "telephone": null, "display_x": "112.92561", "display_y": "28.16048", "side": "R", "address": "步步高生活广场王家湾店" }, "geometry": { "type": "Point", "coordinates": [ 112.92019326, 28.16400816 ] } },
{ "type": "Feature", "properties": { "gml_id": "layer_financial_pt.219696", "Name": "中国邮政储蓄银行ATM", "pyname": "zgyzcxyha", "kind": "A199", "zipcode": null, "telephone": null, "display_x": "112.92652", "display_y": "28.16793", "side": "R", "address": null }, "geometry": { "type": "Point", "coordinates": [ 112.92110172, 28.17145778 ] } },
{ "type": "Feature", "properties": { "gml_id": "layer_financial_pt.219722", "Name": "中信银行ATM", "pyname": "zxyha", "kind": "A199", "zipcode": null, "telephone": null, "display_x": "112.94994", "display_y": "28.19668", "side": "L", "address": "枫林一路43号枫林宾馆1层" }, "geometry": { "type": "Point", "coordinates": [ 112.94447292, 28.2001739 ] } },
{ "type": "Feature", "properties": { "gml_id": "layer_financial_pt.219789", "Name": "中国工商银行ATM", "pyname": "zggsyha", "kind": "A199", "zipcode": null, "telephone": null, "display_x": "112.95567", "display_y": "28.1984", "side": "R", "address": "溁湾路26" }, "geometry": { "type": "Point", "coordinates": [ 112.95018972, 28.20188372 ] } },
{ "type": "Feature", "properties": { "gml_id": "layer_financial_pt.219822", "Name": "广发银行ATM", "pyname": "gfyha", "kind": "A199", "zipcode": null, "telephone": null, "display_x": "112.94386", "display_y": "28.21793", "side": "L", "address": "桐梓坡路85－1号1楼" }, "geometry": { "type": "Point", "coordinates": [ 112.93840818, 28.22143703 ] } },
{ "type": "Feature", "properties": { "gml_id": "layer_financial_pt.219837", "Name": "兴业银行ATM", "pyname": "xyyha", "kind": "A199", "zipcode": null, "telephone": null, "display_x": "112.93548", "display_y": "28.21493", "side": "R", "address": "桐梓坡路371湖南师大医学院" }, "geometry": { "type": "Point", "coordinates": [ 112.93004394, 28.21844885 ] } },
{ "type": "Feature", "properties": { "gml_id": "layer_financial_pt.219851", "Name": "太平洋寿险长沙中心支公司", "pyname": "tpysxcszxzgs", "kind": "AA83", "zipcode": null, "telephone": null, "display_x": "112.93341", "display_y": "28.21572", "side": "L", "address": "金星中路319号金谷大厦9层A" }, "geometry": { "type": "Point", "coordinates": [ 112.92797682, 28.21924103 ] } },
{ "type": "Feature", "properties": { "gml_id": "layer_financial_pt.220084", "Name": "交通银行ATM", "pyname": "jtyha", "kind": "A199", "zipcode": null, "telephone": null, "display_x": "112.93741", "display_y": "28.21721", "side": "R", "address": "嘉桐街" }, "geometry": { "type": "Point", "coordinates": [ 112.93197048, 28.22072643 ] } },
{ "type": "Feature", "properties": { "gml_id": "layer_financial_pt.220201", "Name": "中国农业银行ATM", "pyname": "zgnyyha", "kind": "A199", "zipcode": null, "telephone": null, "display_x": "112.93511", "display_y": "28.15886", "side": "L", "address": null }, "geometry": { "type": "Point", "coordinates": [ 112.92967764, 28.16237651 ] } },
{ "type": "Feature", "properties": { "gml_id": "layer_financial_pt.220366", "Name": "中国建设银行长沙师大支行", "pyname": "zgjsyhcssdzh", "kind": "A182", "zipcode": "410006", "telephone": "0731-88884106", "display_x": "112.94788", "display_y": "28.18811", "side": "L", "address": "麓山路278号" }, "geometry": { "type": "Point", "coordinates": [ 112.94241876, 28.19160756 ] } },
{ "type": "Feature", "properties": { "gml_id": "layer_financial_pt.220399", "Name": "中国光大银行ATM", "pyname": "zggdyha", "kind": "A199", "zipcode": null, "telephone": null, "display_x": "112.94829", "display_y": "28.18875", "side": "R", "address": "麓山路252号附近" }, "geometry": { "type": "Point", "coordinates": [ 112.94282772, 28.19224683 ] } },
{ "type": "Feature", "properties": { "gml_id": "layer_financial_pt.220452", "Name": "招商银行ATM", "pyname": "zsyha", "kind": "A199", "zipcode": null, "telephone": "0731-82681239", "display_x": "112.92792", "display_y": "28.21876", "side": "R", "address": "谷丰路2" }, "geometry": { "type": "Point", "coordinates": [ 112.92249456, 28.22228672 ] } },
{ "type": "Feature", "properties": { "gml_id": "layer_financial_pt.220460", "Name": "中国银行岳麓支行", "pyname": "zgyhylzh", "kind": "A184", "zipcode": "410013", "telephone": null, "display_x": "112.94443", "display_y": "28.21804", "side": "L", "address": "桐梓坡路77" }, "geometry": { "type": "Point", "coordinates": [ 112.9389768, 28.22154606 ] } },
{ "type": "Feature", "properties": { "gml_id": "layer_financial_pt.220514", "Name": "中国工商银行ATM", "pyname": "zggsyha", "kind": "A199", "zipcode": "410006", "telephone": null, "display_x": "112.94816", "display_y": "28.18852", "side": "R", "address": "麓山路268" }, "geometry": { "type": "Point", "coordinates": [ 112.94269794, 28.19201706 ] } },
{ "type": "Feature", "properties": { "gml_id": "layer_financial_pt.220670", "Name": "长沙先导农村商业银行麓南支行", "pyname": "csxdncsyyhlnzh", "kind": "A180", "zipcode": "410012", "telephone": "0731-88825937", "display_x": "112.93821", "display_y": "28.15445", "side": "R", "address": "清水路桔洲街道办事处岳麓山渔场居民小区E8栋" }, "geometry": { "type": "Point", "coordinates": [ 112.9327713, 28.15796129 ] } },
{ "type": "Feature", "properties": { "gml_id": "layer_financial_pt.220699", "Name": "中国建设银行长沙河西支行", "pyname": "zgjsyhcshxzh", "kind": "A182", "zipcode": null, "telephone": null, "display_x": "112.95081", "display_y": "28.193", "side": "R", "address": "麓山路47金融大厦" }, "geometry": { "type": "Point", "coordinates": [ 112.94534142, 28.19649236 ] } },
{ "type": "Feature", "properties": { "gml_id": "layer_financial_pt.220700", "Name": "中国工商银行ATM", "pyname": "zggsyha", "kind": "A199", "zipcode": null, "telephone": null, "display_x": "112.95564", "display_y": "28.2137", "side": "R", "address": "集贤路2号附近" }, "geometry": { "type": "Point", "coordinates": [ 112.95016056, 28.21718543 ] } },
{ "type": "Feature", "properties": { "gml_id": "layer_financial_pt.220789", "Name": "中国建设银行ATM", "pyname": "zgjsyha", "kind": "A199", "zipcode": null, "telephone": null, "display_x": "112.94422", "display_y": "28.16907", "side": "R", "address": "麓山南路与阜埠河路交汇处" }, "geometry": { "type": "Point", "coordinates": [ 112.93876764, 28.17257234 ] } },
{ "type": "Feature", "properties": { "gml_id": "layer_financial_pt.220951", "Name": "交通银行ATM", "pyname": "jtyha", "kind": "A199", "zipcode": null, "telephone": null, "display_x": "112.94985", "display_y": "28.19818", "side": "R", "address": "枫林一路" }, "geometry": { "type": "Point", "coordinates": [ 112.94438292, 28.20167406 ] } },
{ "type": "Feature", "properties": { "gml_id": "layer_financial_pt.221237", "Name": "华融湘江银行长沙金星路支行", "pyname": "hrxjyhcsjxlzh", "kind": "A180", "zipcode": null, "telephone": "0731-88781308", "display_x": "112.93388", "display_y": "28.2237", "side": "R", "address": "岳麓大道355" }, "geometry": { "type": "Point", "coordinates": [ 112.92844446, 28.22721948 ] } },
{ "type": "Feature", "properties": { "gml_id": "layer_financial_pt.221243", "Name": "中国工商银行ATM", "pyname": "zggsyha", "kind": "A199", "zipcode": null, "telephone": null, "display_x": "112.93148", "display_y": "28.16362", "side": "L", "address": "麓山南路962" }, "geometry": { "type": "Point", "coordinates": [ 112.9260555, 28.16714309 ] } },
{ "type": "Feature", "properties": { "gml_id": "layer_financial_pt.221365", "Name": "新化县电力局", "pyname": "xhxdlj", "kind": "AA82", "zipcode": null, "telephone": null, "display_x": "112.9215", "display_y": "28.2099", "side": "L", "address": "枫林二路330" }, "geometry": { "type": "Point", "coordinates": [ 112.9160853, 28.21343427 ] } },
{ "type": "Feature", "properties": { "gml_id": "layer_financial_pt.221366", "Name": "中国人民财产保险公司", "pyname": "zgrmccbxgs", "kind": "AA87", "zipcode": null, "telephone": null, "display_x": "112.95711", "display_y": "28.21269", "side": "R", "address": null }, "geometry": { "type": "Point", "coordinates": [ 112.95162684, 28.21617243 ] } },
{ "type": "Feature", "properties": { "gml_id": "layer_financial_pt.221448", "Name": "中国平安人寿保险股份有限公司长沙河西支公司", "pyname": "zgparsbxgfyxgscshxzgs", "kind": "AA86", "zipcode": null, "telephone": null, "display_x": "112.95594", "display_y": "28.21608", "side": "L", "address": "银盆南路319－6号长平大厦5层" }, "geometry": { "type": "Point", "coordinates": [ 112.95045918, 28.21956449 ] } },
{ "type": "Feature", "properties": { "gml_id": "layer_financial_pt.221500", "Name": "中国光大银行ATM", "pyname": "zggdyha", "kind": "A199", "zipcode": null, "telephone": null, "display_x": "112.93113", "display_y": "28.20075", "side": "L", "address": "石佳冲路92" }, "geometry": { "type": "Point", "coordinates": [ 112.92570378, 28.20427574 ] } },
{ "type": "Feature", "properties": { "gml_id": "layer_financial_pt.221571", "Name": "中国民生银行长沙河西先导区支行", "pyname": "zgmsyhcshxxdqzh", "kind": "A188", "zipcode": null, "telephone": "0731-84399690", "display_x": "112.93511", "display_y": "28.21983", "side": "L", "address": "金星中路438号湘腾商业广场三栋1楼" }, "geometry": { "type": "Point", "coordinates": [ 112.92967332, 28.22334854 ] } },
{ "type": "Feature", "properties": { "gml_id": "layer_financial_pt.221599", "Name": "中国大地保险", "pyname": "zgddbx", "kind": "AA80", "zipcode": null, "telephone": null, "display_x": "112.95703", "display_y": "28.21515", "side": "R", "address": "银盆南路128号" }, "geometry": { "type": "Point", "coordinates": [ 112.95154602, 28.21863191 ] } },
{ "type": "Feature", "properties": { "gml_id": "layer_financial_pt.221686", "Name": "长沙银行ATM", "pyname": "csyha", "kind": "A199", "zipcode": null, "telephone": null, "display_x": "112.9473", "display_y": "28.18521", "side": "L", "address": "木兰路" }, "geometry": { "type": "Point", "coordinates": [ 112.94184042, 28.18870862 ] } },
{ "type": "Feature", "properties": { "gml_id": "layer_financial_pt.221697", "Name": "中国农业银行ATM", "pyname": "zgnyyha", "kind": "A199", "zipcode": null, "telephone": null, "display_x": "112.94283", "display_y": "28.2178", "side": "L", "address": "桐梓坡路" }, "geometry": { "type": "Point", "coordinates": [ 112.93738056, 28.22130887 ] } },
{ "type": "Feature", "properties": { "gml_id": "layer_financial_pt.221745", "Name": "长沙银行ATM", "pyname": "csyha", "kind": "A199", "zipcode": null, "telephone": null, "display_x": "112.94025", "display_y": "28.16654", "side": "L", "address": "麓山南路586" }, "geometry": { "type": "Point", "coordinates": [ 112.9348062, 28.17004874 ] } },
{ "type": "Feature", "properties": { "gml_id": "layer_financial_pt.221793", "Name": "中国光大银行ATM", "pyname": "zggdyha", "kind": "A199", "zipcode": "410013", "telephone": null, "display_x": "112.93187", "display_y": "28.21805", "side": "L", "address": "桐梓坡路284" }, "geometry": { "type": "Point", "coordinates": [ 112.92643854, 28.22157234 ] } },
{ "type": "Feature", "properties": { "gml_id": "layer_financial_pt.221825", "Name": "中国民生银行ATM", "pyname": "zgmsyha", "kind": "A199", "zipcode": null, "telephone": null, "display_x": "112.95514", "display_y": "28.19785", "side": "L", "address": "银盆南路" }, "geometry": { "type": "Point", "coordinates": [ 112.94966088, 28.20133467 ] } },
{ "type": "Feature", "properties": { "gml_id": "layer_financial_pt.221894", "Name": "中国工商银行湖大支行", "pyname": "zggsyhhdzh", "kind": "A181", "zipcode": null, "telephone": "0731-88825023", "display_x": "112.94296", "display_y": "28.17901", "side": "R", "address": "登高路8" }, "geometry": { "type": "Point", "coordinates": [ 112.93751016, 28.18251554 ] } },
{ "type": "Feature", "properties": { "gml_id": "layer_financial_pt.221895", "Name": "中国人寿保险股份有限公司岳麓区支公司客户服务中心", "pyname": "zgrsbxgfyxgsylqzgskhfwz", "kind": "AA82", "zipcode": "410006", "telephone": null, "display_x": "112.94985", "display_y": "28.19137", "side": "R", "address": "麓山路180" }, "geometry": { "type": "Point", "coordinates": [ 112.94438382, 28.19486408 ] } },
{ "type": "Feature", "properties": { "gml_id": "layer_financial_pt.221897", "Name": "交通银行ATM", "pyname": "jtyha", "kind": "A199", "zipcode": null, "telephone": null, "display_x": "112.93549", "display_y": "28.15824", "side": "R", "address": null }, "geometry": { "type": "Point", "coordinates": [ 112.93005672, 28.16175582 ] } },
{ "type": "Feature", "properties": { "gml_id": "layer_financial_pt.222082", "Name": "中国建设银行ATM", "pyname": "zgjsyha", "kind": "A199", "zipcode": null, "telephone": null, "display_x": "112.95445", "display_y": "28.20032", "side": "L", "address": "白沙液街" }, "geometry": { "type": "Point", "coordinates": [ 112.94897238, 28.20380598 ] } },
{ "type": "Feature", "properties": { "gml_id": "layer_financial_pt.222193", "Name": "中国工商银行长沙市金鹏支行桐梓坡储蓄所", "pyname": "zggsyhcssjpzhtzpcxs", "kind": "A181", "zipcode": null, "telephone": null, "display_x": "112.95094", "display_y": "28.21802", "side": "R", "address": "桐兴巷40" }, "geometry": { "type": "Point", "coordinates": [ 112.94547174, 28.22151438 ] } },
{ "type": "Feature", "properties": { "gml_id": "layer_financial_pt.222282", "Name": "中国工商银行ATM", "pyname": "zggsyha", "kind": "A199", "zipcode": null, "telephone": null, "display_x": "112.94043", "display_y": "28.16353", "side": "L", "address": "师南路" }, "geometry": { "type": "Point", "coordinates": [ 112.93498584, 28.1670381 ] } },
{ "type": "Feature", "properties": { "gml_id": "layer_financial_pt.222355", "Name": "中国邮政储蓄银行ATM", "pyname": "zgyzcxyha", "kind": "A199", "zipcode": null, "telephone": null, "display_x": "112.93282", "display_y": "28.16228", "side": "R", "address": "清水路59号" }, "geometry": { "type": "Point", "coordinates": [ 112.92739254, 28.16580074 ] } },
{ "type": "Feature", "properties": { "gml_id": "layer_financial_pt.222365", "Name": "中国邮政储蓄银行ATM", "pyname": "zgyzcxyha", "kind": "A199", "zipcode": null, "telephone": null, "display_x": "112.9205", "display_y": "28.21007", "side": "L", "address": "枫林二路366" }, "geometry": { "type": "Point", "coordinates": [ 112.9150863, 28.21360491 ] } },
{ "type": "Feature", "properties": { "gml_id": "layer_financial_pt.222413", "Name": "长沙银行麓山支行", "pyname": "csyhlszh", "kind": "A180", "zipcode": null, "telephone": "0731-88616221", "display_x": "112.95118", "display_y": "28.19376", "side": "R", "address": "麓山路45号" }, "geometry": { "type": "Point", "coordinates": [ 112.94571042, 28.19725169 ] } },
{ "type": "Feature", "properties": { "gml_id": "layer_financial_pt.222476", "Name": "长沙银行ATM", "pyname": "csyha", "kind": "A199", "zipcode": null, "telephone": null, "display_x": "112.95116", "display_y": "28.19372", "side": "R", "address": "麓山路45号" }, "geometry": { "type": "Point", "coordinates": [ 112.94569044, 28.19721173 ] } },
{ "type": "Feature", "properties": { "gml_id": "layer_financial_pt.222667", "Name": "长沙先导农村商业银行ATM", "pyname": "csxdncsyyha", "kind": "A199", "zipcode": null, "telephone": null, "display_x": "112.92999", "display_y": "28.21746", "side": "L", "address": "桐梓坡路485" }, "geometry": { "type": "Point", "coordinates": [ 112.9245615, 28.22098451 ] } },
{ "type": "Feature", "properties": { "gml_id": "layer_financial_pt.222668", "Name": "长沙先导农村商业银行沁园支行", "pyname": "csxdncsyyhqyzh", "kind": "A180", "zipcode": "410205", "telephone": "0731-82293279", "display_x": "112.92985", "display_y": "28.21748", "side": "L", "address": "桐梓坡路485" }, "geometry": { "type": "Point", "coordinates": [ 112.92442164, 28.22100462 ] } },
{ "type": "Feature", "properties": { "gml_id": "layer_financial_pt.222830", "Name": "中国银行湖南大学支行", "pyname": "zgyhhndxzh", "kind": "A184", "zipcode": null, "telephone": null, "display_x": "112.94263", "display_y": "28.17879", "side": "R", "address": "登高路18" }, "geometry": { "type": "Point", "coordinates": [ 112.93718094, 28.18229603 ] } },
{ "type": "Feature", "properties": { "gml_id": "layer_financial_pt.222843", "Name": "交通银行ATM", "pyname": "jtyha", "kind": "A199", "zipcode": null, "telephone": null, "display_x": "112.91758", "display_y": "28.22177", "side": "L", "address": null }, "geometry": { "type": "Point", "coordinates": [ 112.91216742, 28.22530523 ] } },
{ "type": "Feature", "properties": { "gml_id": "layer_financial_pt.222864", "Name": "华夏银行ATM", "pyname": "hxyha", "kind": "A199", "zipcode": null, "telephone": "0731-88909725|13687322993", "display_x": "112.92715", "display_y": "28.16007", "side": "R", "address": "左家垅洋海塘南栋168号" }, "geometry": { "type": "Point", "coordinates": [ 112.9217319, 28.16359727 ] } },
{ "type": "Feature", "properties": { "gml_id": "layer_financial_pt.222888", "Name": "渤海银行ATM", "pyname": "bhyha", "kind": "A199", "zipcode": null, "telephone": null, "display_x": "112.93601", "display_y": "28.2251", "side": "L", "address": null }, "geometry": { "type": "Point", "coordinates": [ 112.9305708, 28.22861687 ] } },
{ "type": "Feature", "properties": { "gml_id": "layer_financial_pt.222968", "Name": "中国建设银行长沙溁湾支行", "pyname": "zgjsyhcsywzh", "kind": "A182", "zipcode": null, "telephone": null, "display_x": "112.9545", "display_y": "28.20029", "side": "L", "address": "白沙液街" }, "geometry": { "type": "Point", "coordinates": [ 112.94902224, 28.20377588 ] } },
{ "type": "Feature", "properties": { "gml_id": "layer_financial_pt.223007", "Name": "中国民生银行ATM", "pyname": "zgmsyha", "kind": "A199", "zipcode": null, "telephone": null, "display_x": "112.9351", "display_y": "28.21993", "side": "L", "address": "湘腾城市广场1－110" }, "geometry": { "type": "Point", "coordinates": [ 112.92966324, 28.22344853 ] } },
{ "type": "Feature", "properties": { "gml_id": "layer_financial_pt.223037", "Name": "中国农业银行ATM", "pyname": "zgnyyha", "kind": "A199", "zipcode": null, "telephone": null, "display_x": "112.94031", "display_y": "28.16346", "side": "L", "address": "师南路" }, "geometry": { "type": "Point", "coordinates": [ 112.93486614, 28.16696831 ] } },
{ "type": "Feature", "properties": { "gml_id": "layer_financial_pt.223063", "Name": "广发银行河西支行", "pyname": "gfyhhxzh", "kind": "A18D", "zipcode": null, "telephone": "0731-88338433", "display_x": "112.93352", "display_y": "28.2156", "side": "L", "address": "金星中路319号" }, "geometry": { "type": "Point", "coordinates": [ 112.92808662, 28.21912092 ] } },
{ "type": "Feature", "properties": { "gml_id": "layer_financial_pt.223064", "Name": "广发银行ATM", "pyname": "gfyha", "kind": "A199", "zipcode": null, "telephone": null, "display_x": "112.93351", "display_y": "28.21554", "side": "L", "address": "金星中路319号" }, "geometry": { "type": "Point", "coordinates": [ 112.92807672, 28.21906094 ] } },
{ "type": "Feature", "properties": { "gml_id": "layer_financial_pt.223147", "Name": "上海浦东发展银行ATM", "pyname": "shpdfzyha", "kind": "A199", "zipcode": null, "telephone": null, "display_x": "112.95513", "display_y": "28.19993", "side": "L", "address": "银盆南路189" }, "geometry": { "type": "Point", "coordinates": [ 112.9496508, 28.20341471 ] } },
{ "type": "Feature", "properties": { "gml_id": "layer_financial_pt.223148", "Name": "招商银行长沙溁湾镇ATM", "pyname": "zsyhcsywza", "kind": "A199", "zipcode": null, "telephone": "0731-82681239", "display_x": "112.95522", "display_y": "28.2", "side": "R", "address": "银盆南路193" }, "geometry": { "type": "Point", "coordinates": [ 112.94974062, 28.20348459 ] } },
{ "type": "Feature", "properties": { "gml_id": "layer_financial_pt.223158", "Name": "兴业银行河西支行", "pyname": "xyyhhxzh", "kind": "A18F", "zipcode": null, "telephone": "0731-85329202", "display_x": "112.9352", "display_y": "28.22054", "side": "L", "address": "金星中路468－6" }, "geometry": { "type": "Point", "coordinates": [ 112.92976296, 28.22405832 ] } },
{ "type": "Feature", "properties": { "gml_id": "layer_financial_pt.223487", "Name": "中国邮政储蓄银行ATM", "pyname": "zgyzcxyha", "kind": "A199", "zipcode": null, "telephone": null, "display_x": "112.92328", "display_y": "28.21576", "side": "L", "address": "润泽园A－2号附近" }, "geometry": { "type": "Point", "coordinates": [ 112.91786244, 28.21929242 ] } },
{ "type": "Feature", "properties": { "gml_id": "layer_financial_pt.223490", "Name": "中国邮政储蓄银行ATM", "pyname": "zgyzcxyha", "kind": "A199", "zipcode": null, "telephone": null, "display_x": "112.95288", "display_y": "28.22313", "side": "L", "address": "银双路28－2" }, "geometry": { "type": "Point", "coordinates": [ 112.94740638, 28.2266204 ] } },
{ "type": "Feature", "properties": { "gml_id": "layer_financial_pt.223550", "Name": "中华联合财产保险岳麓区支公司", "pyname": "zhlhccbxylqzgs", "kind": "AA80", "zipcode": null, "telephone": null, "display_x": "112.95416", "display_y": "28.19565", "side": "L", "address": "枫林一路19号通程麓山大酒店6楼" }, "geometry": { "type": "Point", "coordinates": [ 112.94868348, 28.19913642 ] } },
{ "type": "Feature", "properties": { "gml_id": "layer_financial_pt.223823", "Name": "中国光大银行共和世家社区支行", "pyname": "zggdyhghsjsqzh", "kind": "A189", "zipcode": null, "telephone": null, "display_x": "112.93113", "display_y": "28.20075", "side": "L", "address": "石佳冲路92" }, "geometry": { "type": "Point", "coordinates": [ 112.92570378, 28.20427574 ] } },
{ "type": "Feature", "properties": { "gml_id": "layer_financial_pt.223856", "Name": "中国邮政储蓄银行长沙市望岳营业所", "pyname": "zgyzcxyhcsswyyys", "kind": "A18B", "zipcode": null, "telephone": "0731-88133991", "display_x": "112.92043", "display_y": "28.21008", "side": "L", "address": "枫林路望城坡裕园大厦0栋105／106号" }, "geometry": { "type": "Point", "coordinates": [ 112.91501646, 28.21361495 ] } },
{ "type": "Feature", "properties": { "gml_id": "layer_financial_pt.223911", "Name": "中国邮政储蓄银行ATM", "pyname": "zgyzcxyha", "kind": "A199", "zipcode": null, "telephone": null, "display_x": "112.92359", "display_y": "28.16238", "side": "L", "address": null }, "geometry": { "type": "Point", "coordinates": [ 112.9181751, 28.16590937 ] } },
{ "type": "Feature", "properties": { "gml_id": "layer_financial_pt.224027", "Name": "中国光大银行ATM", "pyname": "zggdyha", "kind": "A199", "zipcode": null, "telephone": null, "display_x": "112.95515", "display_y": "28.21312", "side": "R", "address": "铜盆湖路1－6" }, "geometry": { "type": "Point", "coordinates": [ 112.94967168, 28.21660623 ] } },
{ "type": "Feature", "properties": { "gml_id": "layer_financial_pt.224214", "Name": "中国农业银行长沙英才园分理处", "pyname": "zgnyyhcsycyflc", "kind": "A183", "zipcode": null, "telephone": null, "display_x": "112.94283", "display_y": "28.2178", "side": "L", "address": "桐梓坡路" }, "geometry": { "type": "Point", "coordinates": [ 112.93738056, 28.22130887 ] } },
{ "type": "Feature", "properties": { "gml_id": "layer_financial_pt.224231", "Name": "长沙银行大学城支行", "pyname": "csyhdxczh", "kind": "A180", "zipcode": null, "telephone": null, "display_x": "112.9403", "display_y": "28.16656", "side": "L", "address": "麓山南路586" }, "geometry": { "type": "Point", "coordinates": [ 112.93485624, 28.17006867 ] } },
{ "type": "Feature", "properties": { "gml_id": "layer_financial_pt.224331", "Name": "交通银行ATM", "pyname": "jtyha", "kind": "A199", "zipcode": null, "telephone": null, "display_x": "112.93572", "display_y": "28.21866", "side": "R", "address": "金星中路428" }, "geometry": { "type": "Point", "coordinates": [ 112.93028262, 28.22217804 ] } },
{ "type": "Feature", "properties": { "gml_id": "layer_financial_pt.224335", "Name": "中国邮政储蓄银行长沙市咸嘉新村支行", "pyname": "zgyzcxyhcssxjxczh", "kind": "A18B", "zipcode": "410205", "telephone": "0731-88681969", "display_x": "112.92792", "display_y": "28.21969", "side": "R", "address": "谷丰路20" }, "geometry": { "type": "Point", "coordinates": [ 112.92249456, 28.22321678 ] } },
{ "type": "Feature", "properties": { "gml_id": "layer_financial_pt.224490", "Name": "长沙先导农村商业银行西湖支行", "pyname": "csxdncsyyhxhzh", "kind": "A180", "zipcode": "410205", "telephone": "0731-89785198", "display_x": "112.93176", "display_y": "28.20953", "side": "R", "address": "咸嘉湖路537" }, "geometry": { "type": "Point", "coordinates": [ 112.92633072, 28.21305375 ] } },
{ "type": "Feature", "properties": { "gml_id": "layer_financial_pt.224491", "Name": "长沙先导农村商业银行ATM", "pyname": "csxdncsyyha", "kind": "A199", "zipcode": "410006", "telephone": null, "display_x": "112.93174", "display_y": "28.20966", "side": "R", "address": "咸嘉湖路537" }, "geometry": { "type": "Point", "coordinates": [ 112.92631074, 28.21318376 ] } },
{ "type": "Feature", "properties": { "gml_id": "layer_financial_pt.224509", "Name": "交通银行ATM", "pyname": "jtyha", "kind": "A199", "zipcode": null, "telephone": null, "display_x": "112.94605", "display_y": "28.16824", "side": "R", "address": "阜埠河路" }, "geometry": { "type": "Point", "coordinates": [ 112.94059356, 28.17173921 ] } },
{ "type": "Feature", "properties": { "gml_id": "layer_financial_pt.224511", "Name": "华安保险", "pyname": "habx", "kind": "AA80", "zipcode": null, "telephone": null, "display_x": "112.93063", "display_y": "28.21036", "side": "L", "address": "咸嘉湖路822" }, "geometry": { "type": "Point", "coordinates": [ 112.9252023, 28.21388486 ] } },
{ "type": "Feature", "properties": { "gml_id": "layer_financial_pt.224512", "Name": "中国工商银行溁湾镇支行", "pyname": "zggsyhywzzh", "kind": "A181", "zipcode": null, "telephone": null, "display_x": "112.95558", "display_y": "28.19841", "side": "R", "address": "溁湾路26" }, "geometry": { "type": "Point", "coordinates": [ 112.9500999, 28.20189389 ] } },
{ "type": "Feature", "properties": { "gml_id": "layer_financial_pt.224570", "Name": "中国农业银行望城坡支行", "pyname": "zgnyyhwcpzh", "kind": "A183", "zipcode": "410205", "telephone": null, "display_x": "112.91716", "display_y": "28.21073", "side": "R", "address": "枫林二路500" }, "geometry": { "type": "Point", "coordinates": [ 112.91174892, 28.21426641 ] } },
{ "type": "Feature", "properties": { "gml_id": "layer_financial_pt.224571", "Name": "中国邮政储蓄银行ATM", "pyname": "zgyzcxyha", "kind": "A199", "zipcode": null, "telephone": null, "display_x": "112.9368", "display_y": "28.16759", "side": "L", "address": null }, "geometry": { "type": "Point", "coordinates": [ 112.9313637, 28.17110462 ] } },
{ "type": "Feature", "properties": { "gml_id": "layer_financial_pt.224645", "Name": "渤海银行长沙河西支行", "pyname": "bhyhcshxzh", "kind": "A180", "zipcode": null, "telephone": "0731-88731111", "display_x": "112.93593", "display_y": "28.2251", "side": "L", "address": "岳麓大道311号金麓商务广场5栋101／110号" }, "geometry": { "type": "Point", "coordinates": [ 112.93049106, 28.22861696 ] } },
{ "type": "Feature", "properties": { "gml_id": "layer_financial_pt.224764", "Name": "中国民生银行长沙桐梓坡路ATM", "pyname": "zgmsyhcstzpla", "kind": "A199", "zipcode": null, "telephone": null, "display_x": "112.9335", "display_y": "28.21746", "side": "L", "address": "桐梓坡路1－105" }, "geometry": { "type": "Point", "coordinates": [ 112.92806628, 28.22098064 ] } },
{ "type": "Feature", "properties": { "gml_id": "layer_financial_pt.224851", "Name": "交通银行ATM", "pyname": "jtyha", "kind": "A199", "zipcode": "410013", "telephone": null, "display_x": "112.92618", "display_y": "28.21856", "side": "L", "address": "桐梓坡路1－101" }, "geometry": { "type": "Point", "coordinates": [ 112.92075756, 28.22208894 ] } },
{ "type": "Feature", "properties": { "gml_id": "layer_financial_pt.224997", "Name": "中国民生银行ATM", "pyname": "zgmsyha", "kind": "A199", "zipcode": null, "telephone": null, "display_x": "112.93047", "display_y": "28.22388", "side": "L", "address": "嘉园路" }, "geometry": { "type": "Point", "coordinates": [ 112.92504048, 28.22740385 ] } },
{ "type": "Feature", "properties": { "gml_id": "layer_financial_pt.225062", "Name": "上海浦东发展银行河西支行", "pyname": "shpdfzyhhxzh", "kind": "A190", "zipcode": null, "telephone": "0731-82278566", "display_x": "112.93011", "display_y": "28.21745", "side": "L", "address": "桐梓坡路485号沁园春·御苑1号楼1－2层" }, "geometry": { "type": "Point", "coordinates": [ 112.92468138, 28.22097438 ] } },
{ "type": "Feature", "properties": { "gml_id": "layer_financial_pt.225314", "Name": "交通银行ATM", "pyname": "jtyha", "kind": "A199", "zipcode": null, "telephone": null, "display_x": "112.94476", "display_y": "28.16877", "side": "L", "address": "阜埠河路295号附近" }, "geometry": { "type": "Point", "coordinates": [ 112.93930638, 28.17227142 ] } },
{ "type": "Feature", "properties": { "gml_id": "layer_financial_pt.225417", "Name": "中国太平洋财产保险岳麓支公司", "pyname": "zgtpyccbxylzgs", "kind": "AA83", "zipcode": null, "telephone": null, "display_x": "112.95644", "display_y": "28.215", "side": "L", "address": "银盆南路317－2" }, "geometry": { "type": "Point", "coordinates": [ 112.95095814, 28.2184835 ] } },
{ "type": "Feature", "properties": { "gml_id": "layer_financial_pt.225573", "Name": "中国银行ATM", "pyname": "zgyha", "kind": "A199", "zipcode": null, "telephone": null, "display_x": "112.93256", "display_y": "28.16778", "side": "R", "address": "麓山南路中南大学" }, "geometry": { "type": "Point", "coordinates": [ 112.92713298, 28.17130176 ] } },
{ "type": "Feature", "properties": { "gml_id": "layer_financial_pt.225580", "Name": "北京银行ATM", "pyname": "bjyha", "kind": "A199", "zipcode": null, "telephone": null, "display_x": "112.93107", "display_y": "28.20071", "side": "L", "address": "石佳冲路96" }, "geometry": { "type": "Point", "coordinates": [ 112.92564402, 28.20423582 ] } }
]
}
