{
"type": "FeatureCollection",
"name": "GovernmentAgency",
"crs": { "type": "name", "properties": { "name": "urn:ogc:def:crs:OGC:1.3:CRS84" } },
"features": [
{ "type": "Feature", "properties": { "gml_id": "layer_government_pt.249137", "Name": "长沙市望城坡街道办", "pyname": "csswcpjdb", "kind": "7080", "zipcode": "410205", "telephone": "0731-88810969", "display_x": "112.91702", "display_y": "28.20468", "side": "R", "address": "西二环线一段1568" }, "geometry": { "type": "Point", "coordinates": [ 112.91160924, 28.20821598 ] } },
{ "type": "Feature", "properties": { "gml_id": "layer_government_pt.249497", "Name": "长沙市质监局", "pyname": "csszjj", "kind": "7086", "zipcode": null, "telephone": "0731-88635300", "display_x": "112.9374", "display_y": "28.22235", "side": "R", "address": "银双路318号" }, "geometry": { "type": "Point", "coordinates": [ 112.93195932, 28.22586566 ] } },
{ "type": "Feature", "properties": { "gml_id": "layer_government_pt.249661", "Name": "长沙市车辆购置税征收管理分局", "pyname": "cssclgzszsglfj", "kind": "7080", "zipcode": null, "telephone": null, "display_x": "112.95441", "display_y": "28.18941", "side": "L", "address": "爱民路99" }, "geometry": { "type": "Point", "coordinates": [ 112.94893368, 28.192896 ] } },
{ "type": "Feature", "properties": { "gml_id": "layer_government_pt.250330", "Name": "长沙市岳麓山派出所", "pyname": "cssylspcs", "kind": "7102", "zipcode": null, "telephone": "0731-88824012", "display_x": "112.9376", "display_y": "28.17902", "side": "L", "address": null }, "geometry": { "type": "Point", "coordinates": [ 112.93216182, 28.18253448 ] } },
{ "type": "Feature", "properties": { "gml_id": "layer_government_pt.250654", "Name": "长沙市公安局岳麓分局望城坡派出所", "pyname": "cssgajylfjwcppcs", "kind": "7102", "zipcode": "410205", "telephone": "0731-88819510", "display_x": "112.91624", "display_y": "28.20472", "side": "R", "address": "西二环线一段1570" }, "geometry": { "type": "Point", "coordinates": [ 112.91083002, 28.20825644 ] } },
{ "type": "Feature", "properties": { "gml_id": "layer_government_pt.250704", "Name": "长沙市岳麓区国税局望月湖税务分局", "pyname": "cssylqgsjwyhswfj", "kind": "7080", "zipcode": null, "telephone": null, "display_x": "112.93324", "display_y": "28.20227", "side": "R", "address": "石佳冲路8" }, "geometry": { "type": "Point", "coordinates": [ 112.92781032, 28.20579323 ] } },
{ "type": "Feature", "properties": { "gml_id": "layer_government_pt.250916", "Name": "湖南省科技厅", "pyname": "hnskjt", "kind": "7086", "zipcode": "410013", "telephone": "0731-88988666", "display_x": "112.94243", "display_y": "28.22487", "side": "R", "address": "岳麓大道233" }, "geometry": { "type": "Point", "coordinates": [ 112.93698114, 28.22837976 ] } },
{ "type": "Feature", "properties": { "gml_id": "layer_government_pt.251125", "Name": "望城县烟草专卖局", "pyname": "wcxyczmj", "kind": "7086", "zipcode": "410205", "telephone": "0731-88166172", "display_x": "112.91516", "display_y": "28.21211", "side": "L", "address": "岳麓大道771" }, "geometry": { "type": "Point", "coordinates": [ 112.90975038, 28.21564719 ] } },
{ "type": "Feature", "properties": { "gml_id": "layer_government_pt.251315", "Name": "长沙市望月湖街道办", "pyname": "csswyhjdb", "kind": "7080", "zipcode": null, "telephone": "0731-88866836", "display_x": "112.95239", "display_y": "28.20151", "side": "L", "address": "白沙液街110号" }, "geometry": { "type": "Point", "coordinates": [ 112.94691714, 28.20499983 ] } },
{ "type": "Feature", "properties": { "gml_id": "layer_government_pt.251459", "Name": "长沙市岳麓区住房保障局", "pyname": "cssylqzfbzj", "kind": "7080", "zipcode": "410006", "telephone": "0731-88859560", "display_x": "112.95058", "display_y": "28.19246", "side": "R", "address": "麓山路69" }, "geometry": { "type": "Point", "coordinates": [ 112.94511192, 28.19595276 ] } },
{ "type": "Feature", "properties": { "gml_id": "layer_government_pt.251575", "Name": "长沙市岳麓区人民法院", "pyname": "cssylqrmfy", "kind": "7086", "zipcode": null, "telephone": "0731-88926128", "display_x": "112.95198", "display_y": "28.2254", "side": "R", "address": "岳麓大道69" }, "geometry": { "type": "Point", "coordinates": [ 112.94650836, 28.22889209 ] } },
{ "type": "Feature", "properties": { "gml_id": "layer_government_pt.251945", "Name": "长沙市岳麓区规划局", "pyname": "cssylqghj", "kind": "7086", "zipcode": null, "telephone": "0731-82285356", "display_x": "112.92996", "display_y": "28.22477", "side": "L", "address": "岳麓大道369－2号岳麓1号" }, "geometry": { "type": "Point", "coordinates": [ 112.92453144, 28.22829453 ] } },
{ "type": "Feature", "properties": { "gml_id": "layer_government_pt.252164", "Name": "长沙市气象局", "pyname": "cssqxj", "kind": "7086", "zipcode": null, "telephone": "0731-88815733", "display_x": "112.91791", "display_y": "28.20966", "side": "R", "address": "望新路287号" }, "geometry": { "type": "Point", "coordinates": [ 112.91249844, 28.21319604 ] } },
{ "type": "Feature", "properties": { "gml_id": "layer_government_pt.252778", "Name": "长沙市岳麓区公证处", "pyname": "cssylqgzc", "kind": "7080", "zipcode": null, "telephone": "0731-88925757", "display_x": "112.95419", "display_y": "28.22035", "side": "R", "address": "银盆南路357－3号威胜大厦B座5层518" }, "geometry": { "type": "Point", "coordinates": [ 112.94871318, 28.22383778 ] } },
{ "type": "Feature", "properties": { "gml_id": "layer_government_pt.253246", "Name": "长沙市岳麓区咸嘉湖街道政务中心", "pyname": "cssylqxjhjdzwzx", "kind": "7080", "zipcode": null, "telephone": "0731-88635123", "display_x": "112.92208", "display_y": "28.22271", "side": "L", "address": "望岳路32" }, "geometry": { "type": "Point", "coordinates": [ 112.91666382, 28.22624348 ] } },
{ "type": "Feature", "properties": { "gml_id": "layer_government_pt.253863", "Name": "荷叶塘社区公共服务中心", "pyname": "hytsqggfwzx", "kind": "7080", "zipcode": null, "telephone": null, "display_x": "112.92784", "display_y": "28.22356", "side": "R", "address": "谷丰南路" }, "geometry": { "type": "Point", "coordinates": [ 112.922415, 28.22708718 ] } },
{ "type": "Feature", "properties": { "gml_id": "layer_government_pt.254101", "Name": "长沙市岳麓区环卫局", "pyname": "cssylqhwj", "kind": "7080", "zipcode": null, "telephone": "0731-88852697", "display_x": "112.91658", "display_y": "28.22322", "side": "L", "address": "岳麓大道" }, "geometry": { "type": "Point", "coordinates": [ 112.91116788, 28.22675549 ] } },
{ "type": "Feature", "properties": { "gml_id": "layer_government_pt.254316", "Name": "岳麓区计划生育服务站", "pyname": "ylqjhsyfwz", "kind": "7080", "zipcode": null, "telephone": null, "display_x": "112.95523", "display_y": "28.20477", "side": "R", "address": "月宫街99" }, "geometry": { "type": "Point", "coordinates": [ 112.94975088, 28.20825513 ] } },
{ "type": "Feature", "properties": { "gml_id": "layer_government_pt.254444", "Name": "湖南省质监稽查总队四支队", "pyname": "hnszjjczdszd", "kind": "7080", "zipcode": "410006", "telephone": null, "display_x": "112.95499", "display_y": "28.19215", "side": "L", "address": "爱民路67" }, "geometry": { "type": "Point", "coordinates": [ 112.94951202, 28.19563493 ] } },
{ "type": "Feature", "properties": { "gml_id": "layer_government_pt.254698", "Name": "长沙市咸嘉湖司法所", "pyname": "cssxjhsfs", "kind": "7080", "zipcode": null, "telephone": null, "display_x": "112.92376", "display_y": "28.22112", "side": "R", "address": "晨风路91" }, "geometry": { "type": "Point", "coordinates": [ 112.91834196, 28.22465219 ] } },
{ "type": "Feature", "properties": { "gml_id": "layer_government_pt.254827", "Name": "长沙市咸嘉湖派出所", "pyname": "cssxjhpcs", "kind": "7102", "zipcode": null, "telephone": "0731-82351110", "display_x": "112.9226", "display_y": "28.22147", "side": "R", "address": null }, "geometry": { "type": "Point", "coordinates": [ 112.91718366, 28.22500341 ] } },
{ "type": "Feature", "properties": { "gml_id": "layer_government_pt.254883", "Name": "湖南省知识产权局", "pyname": "hnszscqj", "kind": "7086", "zipcode": "410006", "telephone": "0731-88860919", "display_x": "112.95536", "display_y": "28.1894", "side": "R", "address": "潇湘中路113" }, "geometry": { "type": "Point", "coordinates": [ 112.94988138, 28.1928843 ] } },
{ "type": "Feature", "properties": { "gml_id": "layer_government_pt.254884", "Name": "湖南省畜牧水产局", "pyname": "hnsxmscj", "kind": "7080", "zipcode": "410006", "telephone": "0731-88851935", "display_x": "112.95623", "display_y": "28.19512", "side": "L", "address": "潇湘中路61" }, "geometry": { "type": "Point", "coordinates": [ 112.9507488, 28.19860272 ] } },
{ "type": "Feature", "properties": { "gml_id": "layer_government_pt.255345", "Name": "长沙市公安局岳麓分局", "pyname": "cssgajylfj", "kind": "7101", "zipcode": null, "telephone": "0731-88861900", "display_x": "112.95433", "display_y": "28.19046", "side": "R", "address": "爱民路180" }, "geometry": { "type": "Point", "coordinates": [ 112.94885358, 28.19394612 ] } },
{ "type": "Feature", "properties": { "gml_id": "layer_government_pt.255346", "Name": "长沙市岳麓区岳麓街道办事处", "pyname": "cssylqyljdbsc", "kind": "7080", "zipcode": "410012", "telephone": "0731-88884786", "display_x": "112.92953", "display_y": "28.1601", "side": "L", "address": "麓山南路999" }, "geometry": { "type": "Point", "coordinates": [ 112.92410952, 28.16362589 ] } },
{ "type": "Feature", "properties": { "gml_id": "layer_government_pt.257237", "Name": "长沙市地震局", "pyname": "cssdzj", "kind": "7086", "zipcode": "410012", "telephone": "0731-88827796", "display_x": "112.94115", "display_y": "28.17744", "side": "L", "address": "岳麓山登高路" }, "geometry": { "type": "Point", "coordinates": [ 112.93570422, 28.18094837 ] } },
{ "type": "Feature", "properties": { "gml_id": "layer_government_pt.257244", "Name": "长沙市交警支队", "pyname": "cssjjzd", "kind": "7103", "zipcode": "410006", "telephone": "0731-88882688", "display_x": "112.95606", "display_y": "28.19657", "side": "L", "address": "枫林一路2" }, "geometry": { "type": "Point", "coordinates": [ 112.95057906, 28.20005303 ] } },
{ "type": "Feature", "properties": { "gml_id": "layer_government_pt.258762", "Name": "长沙市岳麓派出所", "pyname": "cssylpcs", "kind": "7102", "zipcode": "410012", "telephone": "0731-88863043", "display_x": "112.93647", "display_y": "28.16539", "side": "L", "address": "麓山南路736" }, "geometry": { "type": "Point", "coordinates": [ 112.93103448, 28.16890493 ] } },
{ "type": "Feature", "properties": { "gml_id": "layer_government_pt.259292", "Name": "长沙市梅溪湖街道办", "pyname": "cssmxhjdb", "kind": "7080", "zipcode": null, "telephone": "0731-88762316", "display_x": "112.91698", "display_y": "28.19268", "side": "L", "address": "二环线1段1289" }, "geometry": { "type": "Point", "coordinates": [ 112.9115682, 28.19621381 ] } },
{ "type": "Feature", "properties": { "gml_id": "layer_government_pt.259429", "Name": "长沙市岳麓区卫生监督所", "pyname": "cssylqwsjds", "kind": "7080", "zipcode": "410013", "telephone": "0731-88941456", "display_x": "112.92351", "display_y": "28.21055", "side": "L", "address": "咸嘉湖路1076" }, "geometry": { "type": "Point", "coordinates": [ 112.91809284, 28.21408263 ] } },
{ "type": "Feature", "properties": { "gml_id": "layer_government_pt.259454", "Name": "长沙市西湖派出所", "pyname": "cssxhpcs", "kind": "7102", "zipcode": "410013", "telephone": "0731-88808826", "display_x": "112.94364", "display_y": "28.21267", "side": "R", "address": "咸嘉湖路" }, "geometry": { "type": "Point", "coordinates": [ 112.93818822, 28.21617684 ] } },
{ "type": "Feature", "properties": { "gml_id": "layer_government_pt.259721", "Name": "长沙市岳麓区交通运输局", "pyname": "cssylqjtysj", "kind": "7086", "zipcode": null, "telephone": null, "display_x": "112.91641", "display_y": "28.21553", "side": "L", "address": null }, "geometry": { "type": "Point", "coordinates": [ 112.91099904, 28.21906638 ] } },
{ "type": "Feature", "properties": { "gml_id": "layer_government_pt.260467", "Name": "长沙市岳麓区城管执法大队咸嘉湖中", "pyname": "cssylqcgzfddxjhzd", "kind": "7080", "zipcode": null, "telephone": "0731-82358010", "display_x": "112.92342", "display_y": "28.22133", "side": "R", "address": "晨风路109" }, "geometry": { "type": "Point", "coordinates": [ 112.91800248, 28.22486265 ] } },
{ "type": "Feature", "properties": { "gml_id": "layer_government_pt.260537", "Name": "长沙市望月湖派出所", "pyname": "csswyhpcs", "kind": "7102", "zipcode": "410006", "telephone": "0731-88862464", "display_x": "112.95228", "display_y": "28.20157", "side": "L", "address": "白沙液街112号" }, "geometry": { "type": "Point", "coordinates": [ 112.94680752, 28.20506004 ] } },
{ "type": "Feature", "properties": { "gml_id": "layer_government_pt.260854", "Name": "长沙市城市管理和行政执法局岳麓区", "pyname": "csscsglhxzzfjylqzfdd", "kind": "7080", "zipcode": null, "telephone": null, "display_x": "112.94678", "display_y": "28.21427", "side": "R", "address": "英才园路6" }, "geometry": { "type": "Point", "coordinates": [ 112.94132112, 28.21777137 ] } },
{ "type": "Feature", "properties": { "gml_id": "layer_government_pt.261009", "Name": "长沙市公安局岳麓分局人口与出入境", "pyname": "cssgajylfjrkycrjjddt", "kind": "7080", "zipcode": null, "telephone": null, "display_x": "112.9542", "display_y": "28.19012", "side": "R", "address": "爱民路180号附近" }, "geometry": { "type": "Point", "coordinates": [ 112.94872398, 28.19360637 ] } },
{ "type": "Feature", "properties": { "gml_id": "layer_government_pt.261819", "Name": "长沙市银盆岭街道办", "pyname": "cssypljdb", "kind": "7080", "zipcode": null, "telephone": "0731-88801494", "display_x": "112.95439", "display_y": "28.22157", "side": "L", "address": "银盆南路292" }, "geometry": { "type": "Point", "coordinates": [ 112.94891208, 28.22505687 ] } },
{ "type": "Feature", "properties": { "gml_id": "layer_government_pt.262147", "Name": "国家建筑城建机械质量监督检验中心", "pyname": "gjjzcjjxzljdjyzx", "kind": "7080", "zipcode": "410013", "telephone": null, "display_x": "112.9536", "display_y": "28.22113", "side": "N", "address": "银盆南路361" }, "geometry": { "type": "Point", "coordinates": [ 112.94812494, 28.22461911 ] } },
{ "type": "Feature", "properties": { "gml_id": "layer_government_pt.262490", "Name": "湖南省电力公司城西供电局", "pyname": "hnsdlgscxgdj", "kind": "7080", "zipcode": "410013", "telephone": "0731-88862582", "display_x": "112.94535", "display_y": "28.21804", "side": "L", "address": "桐梓坡路65" }, "geometry": { "type": "Point", "coordinates": [ 112.93989462, 28.2215444 ] } },
{ "type": "Feature", "properties": { "gml_id": "layer_government_pt.262843", "Name": "长沙市咸嘉湖街道办", "pyname": "cssxjhjdb", "kind": "7080", "zipcode": null, "telephone": "0731-88635123", "display_x": "112.92208", "display_y": "28.22271", "side": "L", "address": "望岳路32" }, "geometry": { "type": "Point", "coordinates": [ 112.91666382, 28.22624348 ] } },
{ "type": "Feature", "properties": { "gml_id": "layer_government_pt.263203", "Name": "湖南省食品药品监督管理局", "pyname": "hnsspypjdglj", "kind": "7086", "zipcode": "410013", "telephone": "0731-82228340", "display_x": "112.93392", "display_y": "28.22164", "side": "R", "address": "金星中路469" }, "geometry": { "type": "Point", "coordinates": [ 112.9284846, 28.22515956 ] } },
{ "type": "Feature", "properties": { "gml_id": "layer_government_pt.264286", "Name": "长沙橘子洲风景区管理处", "pyname": "csjzzfjqglc", "kind": "7080", "zipcode": null, "telephone": null, "display_x": "112.962", "display_y": "28.19376", "side": "R", "address": "橘子洲头2" }, "geometry": { "type": "Point", "coordinates": [ 112.95650574, 28.19723252 ] } },
{ "type": "Feature", "properties": { "gml_id": "layer_government_pt.264751", "Name": "长沙市望月工商所", "pyname": "csswygss", "kind": "7080", "zipcode": null, "telephone": "0731-88615740", "display_x": "112.93356", "display_y": "28.21605", "side": "R", "address": "白鹤咀街002" }, "geometry": { "type": "Point", "coordinates": [ 112.92812658, 28.21957079 ] } },
{ "type": "Feature", "properties": { "gml_id": "layer_government_pt.265235", "Name": "长沙市岳麓区咸嘉湖街道劳动监察中", "pyname": "cssylqxjhjdldjczd", "kind": "7080", "zipcode": null, "telephone": null, "display_x": "112.92332", "display_y": "28.22139", "side": "R", "address": "晨风路115" }, "geometry": { "type": "Point", "coordinates": [ 112.91790276, 28.22492277 ] } },
{ "type": "Feature", "properties": { "gml_id": "layer_government_pt.265426", "Name": "长沙市道路交通事故快处快赔服务中", "pyname": "cssdljtsgkckpfwzx", "kind": "7080", "zipcode": null, "telephone": null, "display_x": "112.95723", "display_y": "28.21269", "side": "R", "address": null }, "geometry": { "type": "Point", "coordinates": [ 112.95174636, 28.21617212 ] } },
{ "type": "Feature", "properties": { "gml_id": "layer_government_pt.265716", "Name": "长沙市路桥征费维护管理处桥梁养护", "pyname": "csslqzfwhglcqlyhs", "kind": "7080", "zipcode": null, "telephone": null, "display_x": "112.94974", "display_y": "28.16189", "side": "R", "address": null }, "geometry": { "type": "Point", "coordinates": [ 112.944276, 28.16538269 ] } },
{ "type": "Feature", "properties": { "gml_id": "layer_government_pt.266081", "Name": "长沙市岳麓区咸嘉湖街道环卫所", "pyname": "cssylqxjhjdhws", "kind": "7080", "zipcode": null, "telephone": null, "display_x": "112.93085", "display_y": "28.21465", "side": "R", "address": null }, "geometry": { "type": "Point", "coordinates": [ 112.92542082, 28.21817399 ] } },
{ "type": "Feature", "properties": { "gml_id": "layer_government_pt.266212", "Name": "西大门社区公共服务中心", "pyname": "xdmsqggfwzx", "kind": "7080", "zipcode": null, "telephone": null, "display_x": "112.9257", "display_y": "28.21058", "side": "R", "address": null }, "geometry": { "type": "Point", "coordinates": [ 112.92027948, 28.21411022 ] } },
{ "type": "Feature", "properties": { "gml_id": "layer_government_pt.266481", "Name": "长沙市岳麓区地税局第六税务分局", "pyname": "cssylqdsjdlswfj", "kind": "7080", "zipcode": "410006", "telephone": null, "display_x": "112.95168", "display_y": "28.19273", "side": "R", "address": "新民路169" }, "geometry": { "type": "Point", "coordinates": [ 112.94620938, 28.19622083 ] } },
{ "type": "Feature", "properties": { "gml_id": "layer_government_pt.267144", "Name": "银盆岭城管中队", "pyname": "yplcgzd", "kind": "7080", "zipcode": null, "telephone": null, "display_x": "112.9543", "display_y": "28.22197", "side": "L", "address": "银盆南路298号银盆大厦7层" }, "geometry": { "type": "Point", "coordinates": [ 112.94882226, 28.22545701 ] } },
{ "type": "Feature", "properties": { "gml_id": "layer_government_pt.267237", "Name": "长沙市货物运输管理局", "pyname": "csshwysglj", "kind": "7080", "zipcode": null, "telephone": null, "display_x": "112.94679", "display_y": "28.19991", "side": "R", "address": "枫林一路367" }, "geometry": { "type": "Point", "coordinates": [ 112.94133012, 28.20340967 ] } },
{ "type": "Feature", "properties": { "gml_id": "layer_government_pt.268046", "Name": "长沙市政府打假办", "pyname": "csszfdjb", "kind": "7080", "zipcode": null, "telephone": null, "display_x": "112.9374", "display_y": "28.22235", "side": "R", "address": "银双路318号" }, "geometry": { "type": "Point", "coordinates": [ 112.93195932, 28.22586566 ] } },
{ "type": "Feature", "properties": { "gml_id": "layer_government_pt.268552", "Name": "西湖街道二三管区人力资源和社会保", "pyname": "xhjdesgqrlzyhshbzfwzx", "kind": "7080", "zipcode": "410006", "telephone": null, "display_x": "112.94208", "display_y": "28.2017", "side": "R", "address": "枫林一路479" }, "geometry": { "type": "Point", "coordinates": [ 112.93663104, 28.20520832 ] } },
{ "type": "Feature", "properties": { "gml_id": "layer_government_pt.268685", "Name": "长沙市邮政局岳麓区局", "pyname": "cssyzjylqj", "kind": "7086", "zipcode": null, "telephone": "0731-88857945", "display_x": "112.9559", "display_y": "28.19799", "side": "L", "address": "溁湾路27" }, "geometry": { "type": "Point", "coordinates": [ 112.95041922, 28.20147332 ] } },
{ "type": "Feature", "properties": { "gml_id": "layer_government_pt.268975", "Name": "国家冶金工业钎具质量监督检测中心", "pyname": "gjyjgyqjzljdjczx", "kind": "7080", "zipcode": null, "telephone": null, "display_x": "112.93124", "display_y": "28.16345", "side": "N", "address": "麓山南路966" }, "geometry": { "type": "Point", "coordinates": [ 112.92581592, 28.16697348 ] } },
{ "type": "Feature", "properties": { "gml_id": "layer_government_pt.269297", "Name": "湖南省药品审评认证与不良反应监测", "pyname": "hnsypsprzyblfyjczx", "kind": "7080", "zipcode": null, "telephone": null, "display_x": "112.93392", "display_y": "28.22164", "side": "R", "address": "金星中路469" }, "geometry": { "type": "Point", "coordinates": [ 112.9284846, 28.22515956 ] } },
{ "type": "Feature", "properties": { "gml_id": "layer_government_pt.269300", "Name": "湖南省餐饮保健食品化妆品安全监督", "pyname": "hnscybjsphzpaqjds", "kind": "7080", "zipcode": null, "telephone": null, "display_x": "112.93392", "display_y": "28.22164", "side": "R", "address": "金星中路469" }, "geometry": { "type": "Point", "coordinates": [ 112.9284846, 28.22515956 ] } },
{ "type": "Feature", "properties": { "gml_id": "layer_government_pt.269767", "Name": "长沙市岳麓区岳麓街道治安巡防大队", "pyname": "cssylqyljdzaxfddezd", "kind": "7080", "zipcode": null, "telephone": null, "display_x": "112.93782", "display_y": "28.15539", "side": "L", "address": null }, "geometry": { "type": "Point", "coordinates": [ 112.93238196, 28.15890188 ] } },
{ "type": "Feature", "properties": { "gml_id": "layer_government_pt.269837", "Name": "长沙市城市管理综合执法支队岳麓区", "pyname": "csscsglzhzfzdylqddztzd", "kind": "7080", "zipcode": null, "telephone": null, "display_x": "112.94341", "display_y": "28.20128", "side": "R", "address": "枫林一路441" }, "geometry": { "type": "Point", "coordinates": [ 112.937958, 28.2047859 ] } },
{ "type": "Feature", "properties": { "gml_id": "layer_government_pt.270382", "Name": "湖南省生产力促进中心", "pyname": "hnssclcjzx", "kind": "7080", "zipcode": null, "telephone": null, "display_x": "112.94243", "display_y": "28.22487", "side": "R", "address": "岳麓大道233湖南科技大厦23层" }, "geometry": { "type": "Point", "coordinates": [ 112.93698114, 28.22837976 ] } },
{ "type": "Feature", "properties": { "gml_id": "layer_government_pt.270474", "Name": "国家有色冶金机电产品质量监督检验", "pyname": "gjysyjjdcpzljdjyzx", "kind": "7080", "zipcode": null, "telephone": null, "display_x": "112.94762", "display_y": "28.16816", "side": "R", "address": "天马路" }, "geometry": { "type": "Point", "coordinates": [ 112.9421601, 28.17165654 ] } },
{ "type": "Feature", "properties": { "gml_id": "layer_government_pt.270475", "Name": "长沙市机动车维修管理办公室", "pyname": "cssjdcwxglbgs", "kind": "7080", "zipcode": null, "telephone": null, "display_x": "112.94679", "display_y": "28.19991", "side": "R", "address": "枫林一路367" }, "geometry": { "type": "Point", "coordinates": [ 112.94133012, 28.20340967 ] } },
{ "type": "Feature", "properties": { "gml_id": "layer_government_pt.270639", "Name": "长沙市岳麓区公共卫生检测检验中心", "pyname": "cssylqggwsjcjyzx", "kind": "7080", "zipcode": "410013", "telephone": "0731-88941456", "display_x": "112.92351", "display_y": "28.21055", "side": "L", "address": "咸嘉湖路1076" }, "geometry": { "type": "Point", "coordinates": [ 112.91809284, 28.21408263 ] } },
{ "type": "Feature", "properties": { "gml_id": "layer_government_pt.270641", "Name": "国家安全生产长沙矿山机电检测检验", "pyname": "gjaqsccsksjdjcjyzx", "kind": "7080", "zipcode": null, "telephone": null, "display_x": "112.94762", "display_y": "28.16816", "side": "R", "address": "天马路" }, "geometry": { "type": "Point", "coordinates": [ 112.9421601, 28.17165654 ] } },
{ "type": "Feature", "properties": { "gml_id": "layer_government_pt.270742", "Name": "长沙市林业和园林综合执法支队", "pyname": "csslyhylzhzfzd", "kind": "7080", "zipcode": null, "telephone": null, "display_x": "112.95416", "display_y": "28.19565", "side": "L", "address": "枫林一路19号通程麓山大酒店10楼" }, "geometry": { "type": "Point", "coordinates": [ 112.94868348, 28.19913642 ] } },
{ "type": "Feature", "properties": { "gml_id": "layer_government_pt.270822", "Name": "长沙市建筑从业人员智能卡管理工作", "pyname": "cssjzcyryznkglgzbgs", "kind": "7080", "zipcode": null, "telephone": null, "display_x": "112.93339", "display_y": "28.21606", "side": "R", "address": "白鹤咀街010" }, "geometry": { "type": "Point", "coordinates": [ 112.92795684, 28.219581 ] } },
{ "type": "Feature", "properties": { "gml_id": "layer_government_pt.270911", "Name": "长沙市岳麓区桔子洲街道治安巡防大", "pyname": "cssylqjzzjdzaxfdddyzd", "kind": "7080", "zipcode": null, "telephone": null, "display_x": "112.93838", "display_y": "28.15297", "side": "L", "address": "后湖小区12栋" }, "geometry": { "type": "Point", "coordinates": [ 112.9329414, 28.15648106 ] } },
{ "type": "Feature", "properties": { "gml_id": "layer_government_pt.271124", "Name": "湖南省长沙市岳麓区地税局第二税务", "pyname": "hnscssylqdsjdeswfj", "kind": "7080", "zipcode": null, "telephone": null, "display_x": "112.9265", "display_y": "28.21287", "side": "R", "address": "咸嘉湖西路" }, "geometry": { "type": "Point", "coordinates": [ 112.92107778, 28.21639901 ] } },
{ "type": "Feature", "properties": { "gml_id": "layer_government_pt.271256", "Name": "长沙市岳麓区劳动保障监察大队", "pyname": "cssylqldbzjcdd", "kind": "7080", "zipcode": "410013", "telephone": null, "display_x": "112.95767", "display_y": "28.21141", "side": "L", "address": "银盆南路273" }, "geometry": { "type": "Point", "coordinates": [ 112.95218556, 28.21489133 ] } },
{ "type": "Feature", "properties": { "gml_id": "layer_government_pt.271257", "Name": "长沙市岳麓区地税局第三税务分局", "pyname": "cssylqdsjdsswfj", "kind": "7080", "zipcode": null, "telephone": null, "display_x": "112.91615", "display_y": "28.20699", "side": "L", "address": null }, "geometry": { "type": "Point", "coordinates": [ 112.91074002, 28.2105266 ] } },
{ "type": "Feature", "properties": { "gml_id": "layer_government_pt.271258", "Name": "长沙市岳麓区地税局稽查局", "pyname": "cssylqdsjjcj", "kind": "7080", "zipcode": null, "telephone": null, "display_x": "112.91615", "display_y": "28.20699", "side": "L", "address": null }, "geometry": { "type": "Point", "coordinates": [ 112.91074002, 28.2105266 ] } },
{ "type": "Feature", "properties": { "gml_id": "layer_government_pt.271260", "Name": "长沙市岳麓区地税局第五税务分局", "pyname": "cssylqdsjdwswfj", "kind": "7080", "zipcode": "410006", "telephone": null, "display_x": "112.94208", "display_y": "28.2017", "side": "R", "address": "枫林一路479" }, "geometry": { "type": "Point", "coordinates": [ 112.93663104, 28.20520832 ] } },
{ "type": "Feature", "properties": { "gml_id": "layer_government_pt.271308", "Name": "岳麓区西湖街道人力资源和社会保障", "pyname": "ylqxhjdrlzyhshbzfwz", "kind": "7080", "zipcode": null, "telephone": null, "display_x": "112.94327", "display_y": "28.20134", "side": "R", "address": "枫林一路443" }, "geometry": { "type": "Point", "coordinates": [ 112.93781832, 28.20484616 ] } },
{ "type": "Feature", "properties": { "gml_id": "layer_government_pt.271326", "Name": "溁湾镇社区公共服务中心", "pyname": "ywzsqggfwzx", "kind": "7080", "zipcode": null, "telephone": null, "display_x": "112.95261", "display_y": "28.20248", "side": "R", "address": "杜家塘路" }, "geometry": { "type": "Point", "coordinates": [ 112.94713674, 28.20596954 ] } },
{ "type": "Feature", "properties": { "gml_id": "layer_government_pt.271391", "Name": "长沙市岳麓区望月湖街道治安巡防大", "pyname": "cssylqwyhjdzaxfddwzd", "kind": "7080", "zipcode": null, "telephone": null, "display_x": "112.95261", "display_y": "28.20248", "side": "R", "address": "杜家塘路" }, "geometry": { "type": "Point", "coordinates": [ 112.94713674, 28.20596954 ] } },
{ "type": "Feature", "properties": { "gml_id": "layer_government_pt.271401", "Name": "民主党派湖南省委机关运政事务管理", "pyname": "mzdphnswjgyzswglbgs", "kind": "7080", "zipcode": "410006", "telephone": null, "display_x": "112.95611", "display_y": "28.19397", "side": "L", "address": "潇湘中路70" }, "geometry": { "type": "Point", "coordinates": [ 112.9506291, 28.19745297 ] } },
{ "type": "Feature", "properties": { "gml_id": "layer_government_pt.271442", "Name": "长沙市动物卫生监督所", "pyname": "cssdwwsjds", "kind": "7080", "zipcode": "410013", "telephone": null, "display_x": "112.95354", "display_y": "28.20961", "side": "L", "address": "咸嘉湖路12" }, "geometry": { "type": "Point", "coordinates": [ 112.94806518, 28.21309871 ] } },
{ "type": "Feature", "properties": { "gml_id": "layer_government_pt.271443", "Name": "长沙市公安局高新区分局", "pyname": "cssgajgxqfj", "kind": "7101", "zipcode": null, "telephone": null, "display_x": "112.95268", "display_y": "28.21991", "side": "L", "address": null }, "geometry": { "type": "Point", "coordinates": [ 112.94720784, 28.22340146 ] } },
{ "type": "Feature", "properties": { "gml_id": "layer_government_pt.271695", "Name": "岳龙社区公共服务中心", "pyname": "ylsqggfwzx", "kind": "7080", "zipcode": null, "telephone": null, "display_x": "112.9539", "display_y": "28.20424", "side": "R", "address": "月华街" }, "geometry": { "type": "Point", "coordinates": [ 112.94842392, 28.20772742 ] } },
{ "type": "Feature", "properties": { "gml_id": "layer_government_pt.271832", "Name": "长沙市公安局岳麓分局桔子洲派出所", "pyname": "cssgajylfjjzzpcs", "kind": "7102", "zipcode": "410006", "telephone": "0731-88860706", "display_x": "112.95217", "display_y": "28.19256", "side": "R", "address": "新民路151" }, "geometry": { "type": "Point", "coordinates": [ 112.94669826, 28.19604996 ] } },
{ "type": "Feature", "properties": { "gml_id": "layer_government_pt.271975", "Name": "长沙市岳麓区健康教育所", "pyname": "cssylqjkjys", "kind": "7080", "zipcode": "410013", "telephone": "0731-88941456", "display_x": "112.92351", "display_y": "28.21055", "side": "L", "address": "咸嘉湖路1076" }, "geometry": { "type": "Point", "coordinates": [ 112.91809284, 28.21408263 ] } },
{ "type": "Feature", "properties": { "gml_id": "layer_government_pt.271976", "Name": "岳麓区卫生局公共卫生中心建设办公", "pyname": "ylqwsjggwszxjsbgs", "kind": "7080", "zipcode": "410013", "telephone": "0731-88941456", "display_x": "112.92351", "display_y": "28.21055", "side": "L", "address": "咸嘉湖路1076" }, "geometry": { "type": "Point", "coordinates": [ 112.91809284, 28.21408263 ] } },
{ "type": "Feature", "properties": { "gml_id": "layer_government_pt.272366", "Name": "长沙市银盆岭派出所", "pyname": "cssyplpcs", "kind": "7102", "zipcode": "410013", "telephone": "0731-88809873", "display_x": "112.95322", "display_y": "28.21928", "side": "L", "address": "桐梓坡路5" }, "geometry": { "type": "Point", "coordinates": [ 112.94774658, 28.22277042 ] } },
{ "type": "Feature", "properties": { "gml_id": "layer_government_pt.272413", "Name": "长沙市岳麓区西湖街道劳动监察中队", "pyname": "cssylqxhjdldjczd", "kind": "7080", "zipcode": null, "telephone": null, "display_x": "112.94327", "display_y": "28.20134", "side": "R", "address": "枫林一路443" }, "geometry": { "type": "Point", "coordinates": [ 112.93781832, 28.20484616 ] } },
{ "type": "Feature", "properties": { "gml_id": "layer_government_pt.272427", "Name": "长沙市岳麓区西湖渔场管委会", "pyname": "cssylqxhycgwh", "kind": "7080", "zipcode": "410006", "telephone": null, "display_x": "112.93146", "display_y": "28.20317", "side": "L", "address": "枫林一路763" }, "geometry": { "type": "Point", "coordinates": [ 112.92603282, 28.20669503 ] } },
{ "type": "Feature", "properties": { "gml_id": "layer_government_pt.272533", "Name": "湖南岳麓山风景名胜区管理处", "pyname": "hnylsfjmsqglc", "kind": "7080", "zipcode": null, "telephone": null, "display_x": "112.93759", "display_y": "28.17868", "side": "R", "address": null }, "geometry": { "type": "Point", "coordinates": [ 112.93215192, 28.18219446 ] } },
{ "type": "Feature", "properties": { "gml_id": "layer_government_pt.272798", "Name": "长沙市城市管理综合执法支队岳麓区", "pyname": "csscsglzhzfzdylqddwyhzd", "kind": "7080", "zipcode": null, "telephone": null, "display_x": "112.95707", "display_y": "28.20478", "side": "L", "address": "月宫街82" }, "geometry": { "type": "Point", "coordinates": [ 112.9515867, 28.20826184 ] } },
{ "type": "Feature", "properties": { "gml_id": "layer_government_pt.273276", "Name": "长沙市岳麓区咸嘉湖街道社会矛盾调", "pyname": "cssylqxjhjdshmddczx", "kind": "7080", "zipcode": null, "telephone": null, "display_x": "112.92376", "display_y": "28.22112", "side": "R", "address": "晨风路91" }, "geometry": { "type": "Point", "coordinates": [ 112.91834196, 28.22465219 ] } },
{ "type": "Feature", "properties": { "gml_id": "layer_government_pt.273277", "Name": "长沙市市民服务热线呼叫中心", "pyname": "csssmfwrxhjzx", "kind": "7080", "zipcode": null, "telephone": null, "display_x": "112.9374", "display_y": "28.22235", "side": "R", "address": "银双路318号" }, "geometry": { "type": "Point", "coordinates": [ 112.93195932, 28.22586566 ] } },
{ "type": "Feature", "properties": { "gml_id": "layer_government_pt.274041", "Name": "长沙市星城地区人民检察院", "pyname": "cssxcdqrmjcy", "kind": "7080", "zipcode": "410006", "telephone": null, "display_x": "112.9551", "display_y": "28.19271", "side": "L", "address": "爱民路51" }, "geometry": { "type": "Point", "coordinates": [ 112.94962164, 28.19619473 ] } },
{ "type": "Feature", "properties": { "gml_id": "layer_government_pt.274155", "Name": "火炬城社区服务中心", "pyname": "hjcsqfwzx", "kind": "7080", "zipcode": null, "telephone": null, "display_x": "112.95474", "display_y": "28.21441", "side": "L", "address": "集贤路" }, "geometry": { "type": "Point", "coordinates": [ 112.94926272, 28.21789715 ] } },
{ "type": "Feature", "properties": { "gml_id": "layer_government_pt.274280", "Name": "长沙市城市桥梁隧道安全管理执法大", "pyname": "csscsqlsdaqglzfdd", "kind": "7080", "zipcode": null, "telephone": null, "display_x": "112.94974", "display_y": "28.16189", "side": "R", "address": null }, "geometry": { "type": "Point", "coordinates": [ 112.944276, 28.16538269 ] } },
{ "type": "Feature", "properties": { "gml_id": "layer_government_pt.274480", "Name": "荣龙社区公共服务中心", "pyname": "rlsqggfwzx", "kind": "7080", "zipcode": null, "telephone": null, "display_x": "112.95701", "display_y": "28.20678", "side": "R", "address": null }, "geometry": { "type": "Point", "coordinates": [ 112.95152694, 28.21026218 ] } },
{ "type": "Feature", "properties": { "gml_id": "layer_government_pt.274677", "Name": "长沙市畜禽水产品质量检测中心", "pyname": "cssxqscpzljczx", "kind": "7080", "zipcode": "410013", "telephone": null, "display_x": "112.95354", "display_y": "28.20961", "side": "L", "address": "咸嘉湖路12" }, "geometry": { "type": "Point", "coordinates": [ 112.94806518, 28.21309871 ] } },
{ "type": "Feature", "properties": { "gml_id": "layer_government_pt.274812", "Name": "全国民用爆破器材长沙监督检测站", "pyname": "qgmybpqccsjdjcz", "kind": "7080", "zipcode": null, "telephone": null, "display_x": "112.93124", "display_y": "28.16345", "side": "N", "address": "麓山南路966" }, "geometry": { "type": "Point", "coordinates": [ 112.92581592, 28.16697348 ] } },
{ "type": "Feature", "properties": { "gml_id": "layer_government_pt.274884", "Name": "长沙市岳麓区市容环卫管理局渣土管", "pyname": "cssylqsrhwgljztglbgs", "kind": "7080", "zipcode": null, "telephone": null, "display_x": "112.94341", "display_y": "28.20128", "side": "R", "address": "枫林一路441" }, "geometry": { "type": "Point", "coordinates": [ 112.937958, 28.2047859 ] } },
{ "type": "Feature", "properties": { "gml_id": "layer_government_pt.275339", "Name": "师大社区公共服务中心", "pyname": "sdsqggfwzx", "kind": "7080", "zipcode": null, "telephone": null, "display_x": "112.9473", "display_y": "28.18527", "side": "L", "address": "木兰路" }, "geometry": { "type": "Point", "coordinates": [ 112.94184042, 28.1887686 ] } },
{ "type": "Feature", "properties": { "gml_id": "layer_government_pt.275742", "Name": "长沙市户表改造及二次供水设施建设", "pyname": "csshbgzjecgsssjszhb", "kind": "7080", "zipcode": null, "telephone": null, "display_x": "112.93341", "display_y": "28.21572", "side": "L", "address": "金星中路319号" }, "geometry": { "type": "Point", "coordinates": [ 112.92797682, 28.21924103 ] } },
{ "type": "Feature", "properties": { "gml_id": "layer_government_pt.276050", "Name": "先锋社区公共服务中心", "pyname": "xfsqggfwzx", "kind": "7080", "zipcode": null, "telephone": null, "display_x": "112.94892", "display_y": "28.20437", "side": "L", "address": null }, "geometry": { "type": "Point", "coordinates": [ 112.94345538, 28.20786638 ] } },
{ "type": "Feature", "properties": { "gml_id": "layer_government_pt.276240", "Name": "长沙市岳麓区西湖街道办事处", "pyname": "cssylqxhjdbsc", "kind": "7080", "zipcode": "410006", "telephone": null, "display_x": "112.93146", "display_y": "28.20317", "side": "L", "address": "枫林一路763" }, "geometry": { "type": "Point", "coordinates": [ 112.92603282, 28.20669503 ] } },
{ "type": "Feature", "properties": { "gml_id": "layer_government_pt.276303", "Name": "湖南省食品药品安全信息中心", "pyname": "hnsspypaqxxzx", "kind": "7080", "zipcode": null, "telephone": null, "display_x": "112.93392", "display_y": "28.22164", "side": "R", "address": "金星中路469" }, "geometry": { "type": "Point", "coordinates": [ 112.9284846, 28.22515956 ] } },
{ "type": "Feature", "properties": { "gml_id": "layer_government_pt.276304", "Name": "长沙市岳麓区劳动人事争议仲裁委", "pyname": "cssylqldrszyzcw", "kind": "7080", "zipcode": null, "telephone": null, "display_x": "112.95767", "display_y": "28.21141", "side": "L", "address": "银盆南路273" }, "geometry": { "type": "Point", "coordinates": [ 112.95218556, 28.21489133 ] } },
{ "type": "Feature", "properties": { "gml_id": "layer_government_pt.276748", "Name": "湖南省汽车·摩托车（整车）产品质量", "pyname": "hnsqcmtc(zc)cpzljdjczx", "kind": "7080", "zipcode": null, "telephone": null, "display_x": "112.94685", "display_y": "28.17802", "side": "R", "address": null }, "geometry": { "type": "Point", "coordinates": [ 112.94139168, 28.18151888 ] } },
{ "type": "Feature", "properties": { "gml_id": "layer_government_pt.276784", "Name": "长沙市岳麓区国税局望城坡税务分局", "pyname": "cssylqgsjwcpswfj", "kind": "7080", "zipcode": null, "telephone": null, "display_x": "112.9166", "display_y": "28.20411", "side": "L", "address": null }, "geometry": { "type": "Point", "coordinates": [ 112.91118966, 28.2076461 ] } },
{ "type": "Feature", "properties": { "gml_id": "layer_government_pt.276965", "Name": "湖南省专利行政执法队", "pyname": "hnszlxzzfd", "kind": "7080", "zipcode": "410006", "telephone": null, "display_x": "112.95536", "display_y": "28.1894", "side": "R", "address": "潇湘中路113" }, "geometry": { "type": "Point", "coordinates": [ 112.94988138, 28.1928843 ] } },
{ "type": "Feature", "properties": { "gml_id": "layer_government_pt.277216", "Name": "溁华社区公共服务中心", "pyname": "yhsqggfwzx", "kind": "7080", "zipcode": null, "telephone": null, "display_x": "112.95628", "display_y": "28.20051", "side": "L", "address": "银盆南路62" }, "geometry": { "type": "Point", "coordinates": [ 112.95079812, 28.20399273 ] } },
{ "type": "Feature", "properties": { "gml_id": "layer_government_pt.277489", "Name": "白鹤咀社区公共服务中心", "pyname": "bhzsqggfwzx", "kind": "7080", "zipcode": null, "telephone": null, "display_x": "112.93339", "display_y": "28.21606", "side": "R", "address": "白鹤咀街010" }, "geometry": { "type": "Point", "coordinates": [ 112.92795684, 28.219581 ] } },
{ "type": "Feature", "properties": { "gml_id": "layer_government_pt.277591", "Name": "窑坡山社区公共服务中心", "pyname": "ypssqggfwzx", "kind": "7080", "zipcode": null, "telephone": null, "display_x": "112.95239", "display_y": "28.20151", "side": "L", "address": "白沙液街110号" }, "geometry": { "type": "Point", "coordinates": [ 112.94691714, 28.20499983 ] } },
{ "type": "Feature", "properties": { "gml_id": "layer_government_pt.277592", "Name": "党校社区公共服务中心", "pyname": "dxsqggfwzx", "kind": "7080", "zipcode": null, "telephone": null, "display_x": "112.93587", "display_y": "28.19455", "side": "L", "address": "白云路" }, "geometry": { "type": "Point", "coordinates": [ 112.93043526, 28.19806889 ] } },
{ "type": "Feature", "properties": { "gml_id": "layer_government_pt.277620", "Name": "长沙市桔子洲街道办", "pyname": "cssjzzjdb", "kind": "7080", "zipcode": null, "telephone": "0731-88872814", "display_x": "112.95131", "display_y": "28.16475", "side": "R", "address": null }, "geometry": { "type": "Point", "coordinates": [ 112.94584218, 28.1682401 ] } },
{ "type": "Feature", "properties": { "gml_id": "layer_government_pt.278226", "Name": "岳南村社区公共服务中心", "pyname": "yncsqggfwzx", "kind": "7080", "zipcode": null, "telephone": null, "display_x": "112.94427", "display_y": "28.16788", "side": "L", "address": null }, "geometry": { "type": "Point", "coordinates": [ 112.9388175, 28.17138213 ] } },
{ "type": "Feature", "properties": { "gml_id": "layer_government_pt.278404", "Name": "湖南省食品药品监督管理局投诉举报", "pyname": "hnsspypjdgljtsjbzx", "kind": "7080", "zipcode": null, "telephone": null, "display_x": "112.93392", "display_y": "28.22164", "side": "R", "address": "金星中路469" }, "geometry": { "type": "Point", "coordinates": [ 112.9284846, 28.22515956 ] } },
{ "type": "Feature", "properties": { "gml_id": "layer_government_pt.278418", "Name": "湖中社区公共服务中心", "pyname": "hzsqggfwzx", "kind": "7080", "zipcode": null, "telephone": null, "display_x": "112.95461", "display_y": "28.20338", "side": "L", "address": null }, "geometry": { "type": "Point", "coordinates": [ 112.94913222, 28.20686607 ] } }
]
}
