{
"type": "FeatureCollection",
"name": "Recreation",
"crs": { "type": "name", "properties": { "name": "urn:ogc:def:crs:OGC:1.3:CRS84" } },
"features": [
{ "type": "Feature", "properties": { "gml_id": "layer_ent_pt.390314", "Name": "西线交点网吧", "pyname": "xxjdwb", "kind": "6E00", "zipcode": "410006", "telephone": "13874836589", "display_x": "112.95001", "display_y": "28.19201", "side": "R", "address": "麓山路146" }, "geometry": { "type": "Point", "coordinates": [ 112.9445433, 28.1955038 ] } },
{ "type": "Feature", "properties": { "gml_id": "layer_ent_pt.390332", "Name": "万事兴网吧", "pyname": "wsxwb", "kind": "6E00", "zipcode": "410012", "telephone": "0731-85821501", "display_x": "112.93693", "display_y": "28.16507", "side": "R", "address": "麓山南路599" }, "geometry": { "type": "Point", "coordinates": [ 112.93149348, 28.16858412 ] } },
{ "type": "Feature", "properties": { "gml_id": "layer_ent_pt.390340", "Name": "水琳珑美发连锁", "pyname": "sllmfls", "kind": "A080", "zipcode": null, "telephone": "0731-85954007", "display_x": "112.92191", "display_y": "28.21755", "side": "R", "address": "望岳南路018" }, "geometry": { "type": "Point", "coordinates": [ 112.91649462, 28.22108409 ] } },
{ "type": "Feature", "properties": { "gml_id": "layer_ent_pt.390378", "Name": "西岸悦海足浴", "pyname": "xayhzy", "kind": "A100", "zipcode": null, "telephone": "0731-88652999", "display_x": "112.93781", "display_y": "28.21859", "side": "R", "address": null }, "geometry": { "type": "Point", "coordinates": [ 112.93236954, 28.22210577 ] } },
{ "type": "Feature", "properties": { "gml_id": "layer_ent_pt.390391", "Name": "长沙王陵公园", "pyname": "cswlgy", "kind": "7300", "zipcode": "410013", "telephone": "0731-88806592", "display_x": "112.95206", "display_y": "28.21185", "side": "L", "address": "咸嘉湖路8" }, "geometry": { "type": "Point", "coordinates": [ 112.94658882, 28.21534164 ] } },
{ "type": "Feature", "properties": { "gml_id": "layer_ent_pt.390420", "Name": "咸嘉广场", "pyname": "xjgc", "kind": "7380", "zipcode": null, "telephone": null, "display_x": "112.92764", "display_y": "28.22065", "side": "L", "address": "桐梓坡路328咸嘉新村" }, "geometry": { "type": "Point", "coordinates": [ 112.9222152, 28.22417721 ] } },
{ "type": "Feature", "properties": { "gml_id": "layer_ent_pt.390436", "Name": "湖南财政经济学院－体育馆", "pyname": "hnczjjxy-tyg", "kind": "6600", "zipcode": null, "telephone": "0731-88811434", "display_x": "112.92647", "display_y": "28.20339", "side": "L", "address": "枫林二路139湖南财政经济学院" }, "geometry": { "type": "Point", "coordinates": [ 112.9210497, 28.20691998 ] } },
{ "type": "Feature", "properties": { "gml_id": "layer_ent_pt.390456", "Name": "金卓", "pyname": "jz", "kind": "A080", "zipcode": "410013", "telephone": "0731-84314009", "display_x": "112.93228", "display_y": "28.21802", "side": "L", "address": "桐梓坡路276" }, "geometry": { "type": "Point", "coordinates": [ 112.92684804, 28.22154192 ] } },
{ "type": "Feature", "properties": { "gml_id": "layer_ent_pt.390462", "Name": "时尚码头连锁精致剪烫染店", "pyname": "ssmtlsjzjtrd", "kind": "A080", "zipcode": "410012", "telephone": "0731-82451233", "display_x": "112.94894", "display_y": "28.16532", "side": "R", "address": "阜埠河路210" }, "geometry": { "type": "Point", "coordinates": [ 112.94347734, 28.16881407 ] } },
{ "type": "Feature", "properties": { "gml_id": "layer_ent_pt.390512", "Name": "心浪网络会所", "pyname": "xlwlhs", "kind": "6E00", "zipcode": null, "telephone": null, "display_x": "112.94923", "display_y": "28.18866", "side": "R", "address": "麓山路183号附近" }, "geometry": { "type": "Point", "coordinates": [ 112.94376552, 28.19215517 ] } },
{ "type": "Feature", "properties": { "gml_id": "layer_ent_pt.390519", "Name": "D调KTV", "pyname": "ddk", "kind": "6680", "zipcode": "410012", "telephone": "0731-83998698", "display_x": "112.95209", "display_y": "28.16384", "side": "R", "address": "阜埠河路38" }, "geometry": { "type": "Point", "coordinates": [ 112.94662086, 28.16732889 ] } },
{ "type": "Feature", "properties": { "gml_id": "layer_ent_pt.390520", "Name": "晚风天马店", "pyname": "wftmd", "kind": "6680", "zipcode": "410012", "telephone": "0731-88863388", "display_x": "112.95233", "display_y": "28.16382", "side": "R", "address": "阜埠河路20" }, "geometry": { "type": "Point", "coordinates": [ 112.94686026, 28.16730851 ] } },
{ "type": "Feature", "properties": { "gml_id": "layer_ent_pt.390560", "Name": "路伊·威莎女性私密空间桃子店", "pyname": "lywsnxsmkjtzd", "kind": "A080", "zipcode": null, "telephone": null, "display_x": "112.95383", "display_y": "28.21634", "side": "L", "address": "集贤路111号附近" }, "geometry": { "type": "Point", "coordinates": [ 112.94835498, 28.219829 ] } },
{ "type": "Feature", "properties": { "gml_id": "layer_ent_pt.390588", "Name": "鑫磊网吧", "pyname": "xlwb", "kind": "6E00", "zipcode": null, "telephone": null, "display_x": "112.95601", "display_y": "28.21378", "side": "L", "address": "麓源路27号附近" }, "geometry": { "type": "Point", "coordinates": [ 112.95052974, 28.21726476 ] } },
{ "type": "Feature", "properties": { "gml_id": "layer_ent_pt.390884", "Name": "网迷乐园网络会所", "pyname": "wmlywlhs", "kind": "6E00", "zipcode": "410013", "telephone": null, "display_x": "112.95363", "display_y": "28.21981", "side": "R", "address": "桐梓坡路14－2" }, "geometry": { "type": "Point", "coordinates": [ 112.94815536, 28.22329944 ] } },
{ "type": "Feature", "properties": { "gml_id": "layer_ent_pt.390902", "Name": "时代帝景大酒店－健身房", "pyname": "sddjdjd-jsf", "kind": "6D00", "zipcode": "410013", "telephone": null, "display_x": "112.93401", "display_y": "28.2174", "side": "R", "address": "桐梓坡路399号时代帝景大酒店7楼" }, "geometry": { "type": "Point", "coordinates": [ 112.9285755, 28.22092011 ] } },
{ "type": "Feature", "properties": { "gml_id": "layer_ent_pt.390903", "Name": "时代帝景大酒店－商务酒廊", "pyname": "sddjdjd-swjl", "kind": "1500", "zipcode": "410013", "telephone": null, "display_x": "112.93401", "display_y": "28.2174", "side": "R", "address": "桐梓坡路399号时代帝景大酒店14层" }, "geometry": { "type": "Point", "coordinates": [ 112.9285755, 28.22092011 ] } },
{ "type": "Feature", "properties": { "gml_id": "layer_ent_pt.390976", "Name": "猫咪量贩式KTV", "pyname": "mmlfsk", "kind": "6680", "zipcode": null, "telephone": null, "display_x": "112.92607", "display_y": "28.20138", "side": "R", "address": "金星南路" }, "geometry": { "type": "Point", "coordinates": [ 112.92064992, 28.20490983 ] } },
{ "type": "Feature", "properties": { "gml_id": "layer_ent_pt.390996", "Name": "新地量贩式KTV", "pyname": "xdlfsk", "kind": "6680", "zipcode": null, "telephone": "18674872662", "display_x": "112.93929", "display_y": "28.1536", "side": "L", "address": "后湖小区17栋7单元" }, "geometry": { "type": "Point", "coordinates": [ 112.93384932, 28.15710957 ] } },
{ "type": "Feature", "properties": { "gml_id": "layer_ent_pt.391022", "Name": "红屋子网吧", "pyname": "hwzwb", "kind": "6E00", "zipcode": null, "telephone": null, "display_x": "112.92841", "display_y": "28.22105", "side": "L", "address": "谷丰路39" }, "geometry": { "type": "Point", "coordinates": [ 112.9229838, 28.22457627 ] } },
{ "type": "Feature", "properties": { "gml_id": "layer_ent_pt.391057", "Name": "雷霆网吧", "pyname": "ltwb", "kind": "6E00", "zipcode": null, "telephone": null, "display_x": "112.93011", "display_y": "28.20689", "side": "R", "address": "金星中路163" }, "geometry": { "type": "Point", "coordinates": [ 112.9246839, 28.21041594 ] } },
{ "type": "Feature", "properties": { "gml_id": "layer_ent_pt.391192", "Name": "中南网吧", "pyname": "znwb", "kind": "6E00", "zipcode": "410012", "telephone": "0731-82545288", "display_x": "112.93586", "display_y": "28.16459", "side": "R", "address": "麓山美庐2楼" }, "geometry": { "type": "Point", "coordinates": [ 112.9304259, 28.16810586 ] } },
{ "type": "Feature", "properties": { "gml_id": "layer_ent_pt.391217", "Name": "美和缘西城湾美容养生驿站", "pyname": "mhyxcwmrysyz", "kind": "A080", "zipcode": null, "telephone": "0731-85869803", "display_x": "112.94498", "display_y": "28.21458", "side": "R", "address": "岳华路" }, "geometry": { "type": "Point", "coordinates": [ 112.93952526, 28.21808466 ] } },
{ "type": "Feature", "properties": { "gml_id": "layer_ent_pt.391247", "Name": "长沙市外国友人俱乐部", "pyname": "csswgyrjlb", "kind": "6D00", "zipcode": null, "telephone": null, "display_x": "112.93497", "display_y": "28.22324", "side": "R", "address": "金星中路528" }, "geometry": { "type": "Point", "coordinates": [ 112.92953274, 28.22675819 ] } },
{ "type": "Feature", "properties": { "gml_id": "layer_ent_pt.391325", "Name": "汉子保健", "pyname": "hzbj", "kind": "A100", "zipcode": null, "telephone": null, "display_x": "112.92293", "display_y": "28.16438", "side": "R", "address": "左家垅王家湾" }, "geometry": { "type": "Point", "coordinates": [ 112.91751558, 28.16790975 ] } },
{ "type": "Feature", "properties": { "gml_id": "layer_ent_pt.391339", "Name": "湖南师范大学网球俱乐部", "pyname": "hnsfdxwqjlb", "kind": "6602", "zipcode": null, "telephone": "13637483032", "display_x": "112.94741", "display_y": "28.18485", "side": "R", "address": "湖南师范大学内" }, "geometry": { "type": "Point", "coordinates": [ 112.94195022, 28.18834844 ] } },
{ "type": "Feature", "properties": { "gml_id": "layer_ent_pt.391342", "Name": "小乐园网络会所", "pyname": "xlywlhs", "kind": "6E00", "zipcode": null, "telephone": null, "display_x": "112.95083", "display_y": "28.21866", "side": "R", "address": "桐兴巷14" }, "geometry": { "type": "Point", "coordinates": [ 112.94536212, 28.22215464 ] } },
{ "type": "Feature", "properties": { "gml_id": "layer_ent_pt.391359", "Name": "逸发轩", "pyname": "yfx", "kind": "A080", "zipcode": null, "telephone": null, "display_x": "112.92596", "display_y": "28.20061", "side": "L", "address": null }, "geometry": { "type": "Point", "coordinates": [ 112.92053994, 28.20413975 ] } },
{ "type": "Feature", "properties": { "gml_id": "layer_ent_pt.391360", "Name": "美之选专业烫染名店", "pyname": "mzxzytrmd", "kind": "A080", "zipcode": null, "telephone": null, "display_x": "112.93167", "display_y": "28.19549", "side": "R", "address": "校区路" }, "geometry": { "type": "Point", "coordinates": [ 112.92624378, 28.19901542 ] } },
{ "type": "Feature", "properties": { "gml_id": "layer_ent_pt.391361", "Name": "枫林运动俱乐部", "pyname": "flydjlb", "kind": "6D00", "zipcode": null, "telephone": "0731-82780044", "display_x": "112.933", "display_y": "28.19403", "side": "L", "address": "白云路" }, "geometry": { "type": "Point", "coordinates": [ 112.92757182, 28.19755377 ] } },
{ "type": "Feature", "properties": { "gml_id": "layer_ent_pt.391362", "Name": "波浪花网吧", "pyname": "blhwb", "kind": "6E00", "zipcode": null, "telephone": null, "display_x": "112.9373", "display_y": "28.19613", "side": "R", "address": "白云路85号附近" }, "geometry": { "type": "Point", "coordinates": [ 112.93186194, 28.19964632 ] } },
{ "type": "Feature", "properties": { "gml_id": "layer_ent_pt.391363", "Name": "艺享造型", "pyname": "yxzx", "kind": "A080", "zipcode": null, "telephone": "18711066545", "display_x": "112.9328", "display_y": "28.20177", "side": "L", "address": "石佳冲路22" }, "geometry": { "type": "Point", "coordinates": [ 112.92737112, 28.20529377 ] } },
{ "type": "Feature", "properties": { "gml_id": "layer_ent_pt.391364", "Name": "共和动漫电玩台球城", "pyname": "ghdmdwtqc", "kind": "6D00", "zipcode": null, "telephone": "15211011106", "display_x": "112.93248", "display_y": "28.20157", "side": "L", "address": "石佳冲路38" }, "geometry": { "type": "Point", "coordinates": [ 112.92705162, 28.20509415 ] } },
{ "type": "Feature", "properties": { "gml_id": "layer_ent_pt.391463", "Name": "米淇专业造型护肤会所桐梓坡总店", "pyname": "mqzyzxhfhstzpzd", "kind": "A080", "zipcode": null, "telephone": "0731-88802098", "display_x": "112.95204", "display_y": "28.2195", "side": "R", "address": "桐梓坡路32" }, "geometry": { "type": "Point", "coordinates": [ 112.94656938, 28.22299259 ] } },
{ "type": "Feature", "properties": { "gml_id": "layer_ent_pt.391490", "Name": "麦金森林网吧", "pyname": "mjslwb", "kind": "6E00", "zipcode": null, "telephone": null, "display_x": "112.94896", "display_y": "28.16449", "side": "L", "address": "阜埠河路139" }, "geometry": { "type": "Point", "coordinates": [ 112.94349732, 28.16798391 ] } },
{ "type": "Feature", "properties": { "gml_id": "layer_ent_pt.391491", "Name": "博集健身美容俱乐部", "pyname": "bjjsmrjlb", "kind": "6D00", "zipcode": null, "telephone": "0731-84767711", "display_x": "112.94896", "display_y": "28.16449", "side": "L", "address": "阜埠河路139" }, "geometry": { "type": "Point", "coordinates": [ 112.94349732, 28.16798391 ] } },
{ "type": "Feature", "properties": { "gml_id": "layer_ent_pt.391536", "Name": "西部网络会所", "pyname": "xbwlhs", "kind": "6E00", "zipcode": null, "telephone": "13278890021", "display_x": "112.95127", "display_y": "28.21894", "side": "L", "address": "桐梓坡路31－12" }, "geometry": { "type": "Point", "coordinates": [ 112.94580114, 28.22243387 ] } },
{ "type": "Feature", "properties": { "gml_id": "layer_ent_pt.391539", "Name": "西联欣辉网城", "pyname": "xlxhwc", "kind": "6E00", "zipcode": null, "telephone": null, "display_x": "112.92547", "display_y": "28.20019", "side": "L", "address": null }, "geometry": { "type": "Point", "coordinates": [ 112.92005034, 28.20371999 ] } },
{ "type": "Feature", "properties": { "gml_id": "layer_ent_pt.391563", "Name": "TTSHOW天马店", "pyname": "ttmd", "kind": "A080", "zipcode": null, "telephone": "15084911361", "display_x": "112.9452", "display_y": "28.16814", "side": "L", "address": "阜埠河路239" }, "geometry": { "type": "Point", "coordinates": [ 112.9397454, 28.17164061 ] } },
{ "type": "Feature", "properties": { "gml_id": "layer_ent_pt.391564", "Name": "鼎城网络会所", "pyname": "dcwlhs", "kind": "6E00", "zipcode": null, "telephone": "0731-83392677", "display_x": "112.94621", "display_y": "28.16711", "side": "L", "address": "阜埠河路197" }, "geometry": { "type": "Point", "coordinates": [ 112.94075322, 28.17060881 ] } },
{ "type": "Feature", "properties": { "gml_id": "layer_ent_pt.391572", "Name": "金泰笙歌量贩式KTV", "pyname": "jtsglfsk", "kind": "6680", "zipcode": "410012", "telephone": "0731-82652777", "display_x": "112.94686", "display_y": "28.16716", "side": "R", "address": "阜埠河路240" }, "geometry": { "type": "Point", "coordinates": [ 112.94140176, 28.17065772 ] } },
{ "type": "Feature", "properties": { "gml_id": "layer_ent_pt.391638", "Name": "大不同休闲城桐梓坡店", "pyname": "dbtxxctzpd", "kind": "A100", "zipcode": null, "telephone": "0731-88651088", "display_x": "112.95418", "display_y": "28.21939", "side": "L", "address": "桐梓坡路今天连锁酒店2楼" }, "geometry": { "type": "Point", "coordinates": [ 112.94870364, 28.22287811 ] } },
{ "type": "Feature", "properties": { "gml_id": "layer_ent_pt.391703", "Name": "基隆网络会所", "pyname": "jlwlhs", "kind": "6E00", "zipcode": null, "telephone": null, "display_x": "112.91728", "display_y": "28.21926", "side": "R", "address": "桐梓坡路406号附近" }, "geometry": { "type": "Point", "coordinates": [ 112.9118679, 28.22279562 ] } },
{ "type": "Feature", "properties": { "gml_id": "layer_ent_pt.391705", "Name": "中南大学运动健康中心", "pyname": "zndxydjkzx", "kind": "6600", "zipcode": "410013", "telephone": null, "display_x": "112.94", "display_y": "28.21835", "side": "L", "address": "桐梓坡路176" }, "geometry": { "type": "Point", "coordinates": [ 112.93455636, 28.2218634 ] } },
{ "type": "Feature", "properties": { "gml_id": "layer_ent_pt.391750", "Name": "西联网吧连锁成名店", "pyname": "xlwblscmd", "kind": "6E00", "zipcode": null, "telephone": null, "display_x": "112.91758", "display_y": "28.21577", "side": "R", "address": "望新路" }, "geometry": { "type": "Point", "coordinates": [ 112.91216814, 28.21930592 ] } },
{ "type": "Feature", "properties": { "gml_id": "layer_ent_pt.391786", "Name": "湖南师范大学体育馆", "pyname": "hnsfdxtyg", "kind": "6600", "zipcode": null, "telephone": null, "display_x": "112.94857", "display_y": "28.1845", "side": "R", "address": "簏山路259" }, "geometry": { "type": "Point", "coordinates": [ 112.94310762, 28.18799636 ] } },
{ "type": "Feature", "properties": { "gml_id": "layer_ent_pt.391804", "Name": "中南大学－体育馆", "pyname": "zndx-tyg", "kind": "6600", "zipcode": null, "telephone": null, "display_x": "112.9285", "display_y": "28.16753", "side": "R", "address": "中南大学内" }, "geometry": { "type": "Point", "coordinates": [ 112.92307974, 28.17105665 ] } },
{ "type": "Feature", "properties": { "gml_id": "layer_ent_pt.392105", "Name": "幻境网络会所", "pyname": "hjwlhs", "kind": "6E00", "zipcode": "410205", "telephone": null, "display_x": "112.91553", "display_y": "28.21107", "side": "L", "address": "枫林二路550" }, "geometry": { "type": "Point", "coordinates": [ 112.91012028, 28.21460702 ] } },
{ "type": "Feature", "properties": { "gml_id": "layer_ent_pt.392155", "Name": "雅格专业美容美发", "pyname": "ygzymrmf", "kind": "A080", "zipcode": null, "telephone": "0731-82492568", "display_x": "112.92791", "display_y": "28.21913", "side": "R", "address": "谷丰路10" }, "geometry": { "type": "Point", "coordinates": [ 112.92248448, 28.22265675 ] } },
{ "type": "Feature", "properties": { "gml_id": "layer_ent_pt.392355", "Name": "白云网络会所", "pyname": "bywlhs", "kind": "6E00", "zipcode": null, "telephone": null, "display_x": "112.93879", "display_y": "28.19917", "side": "R", "address": "谭石路134号附近" }, "geometry": { "type": "Point", "coordinates": [ 112.93334856, 28.20268391 ] } },
{ "type": "Feature", "properties": { "gml_id": "layer_ent_pt.392357", "Name": "淼淼休闲会所", "pyname": "mmxxhs", "kind": "A100", "zipcode": "410013", "telephone": "0731-82495798", "display_x": "112.94368", "display_y": "28.21791", "side": "L", "address": "桐梓坡路89" }, "geometry": { "type": "Point", "coordinates": [ 112.93822854, 28.22141736 ] } },
{ "type": "Feature", "properties": { "gml_id": "layer_ent_pt.392373", "Name": "左右左造型连锁NO．1", "pyname": "zyzzxlsn1", "kind": "A080", "zipcode": "410205", "telephone": null, "display_x": "112.91765", "display_y": "28.21889", "side": "R", "address": "桐梓坡路623" }, "geometry": { "type": "Point", "coordinates": [ 112.91223762, 28.22242554 ] } },
{ "type": "Feature", "properties": { "gml_id": "layer_ent_pt.392376", "Name": "同学网络会所", "pyname": "txwlhs", "kind": "6E00", "zipcode": null, "telephone": null, "display_x": "112.92327", "display_y": "28.21516", "side": "L", "address": null }, "geometry": { "type": "Point", "coordinates": [ 112.91785236, 28.21869239 ] } },
{ "type": "Feature", "properties": { "gml_id": "layer_ent_pt.392377", "Name": "首脑美发沙龙", "pyname": "snmfsl", "kind": "A080", "zipcode": null, "telephone": null, "display_x": "112.92276", "display_y": "28.21574", "side": "L", "address": "润泽园A－1号附近" }, "geometry": { "type": "Point", "coordinates": [ 112.91734332, 28.21927311 ] } },
{ "type": "Feature", "properties": { "gml_id": "layer_ent_pt.392380", "Name": "冰城台球", "pyname": "bctq", "kind": "6D00", "zipcode": null, "telephone": null, "display_x": "112.94063", "display_y": "28.15401", "side": "L", "address": null }, "geometry": { "type": "Point", "coordinates": [ 112.93518636, 28.15751745 ] } },
{ "type": "Feature", "properties": { "gml_id": "layer_ent_pt.392437", "Name": "你好色彩专业美发沙龙", "pyname": "nhsczymfsl", "kind": "A080", "zipcode": null, "telephone": null, "display_x": "112.95511", "display_y": "28.21311", "side": "R", "address": "铜盆湖路1－7" }, "geometry": { "type": "Point", "coordinates": [ 112.94963172, 28.21659633 ] } },
{ "type": "Feature", "properties": { "gml_id": "layer_ent_pt.392653", "Name": "贵族网络会所", "pyname": "gzwlhs", "kind": "6E00", "zipcode": null, "telephone": "0731-88927451", "display_x": "112.9359", "display_y": "28.22232", "side": "R", "address": "金星中路528－13" }, "geometry": { "type": "Point", "coordinates": [ 112.93046154, 28.22583731 ] } },
{ "type": "Feature", "properties": { "gml_id": "layer_ent_pt.392654", "Name": "泛歌国际美容美体雅泉店", "pyname": "fggjmrmtyqd", "kind": "A080", "zipcode": null, "telephone": "0731-82789988", "display_x": "112.93658", "display_y": "28.22234", "side": "R", "address": "金星中路528－17" }, "geometry": { "type": "Point", "coordinates": [ 112.9311405, 28.22585657 ] } },
{ "type": "Feature", "properties": { "gml_id": "layer_ent_pt.392681", "Name": "魅力人生女士美容美体养生吧", "pyname": "mlrsnsmrmtysb", "kind": "A080", "zipcode": null, "telephone": null, "display_x": "112.95299", "display_y": "28.19199", "side": "L", "address": "石门楼街5" }, "geometry": { "type": "Point", "coordinates": [ 112.94751654, 28.19547851 ] } },
{ "type": "Feature", "properties": { "gml_id": "layer_ent_pt.392746", "Name": "天沐足浴", "pyname": "tmzy", "kind": "A100", "zipcode": null, "telephone": null, "display_x": "112.93446", "display_y": "28.21449", "side": "L", "address": "金星中路400号美奥斯乐酒店3楼" }, "geometry": { "type": "Point", "coordinates": [ 112.9290255, 28.21801005 ] } },
{ "type": "Feature", "properties": { "gml_id": "layer_ent_pt.392781", "Name": "梦幻缘网络会所", "pyname": "mhywlhs", "kind": "6E00", "zipcode": "410012", "telephone": null, "display_x": "112.93883", "display_y": "28.16568", "side": "R", "address": "麓山南路505" }, "geometry": { "type": "Point", "coordinates": [ 112.93338942, 28.16919104 ] } },
{ "type": "Feature", "properties": { "gml_id": "layer_ent_pt.392967", "Name": "V8台球具乐部麓山店", "pyname": "v8tqjlblsd", "kind": "6D00", "zipcode": null, "telephone": null, "display_x": "112.92219", "display_y": "28.20923", "side": "L", "address": "方家巷" }, "geometry": { "type": "Point", "coordinates": [ 112.91677452, 28.21276373 ] } },
{ "type": "Feature", "properties": { "gml_id": "layer_ent_pt.393079", "Name": "皇家台球城", "pyname": "hjtqc", "kind": "6D00", "zipcode": null, "telephone": null, "display_x": "112.92274", "display_y": "28.21475", "side": "L", "address": null }, "geometry": { "type": "Point", "coordinates": [ 112.91732334, 28.21828307 ] } },
{ "type": "Feature", "properties": { "gml_id": "layer_ent_pt.393084", "Name": "九重天休闲城", "pyname": "jctxxc", "kind": "A100", "zipcode": null, "telephone": null, "display_x": "112.93467", "display_y": "28.16465", "side": "L", "address": "麓山南路858" }, "geometry": { "type": "Point", "coordinates": [ 112.92923844, 28.16816787 ] } },
{ "type": "Feature", "properties": { "gml_id": "layer_ent_pt.393097", "Name": "动感之赏国际发型美容连锁芙蓉坊望月湖店", "pyname": "dgzsgjfxmrlsfrfwyhd", "kind": "A080", "zipcode": null, "telephone": "0731-85233956", "display_x": "112.95606", "display_y": "28.20534", "side": "R", "address": "月宫街100" }, "geometry": { "type": "Point", "coordinates": [ 112.95057906, 28.20882371 ] } },
{ "type": "Feature", "properties": { "gml_id": "layer_ent_pt.393163", "Name": "红楼宾馆－棋牌室", "pyname": "hlbg-qps", "kind": "6D80", "zipcode": null, "telephone": "0731-88872109", "display_x": "112.94733", "display_y": "28.19077", "side": "L", "address": "麓山南路36号红楼宾馆1层" }, "geometry": { "type": "Point", "coordinates": [ 112.94186958, 28.19426855 ] } },
{ "type": "Feature", "properties": { "gml_id": "layer_ent_pt.393164", "Name": "力健台球汇", "pyname": "ljtqh", "kind": "6D00", "zipcode": null, "telephone": null, "display_x": "112.93444", "display_y": "28.21434", "side": "L", "address": null }, "geometry": { "type": "Point", "coordinates": [ 112.9290057, 28.21786011 ] } },
{ "type": "Feature", "properties": { "gml_id": "layer_ent_pt.393180", "Name": "郡原游泳馆", "pyname": "jyyyg", "kind": "6600", "zipcode": null, "telephone": null, "display_x": "112.93635", "display_y": "28.22175", "side": "L", "address": null }, "geometry": { "type": "Point", "coordinates": [ 112.930911, 28.22526689 ] } },
{ "type": "Feature", "properties": { "gml_id": "layer_ent_pt.393396", "Name": "瑞祥网络会所", "pyname": "rxwlhs", "kind": "6E00", "zipcode": null, "telephone": null, "display_x": "112.95044", "display_y": "28.20327", "side": "L", "address": "白沙液街204" }, "geometry": { "type": "Point", "coordinates": [ 112.94497188, 28.20676352 ] } },
{ "type": "Feature", "properties": { "gml_id": "layer_ent_pt.393405", "Name": "新浪园网吧", "pyname": "xlywb", "kind": "6E00", "zipcode": null, "telephone": null, "display_x": "112.91697", "display_y": "28.21087", "side": "R", "address": "望新路282－1" }, "geometry": { "type": "Point", "coordinates": [ 112.9115592, 28.21440645 ] } },
{ "type": "Feature", "properties": { "gml_id": "layer_ent_pt.393407", "Name": "A尼斯", "pyname": "ans", "kind": "A080", "zipcode": null, "telephone": null, "display_x": "112.93888", "display_y": "28.19888", "side": "R", "address": "白云路" }, "geometry": { "type": "Point", "coordinates": [ 112.9334382, 28.2023937 ] } },
{ "type": "Feature", "properties": { "gml_id": "layer_ent_pt.393449", "Name": "网缘网络会所", "pyname": "wywlhs", "kind": "6E00", "zipcode": null, "telephone": "18670089619", "display_x": "112.95507", "display_y": "28.21452", "side": "R", "address": "集贤路14" }, "geometry": { "type": "Point", "coordinates": [ 112.94959194, 28.21800654 ] } },
{ "type": "Feature", "properties": { "gml_id": "layer_ent_pt.393464", "Name": "长沙王陵公园南门", "pyname": "cswlgynm", "kind": "7300", "zipcode": "410013", "telephone": "0731-88803122", "display_x": "112.9539", "display_y": "28.20957", "side": "N", "address": "咸嘉湖路8" }, "geometry": { "type": "Point", "coordinates": [ 112.94842428, 28.21305807 ] } },
{ "type": "Feature", "properties": { "gml_id": "layer_ent_pt.393544", "Name": "挑麦量贩KTV", "pyname": "tmlfk", "kind": "6680", "zipcode": null, "telephone": "0731-84457278", "display_x": "112.95739", "display_y": "28.21298", "side": "L", "address": "银盆南路283－3号金荣科技园M1组团A座3层" }, "geometry": { "type": "Point", "coordinates": [ 112.95190584, 28.2164616 ] } },
{ "type": "Feature", "properties": { "gml_id": "layer_ent_pt.393606", "Name": "永源网吧", "pyname": "yywb", "kind": "6E00", "zipcode": null, "telephone": "18807421750", "display_x": "112.93092", "display_y": "28.2007", "side": "L", "address": "石佳冲路102" }, "geometry": { "type": "Point", "coordinates": [ 112.92549426, 28.20422597 ] } },
{ "type": "Feature", "properties": { "gml_id": "layer_ent_pt.393611", "Name": "剪爱专业烫染连锁机构", "pyname": "jazytrlsjg", "kind": "A080", "zipcode": null, "telephone": "15116369233", "display_x": "112.95095", "display_y": "28.16241", "side": "L", "address": "天马小区85栋附近" }, "geometry": { "type": "Point", "coordinates": [ 112.94548344, 28.16590073 ] } },
{ "type": "Feature", "properties": { "gml_id": "layer_ent_pt.393624", "Name": "天鼎网络会所", "pyname": "tdwlhs", "kind": "6E00", "zipcode": null, "telephone": null, "display_x": "112.9394", "display_y": "28.15308", "side": "R", "address": null }, "geometry": { "type": "Point", "coordinates": [ 112.93395912, 28.15658942 ] } },
{ "type": "Feature", "properties": { "gml_id": "layer_ent_pt.393665", "Name": "鱼儿乐养生鱼疗馆", "pyname": "yelysylg", "kind": "A100", "zipcode": null, "telephone": null, "display_x": "112.95275", "display_y": "28.22474", "side": "R", "address": "兰卡威国际公寓8层814室" }, "geometry": { "type": "Point", "coordinates": [ 112.94727606, 28.22823027 ] } },
{ "type": "Feature", "properties": { "gml_id": "layer_ent_pt.393667", "Name": "发尚烫染旗舰店", "pyname": "fstrqjd", "kind": "A080", "zipcode": null, "telephone": null, "display_x": "112.92703", "display_y": "28.2005", "side": "R", "address": "石佳冲路" }, "geometry": { "type": "Point", "coordinates": [ 112.92160878, 28.20402909 ] } },
{ "type": "Feature", "properties": { "gml_id": "layer_ent_pt.393670", "Name": "46音乐酒吧", "pyname": "46yyjb", "kind": "1500", "zipcode": null, "telephone": "0731-85539946", "display_x": "112.95394", "display_y": "28.19235", "side": "L", "address": "新民路52号湘财证券大厦负1楼" }, "geometry": { "type": "Point", "coordinates": [ 112.94846424, 28.1958368 ] } },
{ "type": "Feature", "properties": { "gml_id": "layer_ent_pt.393725", "Name": "嘉盛网吧", "pyname": "jswb", "kind": "6E00", "zipcode": "410013", "telephone": "18673159994", "display_x": "112.94317", "display_y": "28.21784", "side": "L", "address": "桐梓坡路113" }, "geometry": { "type": "Point", "coordinates": [ 112.93771968, 28.22134829 ] } },
{ "type": "Feature", "properties": { "gml_id": "layer_ent_pt.393727", "Name": "美时慕", "pyname": "msm", "kind": "A080", "zipcode": "410006", "telephone": "0731-85412261", "display_x": "112.95339", "display_y": "28.19219", "side": "R", "address": "新民路99" }, "geometry": { "type": "Point", "coordinates": [ 112.9479156, 28.19567777 ] } },
{ "type": "Feature", "properties": { "gml_id": "layer_ent_pt.393782", "Name": "流星花园精剪烫染会所", "pyname": "lxhyjjtrhs", "kind": "A080", "zipcode": null, "telephone": "15973179669", "display_x": "112.9219", "display_y": "28.22416", "side": "L", "address": "望岳路98" }, "geometry": { "type": "Point", "coordinates": [ 112.91648382, 28.22769338 ] } },
{ "type": "Feature", "properties": { "gml_id": "layer_ent_pt.393798", "Name": "大中华网络会所", "pyname": "dzhwlhs", "kind": "6E00", "zipcode": "410006", "telephone": null, "display_x": "112.94986", "display_y": "28.1919", "side": "R", "address": "麓山路156" }, "geometry": { "type": "Point", "coordinates": [ 112.94439372, 28.19539404 ] } },
{ "type": "Feature", "properties": { "gml_id": "layer_ent_pt.393806", "Name": "大不同休闲保健按摩城", "pyname": "dbtxxbjamc", "kind": "A100", "zipcode": "410006", "telephone": "0731-88864888", "display_x": "112.95245", "display_y": "28.19288", "side": "R", "address": "新民路88" }, "geometry": { "type": "Point", "coordinates": [ 112.94697762, 28.19636946 ] } },
{ "type": "Feature", "properties": { "gml_id": "layer_ent_pt.393807", "Name": "克丽缇娜新民路店", "pyname": "kltnxmld", "kind": "A080", "zipcode": "410006", "telephone": "0731-89910988", "display_x": "112.95161", "display_y": "28.19314", "side": "L", "address": "新民路102" }, "geometry": { "type": "Point", "coordinates": [ 112.94613954, 28.19663096 ] } },
{ "type": "Feature", "properties": { "gml_id": "layer_ent_pt.393912", "Name": "跃麓网络会所", "pyname": "ylwlhs", "kind": "6E00", "zipcode": null, "telephone": null, "display_x": "112.92087", "display_y": "28.20442", "side": "R", "address": null }, "geometry": { "type": "Point", "coordinates": [ 112.9154553, 28.20795359 ] } },
{ "type": "Feature", "properties": { "gml_id": "layer_ent_pt.394009", "Name": "云上洗浴休闲会所", "pyname": "ysxyxxhs", "kind": "A100", "zipcode": null, "telephone": "0731-83297789", "display_x": "112.9218", "display_y": "28.22083", "side": "L", "address": "望岳路19" }, "geometry": { "type": "Point", "coordinates": [ 112.91638428, 28.22436378 ] } },
{ "type": "Feature", "properties": { "gml_id": "layer_ent_pt.394318", "Name": "经典一派", "pyname": "jdyp", "kind": "A080", "zipcode": null, "telephone": null, "display_x": "112.92414", "display_y": "28.21577", "side": "L", "address": null }, "geometry": { "type": "Point", "coordinates": [ 112.91872086, 28.21930133 ] } },
{ "type": "Feature", "properties": { "gml_id": "layer_ent_pt.394319", "Name": "华澳网吧连锁", "pyname": "hawbls", "kind": "6E00", "zipcode": null, "telephone": "13975858290", "display_x": "112.92424", "display_y": "28.21577", "side": "L", "address": null }, "geometry": { "type": "Point", "coordinates": [ 112.91882076, 28.21930119 ] } },
{ "type": "Feature", "properties": { "gml_id": "layer_ent_pt.394380", "Name": "山友羽毛球俱乐部", "pyname": "syymqjlb", "kind": "6601", "zipcode": null, "telephone": "0731-88805326", "display_x": "112.95075", "display_y": "28.21711", "side": "L", "address": "桐文巷7" }, "geometry": { "type": "Point", "coordinates": [ 112.9452822, 28.22060462 ] } },
{ "type": "Feature", "properties": { "gml_id": "layer_ent_pt.394398", "Name": "发艺坊造型", "pyname": "fyfzx", "kind": "A080", "zipcode": null, "telephone": null, "display_x": "112.95299", "display_y": "28.22279", "side": "R", "address": "银双路56" }, "geometry": { "type": "Point", "coordinates": [ 112.94751618, 28.2262802 ] } },
{ "type": "Feature", "properties": { "gml_id": "layer_ent_pt.394400", "Name": "湖南艺术职业学院实验剧院", "pyname": "hnyszyxysyjy", "kind": "6580", "zipcode": null, "telephone": null, "display_x": "112.93718", "display_y": "28.16652", "side": "L", "address": "湖南艺术职业学院斜对面" }, "geometry": { "type": "Point", "coordinates": [ 112.93174296, 28.17003389 ] } },
{ "type": "Feature", "properties": { "gml_id": "layer_ent_pt.394446", "Name": "上机堂网吧连锁豪天分店", "pyname": "sjtwblshtfd", "kind": "6E00", "zipcode": null, "telephone": null, "display_x": "112.95097", "display_y": "28.19555", "side": "R", "address": "麓山路12" }, "geometry": { "type": "Point", "coordinates": [ 112.94550072, 28.19904206 ] } },
{ "type": "Feature", "properties": { "gml_id": "layer_ent_pt.394447", "Name": "枫林休闲会馆", "pyname": "flxxhg", "kind": "A100", "zipcode": null, "telephone": null, "display_x": "112.94994", "display_y": "28.19668", "side": "L", "address": "枫林一路43号枫林宾馆" }, "geometry": { "type": "Point", "coordinates": [ 112.94447292, 28.2001739 ] } },
{ "type": "Feature", "properties": { "gml_id": "layer_ent_pt.394532", "Name": "岳麓广场", "pyname": "ylgc", "kind": "7380", "zipcode": null, "telephone": null, "display_x": "112.95447", "display_y": "28.19659", "side": "R", "address": "银盆南路与枫林一路交界" }, "geometry": { "type": "Point", "coordinates": [ 112.94899254, 28.20007584 ] } },
{ "type": "Feature", "properties": { "gml_id": "layer_ent_pt.394617", "Name": "中南大学－游泳池", "pyname": "zndx-yyc", "kind": "6600", "zipcode": null, "telephone": null, "display_x": "112.92852", "display_y": "28.16698", "side": "R", "address": "中南大学内" }, "geometry": { "type": "Point", "coordinates": [ 112.9230999, 28.17050661 ] } },
{ "type": "Feature", "properties": { "gml_id": "layer_ent_pt.394627", "Name": "独品美容美发沙龙", "pyname": "dpmrmfsl", "kind": "A080", "zipcode": null, "telephone": "0731-84491275", "display_x": "112.94397", "display_y": "28.21653", "side": "R", "address": "岳华路63" }, "geometry": { "type": "Point", "coordinates": [ 112.9385178, 28.22003667 ] } },
{ "type": "Feature", "properties": { "gml_id": "layer_ent_pt.394663", "Name": "天天滑冰馆", "pyname": "tthbg", "kind": "6B00", "zipcode": null, "telephone": "13487571237", "display_x": "112.94726", "display_y": "28.16832", "side": "L", "address": "天马路190" }, "geometry": { "type": "Point", "coordinates": [ 112.941801, 28.17181719 ] } },
{ "type": "Feature", "properties": { "gml_id": "layer_ent_pt.394738", "Name": "秀发社精品发艺馆", "pyname": "xfsjpfyg", "kind": "A080", "zipcode": null, "telephone": null, "display_x": "112.92484", "display_y": "28.2139", "side": "L", "address": null }, "geometry": { "type": "Point", "coordinates": [ 112.91941998, 28.21743068 ] } },
{ "type": "Feature", "properties": { "gml_id": "layer_ent_pt.394739", "Name": "博颜集美馆", "pyname": "byjmg", "kind": "A080", "zipcode": null, "telephone": null, "display_x": "112.92639", "display_y": "28.21378", "side": "R", "address": null }, "geometry": { "type": "Point", "coordinates": [ 112.9209678, 28.217309 ] } },
{ "type": "Feature", "properties": { "gml_id": "layer_ent_pt.394888", "Name": "艾雅国际发型连锁ｓａｌｏｎ美美店", "pyname": "aygjfxlssmmd", "kind": "A080", "zipcode": null, "telephone": "0731-85556713", "display_x": "112.94048", "display_y": "28.16662", "side": "L", "address": "麓山南路" }, "geometry": { "type": "Point", "coordinates": [ 112.9350357, 28.17012834 ] } },
{ "type": "Feature", "properties": { "gml_id": "layer_ent_pt.394925", "Name": "湖南大学北校区－体育馆", "pyname": "hndxbxq-tyg", "kind": "6600", "zipcode": null, "telephone": "0731-88834440", "display_x": "112.93224", "display_y": "28.19863", "side": "L", "address": "石佳冲路109号湖南大学北校区内" }, "geometry": { "type": "Point", "coordinates": [ 112.92681276, 28.20215484 ] } },
{ "type": "Feature", "properties": { "gml_id": "layer_ent_pt.394928", "Name": "众旺网络会所", "pyname": "zwwlhs", "kind": "6E00", "zipcode": null, "telephone": null, "display_x": "112.94935", "display_y": "28.16216", "side": "R", "address": "阜埠河路天马安置小区" }, "geometry": { "type": "Point", "coordinates": [ 112.94388684, 28.16565332 ] } },
{ "type": "Feature", "properties": { "gml_id": "layer_ent_pt.394932", "Name": "银色月光网络会所", "pyname": "ysygwlhs", "kind": "6E00", "zipcode": null, "telephone": null, "display_x": "112.94153", "display_y": "28.16228", "side": "R", "address": null }, "geometry": { "type": "Point", "coordinates": [ 112.93608348, 28.16578616 ] } },
{ "type": "Feature", "properties": { "gml_id": "layer_ent_pt.394986", "Name": "天马行空网吧", "pyname": "tmxkwb", "kind": "6E00", "zipcode": null, "telephone": "0731-82308358", "display_x": "112.95001", "display_y": "28.16195", "side": "R", "address": "阜埠河路天马安置小区" }, "geometry": { "type": "Point", "coordinates": [ 112.94454546, 28.16544227 ] } },
{ "type": "Feature", "properties": { "gml_id": "layer_ent_pt.395031", "Name": "石里奥农家乐", "pyname": "slanjl", "kind": "6700", "zipcode": null, "telephone": "0731-88636008", "display_x": "112.92364", "display_y": "28.18137", "side": "R", "address": "西二环" }, "geometry": { "type": "Point", "coordinates": [ 112.91822298, 28.18489973 ] } },
{ "type": "Feature", "properties": { "gml_id": "layer_ent_pt.395064", "Name": "天之道足浴银盆店", "pyname": "tzdzyypd", "kind": "A100", "zipcode": null, "telephone": "0731-89918533", "display_x": "112.9543", "display_y": "28.22197", "side": "L", "address": "银盆南路298号银盆大厦3层" }, "geometry": { "type": "Point", "coordinates": [ 112.94882226, 28.22545701 ] } },
{ "type": "Feature", "properties": { "gml_id": "layer_ent_pt.395156", "Name": "拓华网络会所", "pyname": "thwlhs", "kind": "6E00", "zipcode": null, "telephone": null, "display_x": "112.93924", "display_y": "28.1541", "side": "L", "address": null }, "geometry": { "type": "Point", "coordinates": [ 112.93379928, 28.15760966 ] } },
{ "type": "Feature", "properties": { "gml_id": "layer_ent_pt.395345", "Name": "漂亮女孩时尚烫染", "pyname": "plnhsstr", "kind": "A080", "zipcode": null, "telephone": null, "display_x": "112.93728", "display_y": "28.21189", "side": "L", "address": "嘉桐街20" }, "geometry": { "type": "Point", "coordinates": [ 112.93184196, 28.21540734 ] } },
{ "type": "Feature", "properties": { "gml_id": "layer_ent_pt.395379", "Name": "寻梦网络休闲中心", "pyname": "xmwlxxzx", "kind": "6E00", "zipcode": null, "telephone": null, "display_x": "112.94993", "display_y": "28.20354", "side": "L", "address": "白沙液街226" }, "geometry": { "type": "Point", "coordinates": [ 112.94446302, 28.20703446 ] } },
{ "type": "Feature", "properties": { "gml_id": "layer_ent_pt.395453", "Name": "开拓者网络会所", "pyname": "ktzwlhs", "kind": "6E00", "zipcode": "410013", "telephone": "13874997666", "display_x": "112.92034", "display_y": "28.21942", "side": "R", "address": "桐梓坡路366" }, "geometry": { "type": "Point", "coordinates": [ 112.91492556, 28.22295447 ] } },
{ "type": "Feature", "properties": { "gml_id": "layer_ent_pt.395630", "Name": "龙虎威网吧", "pyname": "lhwwb", "kind": "6E00", "zipcode": "410205", "telephone": "0731-85744595", "display_x": "112.91694", "display_y": "28.21925", "side": "R", "address": "桐梓坡路426" }, "geometry": { "type": "Point", "coordinates": [ 112.91152824, 28.22278577 ] } },
{ "type": "Feature", "properties": { "gml_id": "layer_ent_pt.395744", "Name": "升华网吧", "pyname": "shwb", "kind": "6E00", "zipcode": null, "telephone": null, "display_x": "112.93834", "display_y": "28.15444", "side": "R", "address": null }, "geometry": { "type": "Point", "coordinates": [ 112.93290108, 28.15795107 ] } },
{ "type": "Feature", "properties": { "gml_id": "layer_ent_pt.395787", "Name": "阳光ｅ网吧", "pyname": "ygewb", "kind": "6E00", "zipcode": null, "telephone": null, "display_x": "112.92037", "display_y": "28.20443", "side": "R", "address": "望新路167" }, "geometry": { "type": "Point", "coordinates": [ 112.9149558, 28.20796389 ] } },
{ "type": "Feature", "properties": { "gml_id": "layer_ent_pt.395793", "Name": "闪亮健身俱乐部", "pyname": "sljsjlb", "kind": "6D00", "zipcode": null, "telephone": "0731-84916528", "display_x": "112.94578", "display_y": "28.21808", "side": "L", "address": "桐梓坡路59" }, "geometry": { "type": "Point", "coordinates": [ 112.94032374, 28.22158364 ] } },
{ "type": "Feature", "properties": { "gml_id": "layer_ent_pt.395794", "Name": "红唇网吧", "pyname": "hcwb", "kind": "6E00", "zipcode": null, "telephone": null, "display_x": "112.93895", "display_y": "28.199", "side": "R", "address": "白云路" }, "geometry": { "type": "Point", "coordinates": [ 112.93350804, 28.20251363 ] } },
{ "type": "Feature", "properties": { "gml_id": "layer_ent_pt.395867", "Name": "湘浦网吧连锁宇翔分店", "pyname": "xpwblsyxfd", "kind": "6E00", "zipcode": null, "telephone": null, "display_x": "112.92544", "display_y": "28.17549", "side": "L", "address": null }, "geometry": { "type": "Point", "coordinates": [ 112.9200219, 28.17901859 ] } },
{ "type": "Feature", "properties": { "gml_id": "layer_ent_pt.396136", "Name": "嗅觉网络会所", "pyname": "xjwlhs", "kind": "6E00", "zipcode": null, "telephone": null, "display_x": "112.9489", "display_y": "28.16876", "side": "L", "address": "天马路118" }, "geometry": { "type": "Point", "coordinates": [ 112.94343738, 28.1722545 ] } },
{ "type": "Feature", "properties": { "gml_id": "layer_ent_pt.396188", "Name": "洋海塘网吧丛林奇兵连锁店", "pyname": "yhtwbclqblsd", "kind": "6E00", "zipcode": null, "telephone": null, "display_x": "112.92672", "display_y": "28.15921", "side": "R", "address": null }, "geometry": { "type": "Point", "coordinates": [ 112.92130242, 28.1627375 ] } },
{ "type": "Feature", "properties": { "gml_id": "layer_ent_pt.396245", "Name": "开开羽毛球馆", "pyname": "kkymqg", "kind": "6601", "zipcode": "410013", "telephone": "0731-84127755", "display_x": "112.93945", "display_y": "28.21802", "side": "R", "address": "桐梓坡路178" }, "geometry": { "type": "Point", "coordinates": [ 112.93400736, 28.22153405 ] } },
{ "type": "Feature", "properties": { "gml_id": "layer_ent_pt.396413", "Name": "东方红广场", "pyname": "dfhgc", "kind": "7380", "zipcode": null, "telephone": null, "display_x": "112.94378", "display_y": "28.17949", "side": "R", "address": "麓山南路" }, "geometry": { "type": "Point", "coordinates": [ 112.93832844, 28.1829942 ] } },
{ "type": "Feature", "properties": { "gml_id": "layer_ent_pt.396515", "Name": "二轻网吧", "pyname": "eqwb", "kind": "6E00", "zipcode": "410006", "telephone": null, "display_x": "112.95064", "display_y": "28.19262", "side": "R", "address": "麓山路63" }, "geometry": { "type": "Point", "coordinates": [ 112.94517186, 28.19611265 ] } },
{ "type": "Feature", "properties": { "gml_id": "layer_ent_pt.396728", "Name": "骄子楼网吧", "pyname": "jzlwb", "kind": "6E00", "zipcode": "410006", "telephone": null, "display_x": "112.94732", "display_y": "28.18228", "side": "L", "address": "麓山路305" }, "geometry": { "type": "Point", "coordinates": [ 112.94186058, 28.18577858 ] } },
{ "type": "Feature", "properties": { "gml_id": "layer_ent_pt.396732", "Name": "洋洋网吧", "pyname": "yywb", "kind": "6E00", "zipcode": null, "telephone": "13117517797", "display_x": "112.92259", "display_y": "28.2149", "side": "L", "address": null }, "geometry": { "type": "Point", "coordinates": [ 112.91717358, 28.21843323 ] } },
{ "type": "Feature", "properties": { "gml_id": "layer_ent_pt.396736", "Name": "网友网络会所", "pyname": "wywlhs", "kind": "6E00", "zipcode": null, "telephone": null, "display_x": "112.95587", "display_y": "28.20438", "side": "L", "address": "月宫街67" }, "geometry": { "type": "Point", "coordinates": [ 112.95038934, 28.2078639 ] } },
{ "type": "Feature", "properties": { "gml_id": "layer_ent_pt.396737", "Name": "学海网吧", "pyname": "xhwb", "kind": "6E00", "zipcode": null, "telephone": "15116364728", "display_x": "112.95583", "display_y": "28.20449", "side": "L", "address": "月宫街91" }, "geometry": { "type": "Point", "coordinates": [ 112.95034956, 28.20797402 ] } },
{ "type": "Feature", "properties": { "gml_id": "layer_ent_pt.396738", "Name": "动感之赏美发连锁沙龙新外滩店", "pyname": "dgzsmflsslxwtd", "kind": "A080", "zipcode": null, "telephone": "0731-88633133", "display_x": "112.95568", "display_y": "28.19928", "side": "R", "address": "银盆南路40－1" }, "geometry": { "type": "Point", "coordinates": [ 112.95019944, 28.20276369 ] } },
{ "type": "Feature", "properties": { "gml_id": "layer_ent_pt.396841", "Name": "超哥网吧", "pyname": "cgwb", "kind": "6E00", "zipcode": null, "telephone": "0731-88837300", "display_x": "112.94852", "display_y": "28.16833", "side": "R", "address": "天马路115号" }, "geometry": { "type": "Point", "coordinates": [ 112.94305812, 28.17182507 ] } },
{ "type": "Feature", "properties": { "gml_id": "layer_ent_pt.396846", "Name": "天韵量贩式KTV", "pyname": "tylfsk", "kind": "6680", "zipcode": null, "telephone": "13627492462", "display_x": "112.93848", "display_y": "28.16555", "side": "R", "address": "麓山南路521" }, "geometry": { "type": "Point", "coordinates": [ 112.93304022, 28.16906157 ] } },
{ "type": "Feature", "properties": { "gml_id": "layer_ent_pt.396847", "Name": "泓一网吧", "pyname": "hywb", "kind": "6E00", "zipcode": null, "telephone": null, "display_x": "112.93902", "display_y": "28.16555", "side": "R", "address": "麓山南路495号附近" }, "geometry": { "type": "Point", "coordinates": [ 112.93357896, 28.16906067 ] } },
{ "type": "Feature", "properties": { "gml_id": "layer_ent_pt.396918", "Name": "子阳健身俱乐部", "pyname": "zyjsjlb", "kind": "6D00", "zipcode": "410006", "telephone": "0731-88612188", "display_x": "112.95257", "display_y": "28.19544", "side": "L", "address": "枫林一路39号通程商业广场麓山店5层" }, "geometry": { "type": "Point", "coordinates": [ 112.94709714, 28.19892924 ] } },
{ "type": "Feature", "properties": { "gml_id": "layer_ent_pt.396978", "Name": "恒日网络会所", "pyname": "hrwlhs", "kind": "6E00", "zipcode": null, "telephone": null, "display_x": "112.95466", "display_y": "28.19964", "side": "R", "address": "白沙液街1－1" }, "geometry": { "type": "Point", "coordinates": [ 112.9491819, 28.20312554 ] } },
{ "type": "Feature", "properties": { "gml_id": "layer_ent_pt.397034", "Name": "亿鑫影城", "pyname": "yxyc", "kind": "6500", "zipcode": "410006", "telephone": "0731-88854588", "display_x": "112.95307", "display_y": "28.19554", "side": "L", "address": "枫林一路39号通程商业广场麓山店5层" }, "geometry": { "type": "Point", "coordinates": [ 112.94759592, 28.19902833 ] } },
{ "type": "Feature", "properties": { "gml_id": "layer_ent_pt.397189", "Name": "米兰国际烫染连锁公社", "pyname": "mlgjtrlsgs", "kind": "A080", "zipcode": null, "telephone": "0731-84116772", "display_x": "112.9248", "display_y": "28.21486", "side": "R", "address": null }, "geometry": { "type": "Point", "coordinates": [ 112.91937984, 28.21839057 ] } },
{ "type": "Feature", "properties": { "gml_id": "layer_ent_pt.397282", "Name": "名人坊湖大店", "pyname": "mrfhdd", "kind": "A080", "zipcode": null, "telephone": "18942505640", "display_x": "112.92641", "display_y": "28.20082", "side": "R", "address": "石佳冲路" }, "geometry": { "type": "Point", "coordinates": [ 112.9209894, 28.20434954 ] } },
{ "type": "Feature", "properties": { "gml_id": "layer_ent_pt.397290", "Name": "廊桥寻梦", "pyname": "lqxm", "kind": "6D00", "zipcode": null, "telephone": "0731-88273333", "display_x": "112.95625", "display_y": "28.20045", "side": "L", "address": "银盆南路60号" }, "geometry": { "type": "Point", "coordinates": [ 112.95076824, 28.20393279 ] } },
{ "type": "Feature", "properties": { "gml_id": "layer_ent_pt.397423", "Name": "嘉文网络新世界", "pyname": "jwwlxsj", "kind": "6E00", "zipcode": null, "telephone": "0731-82651021", "display_x": "112.94378", "display_y": "28.16986", "side": "L", "address": "麓山南路416号附近" }, "geometry": { "type": "Point", "coordinates": [ 112.93832844, 28.17336317 ] } },
{ "type": "Feature", "properties": { "gml_id": "layer_ent_pt.397469", "Name": "傲剪坊", "pyname": "ajf", "kind": "A080", "zipcode": null, "telephone": "0731-88650499", "display_x": "112.94823", "display_y": "28.16858", "side": "L", "address": "天马路156号附近" }, "geometry": { "type": "Point", "coordinates": [ 112.94276886, 28.17207558 ] } },
{ "type": "Feature", "properties": { "gml_id": "layer_ent_pt.397470", "Name": "学友网吧城", "pyname": "xywbc", "kind": "6E00", "zipcode": null, "telephone": "15084986785", "display_x": "112.94828", "display_y": "28.16859", "side": "L", "address": "天马路148" }, "geometry": { "type": "Point", "coordinates": [ 112.94281872, 28.17208548 ] } },
{ "type": "Feature", "properties": { "gml_id": "layer_ent_pt.397489", "Name": "欢乐迪量贩KTV", "pyname": "hldlfk", "kind": "6680", "zipcode": null, "telephone": "0731-85589328", "display_x": "112.94111", "display_y": "28.1669", "side": "L", "address": "麓山南路570" }, "geometry": { "type": "Point", "coordinates": [ 112.93566444, 28.17040734 ] } },
{ "type": "Feature", "properties": { "gml_id": "layer_ent_pt.397559", "Name": "丝美特品牌会员店", "pyname": "smtpphyd", "kind": "A080", "zipcode": null, "telephone": null, "display_x": "112.93226", "display_y": "28.21649", "side": "L", "address": "沁园春·御院底商4－117" }, "geometry": { "type": "Point", "coordinates": [ 112.92682842, 28.22001215 ] } },
{ "type": "Feature", "properties": { "gml_id": "layer_ent_pt.397566", "Name": "幕语汽车影苑", "pyname": "myqcyy", "kind": "6500", "zipcode": null, "telephone": null, "display_x": "112.95326", "display_y": "28.21284", "side": "L", "address": "咸嘉湖路8王陵公园" }, "geometry": { "type": "Point", "coordinates": [ 112.947786, 28.21632962 ] } },
{ "type": "Feature", "properties": { "gml_id": "layer_ent_pt.397567", "Name": "天颐养生会所长沙岳麓分中心", "pyname": "tyyshscsylfzx", "kind": "A100", "zipcode": null, "telephone": "0731-84281555", "display_x": "112.95532", "display_y": "28.21622", "side": "R", "address": "麓源路" }, "geometry": { "type": "Point", "coordinates": [ 112.94984124, 28.2197061 ] } },
{ "type": "Feature", "properties": { "gml_id": "layer_ent_pt.397576", "Name": "碧嘉乐酒吧", "pyname": "bjljb", "kind": "1500", "zipcode": null, "telephone": "0731-88237979", "display_x": "112.94959", "display_y": "28.16332", "side": "L", "address": "文化酒吧街7栋" }, "geometry": { "type": "Point", "coordinates": [ 112.94412606, 28.16681288 ] } },
{ "type": "Feature", "properties": { "gml_id": "layer_ent_pt.397695", "Name": "西联连锁鑫龙网络会所", "pyname": "xllsxlwlhs", "kind": "6E00", "zipcode": null, "telephone": "13054164036", "display_x": "112.92193", "display_y": "28.22321", "side": "R", "address": "望岳路52" }, "geometry": { "type": "Point", "coordinates": [ 112.91651388, 28.22674347 ] } },
{ "type": "Feature", "properties": { "gml_id": "layer_ent_pt.397822", "Name": "迪尔台球会所", "pyname": "detqhs", "kind": "6D00", "zipcode": null, "telephone": null, "display_x": "112.93438", "display_y": "28.16388", "side": "R", "address": "麓山南路739号3楼" }, "geometry": { "type": "Point", "coordinates": [ 112.92894918, 28.16739828 ] } },
{ "type": "Feature", "properties": { "gml_id": "layer_ent_pt.397823", "Name": "阿凡达网吧", "pyname": "afdwb", "kind": "6E00", "zipcode": null, "telephone": null, "display_x": "112.93438", "display_y": "28.16388", "side": "R", "address": "麓山南路739号3楼" }, "geometry": { "type": "Point", "coordinates": [ 112.92894918, 28.16739828 ] } },
{ "type": "Feature", "properties": { "gml_id": "layer_ent_pt.397853", "Name": "家富富侨", "pyname": "jffq", "kind": "A100", "zipcode": null, "telephone": "0731-85120666", "display_x": "112.93108", "display_y": "28.21736", "side": "L", "address": null }, "geometry": { "type": "Point", "coordinates": [ 112.92564996, 28.2208833 ] } },
{ "type": "Feature", "properties": { "gml_id": "layer_ent_pt.397856", "Name": "咸嘉湖网吧", "pyname": "xjhwb", "kind": "6E00", "zipcode": null, "telephone": null, "display_x": "112.9366", "display_y": "28.21233", "side": "R", "address": "嘉桐街59号附近" }, "geometry": { "type": "Point", "coordinates": [ 112.93116282, 28.21584803 ] } },
{ "type": "Feature", "properties": { "gml_id": "layer_ent_pt.397859", "Name": "大名仕美容美发总店", "pyname": "dmsmrmfzd", "kind": "A080", "zipcode": "410006", "telephone": "13707316926", "display_x": "112.95312", "display_y": "28.19216", "side": "L", "address": "新民路107" }, "geometry": { "type": "Point", "coordinates": [ 112.94764614, 28.19564825 ] } },
{ "type": "Feature", "properties": { "gml_id": "layer_ent_pt.397877", "Name": "炜炜网吧", "pyname": "wwwb", "kind": "6E00", "zipcode": null, "telephone": null, "display_x": "112.91745", "display_y": "28.21581", "side": "R", "address": "望新路384号附近" }, "geometry": { "type": "Point", "coordinates": [ 112.91203818, 28.21934597 ] } },
{ "type": "Feature", "properties": { "gml_id": "layer_ent_pt.397917", "Name": "华澳网吧连锁旗舰店", "pyname": "hawblsqjd", "kind": "6E00", "zipcode": null, "telephone": null, "display_x": "112.94578", "display_y": "28.21808", "side": "L", "address": "桐梓坡路59" }, "geometry": { "type": "Point", "coordinates": [ 112.94032374, 28.22158364 ] } },
{ "type": "Feature", "properties": { "gml_id": "layer_ent_pt.397931", "Name": "中南大学新体育馆", "pyname": "zndxxtyg", "kind": "6600", "zipcode": null, "telephone": null, "display_x": "112.93406", "display_y": "28.15304", "side": "L", "address": "中南大学（新校区）" }, "geometry": { "type": "Point", "coordinates": [ 112.92863022, 28.15655792 ] } },
{ "type": "Feature", "properties": { "gml_id": "layer_ent_pt.397939", "Name": "唯一网吧", "pyname": "wywb", "kind": "6E00", "zipcode": null, "telephone": "0731-88650228", "display_x": "112.93339", "display_y": "28.21606", "side": "R", "address": "白鹤咀街010" }, "geometry": { "type": "Point", "coordinates": [ 112.92795684, 28.219581 ] } },
{ "type": "Feature", "properties": { "gml_id": "layer_ent_pt.397940", "Name": "加西台乒", "pyname": "jxtp", "kind": "6D00", "zipcode": null, "telephone": null, "display_x": "112.95297", "display_y": "28.22322", "side": "L", "address": "银双路28－3" }, "geometry": { "type": "Point", "coordinates": [ 112.94749602, 28.22671013 ] } },
{ "type": "Feature", "properties": { "gml_id": "layer_ent_pt.397941", "Name": "大新福网络会所", "pyname": "dxfwlhs", "kind": "6E00", "zipcode": null, "telephone": "13786186295", "display_x": "112.95243", "display_y": "28.22355", "side": "L", "address": "彩虹路" }, "geometry": { "type": "Point", "coordinates": [ 112.94695764, 28.22704146 ] } },
{ "type": "Feature", "properties": { "gml_id": "layer_ent_pt.398133", "Name": "嗨乐KTV量贩天马店", "pyname": "hlklftmd", "kind": "6680", "zipcode": null, "telephone": "0731-88838988", "display_x": "112.9494", "display_y": "28.16327", "side": "L", "address": "麻园路" }, "geometry": { "type": "Point", "coordinates": [ 112.94393652, 28.1667632 ] } },
{ "type": "Feature", "properties": { "gml_id": "layer_ent_pt.398142", "Name": "钰樽楼美发足浴养生会所", "pyname": "yzlmfzyyshs", "kind": "A100", "zipcode": "410013", "telephone": "0731-88169788", "display_x": "112.92124", "display_y": "28.21949", "side": "R", "address": "桐梓坡路348" }, "geometry": { "type": "Point", "coordinates": [ 112.91582502, 28.22302413 ] } },
{ "type": "Feature", "properties": { "gml_id": "layer_ent_pt.398192", "Name": "廉政文化广场", "pyname": "lzwhgc", "kind": "7380", "zipcode": null, "telephone": null, "display_x": "112.93199", "display_y": "28.21", "side": "L", "address": "咸嘉湖路佳兴·格林星城旁" }, "geometry": { "type": "Point", "coordinates": [ 112.9265604, 28.21352342 ] } },
{ "type": "Feature", "properties": { "gml_id": "layer_ent_pt.398480", "Name": "值通网络会所", "pyname": "ztwlhs", "kind": "6E00", "zipcode": null, "telephone": null, "display_x": "112.9229", "display_y": "28.21602", "side": "R", "address": "润泽园A－1号附近" }, "geometry": { "type": "Point", "coordinates": [ 112.917483, 28.21955292 ] } },
{ "type": "Feature", "properties": { "gml_id": "layer_ent_pt.398518", "Name": "自由天空网吧协民分店", "pyname": "zytkwbxmfd", "kind": "6E00", "zipcode": null, "telephone": "0731-88680212", "display_x": "112.93251", "display_y": "28.21285", "side": "L", "address": "咸嘉湖西路86" }, "geometry": { "type": "Point", "coordinates": [ 112.9270788, 28.21637241 ] } },
{ "type": "Feature", "properties": { "gml_id": "layer_ent_pt.398818", "Name": "阳光快车道网络会所", "pyname": "ygkcdwlhs", "kind": "6E00", "zipcode": null, "telephone": null, "display_x": "112.92235", "display_y": "28.16854", "side": "R", "address": "溁左路" }, "geometry": { "type": "Point", "coordinates": [ 112.91693562, 28.17207018 ] } },
{ "type": "Feature", "properties": { "gml_id": "layer_ent_pt.398819", "Name": "广茂网吧", "pyname": "gmwb", "kind": "6E00", "zipcode": null, "telephone": null, "display_x": "112.92216", "display_y": "28.16793", "side": "R", "address": "溁左路" }, "geometry": { "type": "Point", "coordinates": [ 112.9167459, 28.1714603 ] } },
{ "type": "Feature", "properties": { "gml_id": "layer_ent_pt.398833", "Name": "加速网络会所", "pyname": "jswlhs", "kind": "6E00", "zipcode": "410205", "telephone": "13974845828", "display_x": "112.92216", "display_y": "28.20926", "side": "R", "address": "枫林二路349" }, "geometry": { "type": "Point", "coordinates": [ 112.91674464, 28.21279374 ] } },
{ "type": "Feature", "properties": { "gml_id": "layer_ent_pt.398908", "Name": "你好时尚专业美发连锁财专NO．1", "pyname": "nhsszymflsczn1", "kind": "A080", "zipcode": null, "telephone": "13975844597", "display_x": "112.92628", "display_y": "28.20087", "side": "R", "address": "望新路41号附近" }, "geometry": { "type": "Point", "coordinates": [ 112.92085962, 28.20439962 ] } },
{ "type": "Feature", "properties": { "gml_id": "layer_ent_pt.398937", "Name": "水云涧足浴养生茗苑休闲会所", "pyname": "syjzyysmyxxhs", "kind": "A100", "zipcode": null, "telephone": "0731-88683979", "display_x": "112.93388", "display_y": "28.22271", "side": "R", "address": "金星中路475" }, "geometry": { "type": "Point", "coordinates": [ 112.92844446, 28.22622944 ] } },
{ "type": "Feature", "properties": { "gml_id": "layer_ent_pt.398945", "Name": "御水足浴", "pyname": "yszy", "kind": "A100", "zipcode": "410006", "telephone": "0731-85228532", "display_x": "112.94969", "display_y": "28.19845", "side": "R", "address": "枫林路225" }, "geometry": { "type": "Point", "coordinates": [ 112.94422326, 28.20194433 ] } },
{ "type": "Feature", "properties": { "gml_id": "layer_ent_pt.399016", "Name": "简美发艺造型沙龙", "pyname": "jmfyzxsl", "kind": "A080", "zipcode": "410006", "telephone": "0731-82130161", "display_x": "112.95454", "display_y": "28.19181", "side": "R", "address": "新民路39" }, "geometry": { "type": "Point", "coordinates": [ 112.9490631, 28.19529576 ] } },
{ "type": "Feature", "properties": { "gml_id": "layer_ent_pt.399066", "Name": "天信网络会所", "pyname": "txwlhs", "kind": "6E00", "zipcode": null, "telephone": null, "display_x": "112.93162", "display_y": "28.19616", "side": "R", "address": "校区路" }, "geometry": { "type": "Point", "coordinates": [ 112.92619374, 28.19968547 ] } },
{ "type": "Feature", "properties": { "gml_id": "layer_ent_pt.399226", "Name": "晚风KTV中南店", "pyname": "wfkznd", "kind": "6680", "zipcode": null, "telephone": "0731-88867788", "display_x": "112.93834", "display_y": "28.15444", "side": "R", "address": null }, "geometry": { "type": "Point", "coordinates": [ 112.93290108, 28.15795107 ] } },
{ "type": "Feature", "properties": { "gml_id": "layer_ent_pt.399251", "Name": "在水一方休闲会所河西店", "pyname": "zsyfxxhshxd", "kind": "A100", "zipcode": null, "telephone": "0731-88922998", "display_x": "112.95663", "display_y": "28.21383", "side": "L", "address": "景秀路4" }, "geometry": { "type": "Point", "coordinates": [ 112.95114786, 28.21731336 ] } },
{ "type": "Feature", "properties": { "gml_id": "layer_ent_pt.399346", "Name": "在线恋歌坊量贩式KTV", "pyname": "zxlgflfsk", "kind": "6680", "zipcode": null, "telephone": "0731-88631958", "display_x": "112.93903", "display_y": "28.16566", "side": "R", "address": "麓山南路495号附近" }, "geometry": { "type": "Point", "coordinates": [ 112.93358886, 28.1691707 ] } },
{ "type": "Feature", "properties": { "gml_id": "layer_ent_pt.399451", "Name": "湖大英语公园", "pyname": "hdyygy", "kind": "7300", "zipcode": null, "telephone": null, "display_x": "112.94518", "display_y": "28.17851", "side": "R", "address": "麓山南路3号附近" }, "geometry": { "type": "Point", "coordinates": [ 112.93972542, 28.18201176 ] } },
{ "type": "Feature", "properties": { "gml_id": "layer_ent_pt.399452", "Name": "湖南大学体育场", "pyname": "hndxtyc", "kind": "6600", "zipcode": null, "telephone": "0731-88821270", "display_x": "112.94548", "display_y": "28.17992", "side": "R", "address": "麓山南路湖南大学内" }, "geometry": { "type": "Point", "coordinates": [ 112.94002476, 28.18342139 ] } },
{ "type": "Feature", "properties": { "gml_id": "layer_ent_pt.399453", "Name": "领航网吧", "pyname": "lhwb", "kind": "6E00", "zipcode": null, "telephone": null, "display_x": "112.95526", "display_y": "28.18893", "side": "R", "address": "潇湘中路122号附近" }, "geometry": { "type": "Point", "coordinates": [ 112.94978166, 28.19241446 ] } },
{ "type": "Feature", "properties": { "gml_id": "layer_ent_pt.399454", "Name": "通程网络会所", "pyname": "tcwlhs", "kind": "6E00", "zipcode": null, "telephone": null, "display_x": "112.95198", "display_y": "28.19467", "side": "R", "address": "麓山路7号附近" }, "geometry": { "type": "Point", "coordinates": [ 112.94650854, 28.19816028 ] } },
{ "type": "Feature", "properties": { "gml_id": "layer_ent_pt.399640", "Name": "水玲珑·梵妮莎美容会所玛依拉店", "pyname": "sllfnsmrhsmyld", "kind": "A080", "zipcode": null, "telephone": "0731-88807840", "display_x": "112.93472", "display_y": "28.21242", "side": "L", "address": "咸嘉湖西路54" }, "geometry": { "type": "Point", "coordinates": [ 112.9292856, 28.21594005 ] } },
{ "type": "Feature", "properties": { "gml_id": "layer_ent_pt.399645", "Name": "湘惠网吧", "pyname": "xhwb", "kind": "6E00", "zipcode": null, "telephone": null, "display_x": "112.94456", "display_y": "28.21474", "side": "L", "address": "岳华路45" }, "geometry": { "type": "Point", "coordinates": [ 112.93910622, 28.2182454 ] } },
{ "type": "Feature", "properties": { "gml_id": "layer_ent_pt.399789", "Name": "金城歌舞汇", "pyname": "jcgwh", "kind": "6C00", "zipcode": "410205", "telephone": null, "display_x": "112.91578", "display_y": "28.21094", "side": "L", "address": "枫林二路550号附近" }, "geometry": { "type": "Point", "coordinates": [ 112.91036994, 28.21447692 ] } },
{ "type": "Feature", "properties": { "gml_id": "layer_ent_pt.399986", "Name": "御康", "pyname": "yk", "kind": "A100", "zipcode": "410006", "telephone": null, "display_x": "112.95519", "display_y": "28.19161", "side": "R", "address": "新民路17" }, "geometry": { "type": "Point", "coordinates": [ 112.94971164, 28.19509461 ] } },
{ "type": "Feature", "properties": { "gml_id": "layer_ent_pt.400121", "Name": "尚艺麓山路名瑞店", "pyname": "sylslmrd", "kind": "A080", "zipcode": "410006", "telephone": "18229909661", "display_x": "112.95034", "display_y": "28.19121", "side": "R", "address": "麓山路131" }, "geometry": { "type": "Point", "coordinates": [ 112.9448727, 28.1947032 ] } },
{ "type": "Feature", "properties": { "gml_id": "layer_ent_pt.400263", "Name": "比歌量贩连锁KTV宾果店", "pyname": "bglflskbgd", "kind": "6680", "zipcode": null, "telephone": "0731-85772022", "display_x": "112.95637", "display_y": "28.21515", "side": "L", "address": "银盆南路" }, "geometry": { "type": "Point", "coordinates": [ 112.9508883, 28.21863362 ] } },
{ "type": "Feature", "properties": { "gml_id": "layer_ent_pt.400365", "Name": "非凡台球英才店", "pyname": "fftqycd", "kind": "6D00", "zipcode": null, "telephone": null, "display_x": "112.94472", "display_y": "28.21801", "side": "L", "address": "桐梓坡路" }, "geometry": { "type": "Point", "coordinates": [ 112.93926624, 28.22151551 ] } },
{ "type": "Feature", "properties": { "gml_id": "layer_ent_pt.400504", "Name": "佳美恋专业美发", "pyname": "jmlzymf", "kind": "A080", "zipcode": null, "telephone": "15074847709", "display_x": "112.9405", "display_y": "28.21762", "side": "L", "address": "桐梓坡路223" }, "geometry": { "type": "Point", "coordinates": [ 112.93505586, 28.22113296 ] } },
{ "type": "Feature", "properties": { "gml_id": "layer_ent_pt.400691", "Name": "金叶保健", "pyname": "jybj", "kind": "A100", "zipcode": "410006", "telephone": "0731-88866198", "display_x": "112.95125", "display_y": "28.19325", "side": "L", "address": "新民路116" }, "geometry": { "type": "Point", "coordinates": [ 112.94578044, 28.19674157 ] } },
{ "type": "Feature", "properties": { "gml_id": "layer_ent_pt.400729", "Name": "春燕理容中心", "pyname": "cylrzx", "kind": "A080", "zipcode": null, "telephone": null, "display_x": "112.95606", "display_y": "28.20549", "side": "R", "address": "月宫街110" }, "geometry": { "type": "Point", "coordinates": [ 112.95057906, 28.20897374 ] } },
{ "type": "Feature", "properties": { "gml_id": "layer_ent_pt.400749", "Name": "麓溪峪度假山庄", "pyname": "lxydjsz", "kind": "6700", "zipcode": null, "telephone": null, "display_x": "112.92107", "display_y": "28.18416", "side": "L", "address": null }, "geometry": { "type": "Point", "coordinates": [ 112.9156551, 28.18769126 ] } },
{ "type": "Feature", "properties": { "gml_id": "layer_ent_pt.400759", "Name": "湖南师范大学体育场", "pyname": "hnsfdxtyc", "kind": "6600", "zipcode": null, "telephone": null, "display_x": "112.95198", "display_y": "28.1839", "side": "R", "address": "麓山路36号湖南师范大学" }, "geometry": { "type": "Point", "coordinates": [ 112.9465098, 28.1873903 ] } },
{ "type": "Feature", "properties": { "gml_id": "layer_ent_pt.400912", "Name": "剪艺派发型艺术", "pyname": "jypfxys", "kind": "A080", "zipcode": "410013", "telephone": "13319553753", "display_x": "112.94122", "display_y": "28.21764", "side": "L", "address": "桐梓坡路187" }, "geometry": { "type": "Point", "coordinates": [ 112.93577424, 28.22115173 ] } },
{ "type": "Feature", "properties": { "gml_id": "layer_ent_pt.400918", "Name": "克丽缇娜特许缤缤美容院", "pyname": "kltntxbbmry", "kind": "A080", "zipcode": null, "telephone": "0731-84476368", "display_x": "112.95673", "display_y": "28.21385", "side": "L", "address": "景秀路2号附近" }, "geometry": { "type": "Point", "coordinates": [ 112.95124758, 28.21733307 ] } },
{ "type": "Feature", "properties": { "gml_id": "layer_ent_pt.401163", "Name": "长沙王陵公园北门", "pyname": "cswlgybm", "kind": "7300", "zipcode": "410013", "telephone": null, "display_x": "112.95082", "display_y": "28.21351", "side": "L", "address": "咸嘉湖路8" }, "geometry": { "type": "Point", "coordinates": [ 112.94535168, 28.21700403 ] } },
{ "type": "Feature", "properties": { "gml_id": "layer_ent_pt.401209", "Name": "千头万绪专业美发SALON", "pyname": "qtwxzymfs", "kind": "A080", "zipcode": null, "telephone": null, "display_x": "112.94834", "display_y": "28.16859", "side": "L", "address": "天马路" }, "geometry": { "type": "Point", "coordinates": [ 112.94287866, 28.17208539 ] } },
{ "type": "Feature", "properties": { "gml_id": "layer_ent_pt.401315", "Name": "名扬造型NO．005", "pyname": "myzxn005", "kind": "A080", "zipcode": null, "telephone": "15573116776", "display_x": "112.93897", "display_y": "28.16573", "side": "R", "address": "麓山南路495" }, "geometry": { "type": "Point", "coordinates": [ 112.9335291, 28.16924081 ] } },
{ "type": "Feature", "properties": { "gml_id": "layer_ent_pt.401436", "Name": "橘子洲沙滩游乐园", "pyname": "jzzstyly", "kind": "6300", "zipcode": null, "telephone": null, "display_x": "112.96369", "display_y": "28.20064", "side": "L", "address": "桔洲路橘子洲内" }, "geometry": { "type": "Point", "coordinates": [ 112.95819, 28.20410856 ] } },
{ "type": "Feature", "properties": { "gml_id": "layer_ent_pt.401500", "Name": "百度空间沙龙专业烫染润泽园店", "pyname": "bdkjslzytrrzyd", "kind": "A080", "zipcode": null, "telephone": null, "display_x": "112.924", "display_y": "28.21602", "side": "R", "address": "润泽园B－7号附近" }, "geometry": { "type": "Point", "coordinates": [ 112.91858118, 28.21955153 ] } },
{ "type": "Feature", "properties": { "gml_id": "layer_ent_pt.401501", "Name": "博联圣域网络会所商学院店", "pyname": "blsywlhssxyd", "kind": "6E00", "zipcode": null, "telephone": null, "display_x": "112.92121", "display_y": "28.21817", "side": "R", "address": "桐梓坡路B－110－2" }, "geometry": { "type": "Point", "coordinates": [ 112.91579514, 28.22170428 ] } },
{ "type": "Feature", "properties": { "gml_id": "layer_ent_pt.401510", "Name": "9420台球会所", "pyname": "9420tqhs", "kind": "6D00", "zipcode": null, "telephone": "14789898988", "display_x": "112.94871", "display_y": "28.16869", "side": "L", "address": "天马路" }, "geometry": { "type": "Point", "coordinates": [ 112.94324784, 28.1721848 ] } },
{ "type": "Feature", "properties": { "gml_id": "layer_ent_pt.401589", "Name": "圣罗兰发艺", "pyname": "sllfy", "kind": "A080", "zipcode": null, "telephone": null, "display_x": "112.95347", "display_y": "28.19375", "side": "L", "address": "岳民巷8" }, "geometry": { "type": "Point", "coordinates": [ 112.94799516, 28.19723765 ] } },
{ "type": "Feature", "properties": { "gml_id": "layer_ent_pt.401594", "Name": "克丽缇娜缤露美容院", "pyname": "kltnblmry", "kind": "A080", "zipcode": null, "telephone": "0731-88612652", "display_x": "112.93057", "display_y": "28.21739", "side": "L", "address": "沁园春·御院底商1－112" }, "geometry": { "type": "Point", "coordinates": [ 112.92514074, 28.22091386 ] } },
{ "type": "Feature", "properties": { "gml_id": "layer_ent_pt.401728", "Name": "星之缘网吧", "pyname": "xzywb", "kind": "6E00", "zipcode": null, "telephone": null, "display_x": "112.93198", "display_y": "28.19519", "side": "L", "address": "校区路" }, "geometry": { "type": "Point", "coordinates": [ 112.92655356, 28.19871522 ] } },
{ "type": "Feature", "properties": { "gml_id": "layer_ent_pt.401729", "Name": "主流形象设计", "pyname": "zlxxsj", "kind": "A080", "zipcode": null, "telephone": "0731-84865911", "display_x": "112.93259", "display_y": "28.20165", "side": "L", "address": "石佳冲路32" }, "geometry": { "type": "Point", "coordinates": [ 112.92716142, 28.20517403 ] } },
{ "type": "Feature", "properties": { "gml_id": "layer_ent_pt.401748", "Name": "海阔天空网吧", "pyname": "hktkwb", "kind": "6E00", "zipcode": null, "telephone": null, "display_x": "112.93226", "display_y": "28.21642", "side": "L", "address": "裕民巷" }, "geometry": { "type": "Point", "coordinates": [ 112.92682842, 28.21994217 ] } },
{ "type": "Feature", "properties": { "gml_id": "layer_ent_pt.401795", "Name": "随君网络会所", "pyname": "sjwlhs", "kind": "6E00", "zipcode": null, "telephone": null, "display_x": "112.92194", "display_y": "28.21673", "side": "R", "address": "望岳南路031－3" }, "geometry": { "type": "Point", "coordinates": [ 112.91652486, 28.22026419 ] } },
{ "type": "Feature", "properties": { "gml_id": "layer_ent_pt.401809", "Name": "雅尼轩", "pyname": "ynx", "kind": "A080", "zipcode": null, "telephone": "0731-88299198", "display_x": "112.95216", "display_y": "28.22262", "side": "R", "address": "银双路56号香麓丽舍3层" }, "geometry": { "type": "Point", "coordinates": [ 112.9466889, 28.22611248 ] } },
{ "type": "Feature", "properties": { "gml_id": "layer_ent_pt.401810", "Name": "南风网络会所", "pyname": "nfwlhs", "kind": "6E00", "zipcode": null, "telephone": null, "display_x": "112.95512", "display_y": "28.19804", "side": "L", "address": "银盆南路" }, "geometry": { "type": "Point", "coordinates": [ 112.9496409, 28.20152471 ] } },
{ "type": "Feature", "properties": { "gml_id": "layer_ent_pt.401852", "Name": "悦容美荟美容美发连锁", "pyname": "yrmhmrmfls", "kind": "A080", "zipcode": null, "telephone": "0731-88802948", "display_x": "112.95326", "display_y": "28.21975", "side": "R", "address": "桐梓坡路" }, "geometry": { "type": "Point", "coordinates": [ 112.94778654, 28.2232404 ] } },
{ "type": "Feature", "properties": { "gml_id": "layer_ent_pt.401853", "Name": "艺美造型", "pyname": "ymzx", "kind": "A080", "zipcode": null, "telephone": null, "display_x": "112.92283", "display_y": "28.22221", "side": "L", "address": "晨风路102" }, "geometry": { "type": "Point", "coordinates": [ 112.91741334, 28.22574326 ] } },
{ "type": "Feature", "properties": { "gml_id": "layer_ent_pt.401854", "Name": "幸福SPA国际美容美发连锁中心", "pyname": "xfsgjmrmflszx", "kind": "A080", "zipcode": null, "telephone": "0731-82090110", "display_x": "112.92838", "display_y": "28.22339", "side": "L", "address": "谷丰南路" }, "geometry": { "type": "Point", "coordinates": [ 112.9229541, 28.22691645 ] } },
{ "type": "Feature", "properties": { "gml_id": "layer_ent_pt.401855", "Name": "兮一瑜伽", "pyname": "xyyj", "kind": "A080", "zipcode": null, "telephone": "0731-88907133", "display_x": "112.93193", "display_y": "28.21836", "side": "N", "address": null }, "geometry": { "type": "Point", "coordinates": [ 112.92649848, 28.22188226 ] } },
{ "type": "Feature", "properties": { "gml_id": "layer_ent_pt.401856", "Name": "永琪美容美发全国直营连锁机构", "pyname": "yqmrmfqgzylsjg", "kind": "A080", "zipcode": null, "telephone": "18684717343", "display_x": "112.93096", "display_y": "28.21737", "side": "L", "address": "沁园春·御院底商1－118" }, "geometry": { "type": "Point", "coordinates": [ 112.92553008, 28.22089343 ] } },
{ "type": "Feature", "properties": { "gml_id": "layer_ent_pt.401857", "Name": "鸿旗网络会所", "pyname": "hqwlhs", "kind": "6E00", "zipcode": null, "telephone": "15874078481", "display_x": "112.92663", "display_y": "28.21453", "side": "R", "address": "润泽园小区C2栋" }, "geometry": { "type": "Point", "coordinates": [ 112.9212072, 28.21805861 ] } },
{ "type": "Feature", "properties": { "gml_id": "layer_ent_pt.401859", "Name": "帝秀造型咸嘉湖店", "pyname": "dxzxxjhd", "kind": "A080", "zipcode": null, "telephone": "15874026153", "display_x": "112.9432", "display_y": "28.2128", "side": "R", "address": null }, "geometry": { "type": "Point", "coordinates": [ 112.9377492, 28.21630761 ] } },
{ "type": "Feature", "properties": { "gml_id": "layer_ent_pt.401860", "Name": "永琪美容美发全国直营连锁机构", "pyname": "yqmrmfqgzylsjg", "kind": "A080", "zipcode": null, "telephone": "13875987739", "display_x": "112.9533", "display_y": "28.22224", "side": "L", "address": "银双路" }, "geometry": { "type": "Point", "coordinates": [ 112.94782542, 28.22572958 ] } },
{ "type": "Feature", "properties": { "gml_id": "layer_ent_pt.401922", "Name": "长沙王陵公园东大门", "pyname": "cswlgyddm", "kind": "7300", "zipcode": null, "telephone": null, "display_x": "112.95306", "display_y": "28.21358", "side": "R", "address": "铜盆湖路3号附近" }, "geometry": { "type": "Point", "coordinates": [ 112.94758656, 28.21707005 ] } },
{ "type": "Feature", "properties": { "gml_id": "layer_ent_pt.401961", "Name": "大中华音乐厅", "pyname": "dzhyyt", "kind": "6680", "zipcode": null, "telephone": "13574881093", "display_x": "112.92143", "display_y": "28.2234", "side": "L", "address": "望岳路199" }, "geometry": { "type": "Point", "coordinates": [ 112.9160142, 28.22693364 ] } },
{ "type": "Feature", "properties": { "gml_id": "layer_ent_pt.402058", "Name": "雅梦网络会所", "pyname": "ymwlhs", "kind": "6E00", "zipcode": null, "telephone": null, "display_x": "112.93957", "display_y": "28.22192", "side": "L", "address": "银双路283" }, "geometry": { "type": "Point", "coordinates": [ 112.93412616, 28.22543334 ] } },
{ "type": "Feature", "properties": { "gml_id": "layer_ent_pt.402085", "Name": "佐登妮丝美容SPA生活馆桐梓坡店", "pyname": "zdnsmrsshgtzpd", "kind": "A080", "zipcode": null, "telephone": "0731-88902118", "display_x": "112.95424", "display_y": "28.22009", "side": "R", "address": "银盆南路357－2号附近" }, "geometry": { "type": "Point", "coordinates": [ 112.94876322, 28.22357772 ] } },
{ "type": "Feature", "properties": { "gml_id": "layer_ent_pt.402153", "Name": "望麓桥网吧", "pyname": "wlqwb", "kind": "6E00", "zipcode": null, "telephone": null, "display_x": "112.92839", "display_y": "28.20079", "side": "L", "address": "望新路12号附近" }, "geometry": { "type": "Point", "coordinates": [ 112.92296742, 28.20431831 ] } },
{ "type": "Feature", "properties": { "gml_id": "layer_ent_pt.402347", "Name": "圣火2008", "pyname": "sh2008", "kind": "6680", "zipcode": null, "telephone": null, "display_x": "112.93805", "display_y": "28.19739", "side": "R", "address": "白云路182" }, "geometry": { "type": "Point", "coordinates": [ 112.93261002, 28.20090506 ] } },
{ "type": "Feature", "properties": { "gml_id": "layer_ent_pt.402396", "Name": "尊典造型", "pyname": "zdzx", "kind": "A080", "zipcode": null, "telephone": "13759049965", "display_x": "112.93245", "display_y": "28.22187", "side": "L", "address": "银双路419" }, "geometry": { "type": "Point", "coordinates": [ 112.92701688, 28.22539118 ] } },
{ "type": "Feature", "properties": { "gml_id": "layer_ent_pt.402733", "Name": "铭薇小汀营养会所", "pyname": "mwxtyyhs", "kind": "A080", "zipcode": null, "telephone": "18573107887", "display_x": "112.95225", "display_y": "28.22392", "side": "L", "address": "彩虹路" }, "geometry": { "type": "Point", "coordinates": [ 112.94677818, 28.22741181 ] } },
{ "type": "Feature", "properties": { "gml_id": "layer_ent_pt.402931", "Name": "海王星网吧", "pyname": "hwxwb", "kind": "6E00", "zipcode": null, "telephone": null, "display_x": "112.94726", "display_y": "28.16832", "side": "L", "address": "天马路190" }, "geometry": { "type": "Point", "coordinates": [ 112.941801, 28.17181719 ] } },
{ "type": "Feature", "properties": { "gml_id": "layer_ent_pt.402999", "Name": "宏鼎网络会所", "pyname": "hdwlhs", "kind": "6E00", "zipcode": null, "telephone": null, "display_x": "112.95219", "display_y": "28.1607", "side": "L", "address": null }, "geometry": { "type": "Point", "coordinates": [ 112.94672112, 28.16418884 ] } },
{ "type": "Feature", "properties": { "gml_id": "layer_ent_pt.403073", "Name": "聚美城中南连锁分店", "pyname": "jmcznlsfd", "kind": "A080", "zipcode": null, "telephone": "15675138628", "display_x": "112.93325", "display_y": "28.16385", "side": "R", "address": "麓山南路" }, "geometry": { "type": "Point", "coordinates": [ 112.92782166, 28.16737016 ] } },
{ "type": "Feature", "properties": { "gml_id": "layer_ent_pt.403074", "Name": "奥奥台球", "pyname": "aatq", "kind": "6D00", "zipcode": null, "telephone": "18684679810", "display_x": "112.94099", "display_y": "28.16637", "side": "R", "address": "麓山南路" }, "geometry": { "type": "Point", "coordinates": [ 112.93554474, 28.16987747 ] } },
{ "type": "Feature", "properties": { "gml_id": "layer_ent_pt.403075", "Name": "永兴县荣盛贵金属公司", "pyname": "yxxrsgjsgs", "kind": "A080", "zipcode": null, "telephone": null, "display_x": "112.94631", "display_y": "28.16702", "side": "L", "address": "阜埠河路" }, "geometry": { "type": "Point", "coordinates": [ 112.94085312, 28.17051863 ] } },
{ "type": "Feature", "properties": { "gml_id": "layer_ent_pt.403081", "Name": "幸运星发型店", "pyname": "xyxfxd", "kind": "A080", "zipcode": null, "telephone": null, "display_x": "112.95264", "display_y": "28.22269", "side": "L", "address": null }, "geometry": { "type": "Point", "coordinates": [ 112.94716734, 28.22618115 ] } },
{ "type": "Feature", "properties": { "gml_id": "layer_ent_pt.403140", "Name": "玉足源足浴", "pyname": "yzyzy", "kind": "A100", "zipcode": null, "telephone": "0731-88811628", "display_x": "112.92752", "display_y": "28.20626", "side": "R", "address": "枫林二路139号金枫大酒店3楼" }, "geometry": { "type": "Point", "coordinates": [ 112.92209784, 28.20978887 ] } },
{ "type": "Feature", "properties": { "gml_id": "layer_ent_pt.403264", "Name": "名剪烫染造型专家", "pyname": "mjtrzxzj", "kind": "A080", "zipcode": null, "telephone": null, "display_x": "112.92837", "display_y": "28.22257", "side": "L", "address": "谷丰路410" }, "geometry": { "type": "Point", "coordinates": [ 112.92294402, 28.22609642 ] } },
{ "type": "Feature", "properties": { "gml_id": "layer_ent_pt.403265", "Name": "罗兰专业美发", "pyname": "llzymf", "kind": "A080", "zipcode": null, "telephone": null, "display_x": "112.93387", "display_y": "28.22321", "side": "L", "address": "金星中路487" }, "geometry": { "type": "Point", "coordinates": [ 112.92843438, 28.22672948 ] } },
{ "type": "Feature", "properties": { "gml_id": "layer_ent_pt.403392", "Name": "潇湘国际影城天马店", "pyname": "xxgjyctmd", "kind": "6500", "zipcode": null, "telephone": "0731-82857555", "display_x": "112.94411", "display_y": "28.16908", "side": "R", "address": "麓山南路299号家润多4楼" }, "geometry": { "type": "Point", "coordinates": [ 112.93865784, 28.17258255 ] } },
{ "type": "Feature", "properties": { "gml_id": "layer_ent_pt.403538", "Name": "韩社造型精品连锁店", "pyname": "hszxjplsd", "kind": "A080", "zipcode": null, "telephone": "13667304023", "display_x": "112.92169", "display_y": "28.22217", "side": "L", "address": "望岳路069" }, "geometry": { "type": "Point", "coordinates": [ 112.9162743, 28.22570366 ] } },
{ "type": "Feature", "properties": { "gml_id": "layer_ent_pt.403576", "Name": "精剪坊", "pyname": "jjf", "kind": "A080", "zipcode": null, "telephone": "13755125593", "display_x": "112.93257", "display_y": "28.21285", "side": "L", "address": "咸嘉湖西路82" }, "geometry": { "type": "Point", "coordinates": [ 112.92713874, 28.21637237 ] } },
{ "type": "Feature", "properties": { "gml_id": "layer_ent_pt.403577", "Name": "大家乐棋牌社", "pyname": "djlqps", "kind": "6D80", "zipcode": null, "telephone": "13337216389", "display_x": "112.9233", "display_y": "28.21624", "side": "L", "address": null }, "geometry": { "type": "Point", "coordinates": [ 112.91788242, 28.21977243 ] } },
{ "type": "Feature", "properties": { "gml_id": "layer_ent_pt.403578", "Name": "你好时尚格林星城精致店", "pyname": "nhssglxcjzd", "kind": "A080", "zipcode": null, "telephone": null, "display_x": "112.93047", "display_y": "28.21002", "side": "R", "address": "咸嘉湖路585" }, "geometry": { "type": "Point", "coordinates": [ 112.92504264, 28.21354506 ] } },
{ "type": "Feature", "properties": { "gml_id": "layer_ent_pt.403689", "Name": "青力健身俱乐部", "pyname": "qljsjlb", "kind": "6D00", "zipcode": null, "telephone": "0731-88330150", "display_x": "112.93497", "display_y": "28.22324", "side": "R", "address": "金星中路528号茉莉花国际酒店2楼北栋" }, "geometry": { "type": "Point", "coordinates": [ 112.92953274, 28.22675819 ] } },
{ "type": "Feature", "properties": { "gml_id": "layer_ent_pt.403883", "Name": "尚艺闪靓", "pyname": "sysl", "kind": "A080", "zipcode": null, "telephone": "0731-84824861", "display_x": "112.92866", "display_y": "28.21089", "side": "L", "address": "咸嘉湖路886" }, "geometry": { "type": "Point", "coordinates": [ 112.92323508, 28.21441694 ] } },
{ "type": "Feature", "properties": { "gml_id": "layer_ent_pt.403884", "Name": "凤霆媚·奢会所", "pyname": "ftmshs", "kind": "A080", "zipcode": null, "telephone": "0731-88802646", "display_x": "112.92893", "display_y": "28.21126", "side": "R", "address": "格林巷17" }, "geometry": { "type": "Point", "coordinates": [ 112.92350454, 28.21478657 ] } },
{ "type": "Feature", "properties": { "gml_id": "layer_ent_pt.403905", "Name": "弘洋保健桐梓坡店", "pyname": "hybjtzpd", "kind": "A100", "zipcode": null, "telephone": "0731-88800080", "display_x": "112.94643", "display_y": "28.21815", "side": "L", "address": "桐梓坡路51－1" }, "geometry": { "type": "Point", "coordinates": [ 112.94097228, 28.22165249 ] } },
{ "type": "Feature", "properties": { "gml_id": "layer_ent_pt.403986", "Name": "铭彩发艺时尚造型", "pyname": "mcfysszx", "kind": "A080", "zipcode": "410006", "telephone": "0731-89788962", "display_x": "112.95347", "display_y": "28.19216", "side": "R", "address": "新民路97" }, "geometry": { "type": "Point", "coordinates": [ 112.94799534, 28.19564766 ] } },
{ "type": "Feature", "properties": { "gml_id": "layer_ent_pt.404214", "Name": "海星网吧", "pyname": "hxwb", "kind": "6E00", "zipcode": null, "telephone": null, "display_x": "112.92696", "display_y": "28.16802", "side": "L", "address": null }, "geometry": { "type": "Point", "coordinates": [ 112.92154128, 28.17154751 ] } },
{ "type": "Feature", "properties": { "gml_id": "layer_ent_pt.404243", "Name": "天麓苑社区公园", "pyname": "tlysqgy", "kind": "7300", "zipcode": null, "telephone": null, "display_x": "112.95285", "display_y": "28.16885", "side": "R", "address": "潇湘中路281号附近" }, "geometry": { "type": "Point", "coordinates": [ 112.94737866, 28.17233789 ] } },
{ "type": "Feature", "properties": { "gml_id": "layer_ent_pt.404300", "Name": "时尚码头精致剪烫染连锁左家垅店", "pyname": "ssmtjzjtrlszjld", "kind": "A080", "zipcode": null, "telephone": null, "display_x": "112.94039", "display_y": "28.16659", "side": "L", "address": "麓山南路" }, "geometry": { "type": "Point", "coordinates": [ 112.93494588, 28.17009851 ] } },
{ "type": "Feature", "properties": { "gml_id": "layer_ent_pt.404326", "Name": "来上网吧洋海塘NO．2", "pyname": "lswbyhtn2", "kind": "6E00", "zipcode": null, "telephone": null, "display_x": "112.92616", "display_y": "28.16021", "side": "L", "address": null }, "geometry": { "type": "Point", "coordinates": [ 112.9207428, 28.1637378 ] } },
{ "type": "Feature", "properties": { "gml_id": "layer_ent_pt.404603", "Name": "金鑫美发设计中心专业烫染店", "pyname": "jxmfsjzxzytrd", "kind": "A080", "zipcode": null, "telephone": null, "display_x": "112.93198", "display_y": "28.19508", "side": "L", "address": "校区路" }, "geometry": { "type": "Point", "coordinates": [ 112.92655356, 28.19860524 ] } },
{ "type": "Feature", "properties": { "gml_id": "layer_ent_pt.404613", "Name": "禾田造型", "pyname": "htzx", "kind": "A080", "zipcode": null, "telephone": null, "display_x": "112.9248", "display_y": "28.17572", "side": "R", "address": null }, "geometry": { "type": "Point", "coordinates": [ 112.91938254, 28.17924894 ] } },
{ "type": "Feature", "properties": { "gml_id": "layer_ent_pt.404686", "Name": "八佰伴烫染连锁机构", "pyname": "bbbtrlsjg", "kind": "A080", "zipcode": null, "telephone": "18711055856", "display_x": "112.93831", "display_y": "28.15347", "side": "L", "address": null }, "geometry": { "type": "Point", "coordinates": [ 112.93287138, 28.15698114 ] } },
{ "type": "Feature", "properties": { "gml_id": "layer_ent_pt.404783", "Name": "剪爱发型工作室", "pyname": "jafxgzs", "kind": "A080", "zipcode": null, "telephone": null, "display_x": "112.92953", "display_y": "28.17296", "side": "R", "address": "新民路" }, "geometry": { "type": "Point", "coordinates": [ 112.92410826, 28.17648617 ] } },
{ "type": "Feature", "properties": { "gml_id": "layer_ent_pt.404876", "Name": "四达特网吧", "pyname": "sdtwb", "kind": "6E00", "zipcode": null, "telephone": null, "display_x": "112.94789", "display_y": "28.16826", "side": "R", "address": "天马路174号附近" }, "geometry": { "type": "Point", "coordinates": [ 112.94242956, 28.17175613 ] } },
{ "type": "Feature", "properties": { "gml_id": "layer_ent_pt.404892", "Name": "吸引力造型", "pyname": "xylzx", "kind": "A080", "zipcode": null, "telephone": "18673875932", "display_x": "112.95049", "display_y": "28.16095", "side": "L", "address": "阜埠河路天马安置小区" }, "geometry": { "type": "Point", "coordinates": [ 112.94502462, 28.16444151 ] } },
{ "type": "Feature", "properties": { "gml_id": "layer_ent_pt.404954", "Name": "上机堂网吧连锁华腾店", "pyname": "sjtwblshtd", "kind": "6E00", "zipcode": null, "telephone": null, "display_x": "112.9551", "display_y": "28.20446", "side": "L", "address": null }, "geometry": { "type": "Point", "coordinates": [ 112.9496211, 28.20794531 ] } },
{ "type": "Feature", "properties": { "gml_id": "layer_ent_pt.405002", "Name": "星星造型", "pyname": "xxzx", "kind": "A080", "zipcode": null, "telephone": null, "display_x": "112.94056", "display_y": "28.19893", "side": "L", "address": "谭石路" }, "geometry": { "type": "Point", "coordinates": [ 112.93511436, 28.20244073 ] } },
{ "type": "Feature", "properties": { "gml_id": "layer_ent_pt.405304", "Name": "唯歌自主KTV", "pyname": "wgzzk", "kind": "6680", "zipcode": null, "telephone": "0731-88790666", "display_x": "112.93534", "display_y": "28.22411", "side": "L", "address": "金星大道金麓国际商务广场" }, "geometry": { "type": "Point", "coordinates": [ 112.92990192, 28.22762768 ] } },
{ "type": "Feature", "properties": { "gml_id": "layer_ent_pt.405325", "Name": "新外滩KTV娱乐广场", "pyname": "xwtkylgc", "kind": "6680", "zipcode": "410013", "telephone": "0731-88610688", "display_x": "112.95574", "display_y": "28.19976", "side": "L", "address": "银盆南路52－2" }, "geometry": { "type": "Point", "coordinates": [ 112.95025938, 28.20324362 ] } },
{ "type": "Feature", "properties": { "gml_id": "layer_ent_pt.405500", "Name": "高十一郎造型空间", "pyname": "gsylzxkj", "kind": "A080", "zipcode": null, "telephone": null, "display_x": "112.94447", "display_y": "28.22243", "side": "R", "address": "银双路106－7" }, "geometry": { "type": "Point", "coordinates": [ 112.93901712, 28.22593649 ] } },
{ "type": "Feature", "properties": { "gml_id": "layer_ent_pt.405562", "Name": "BOBO造型", "pyname": "bzx", "kind": "A080", "zipcode": "410012", "telephone": null, "display_x": "112.94527", "display_y": "28.1738", "side": "L", "address": "麓山南路198" }, "geometry": { "type": "Point", "coordinates": [ 112.93981524, 28.17730112 ] } },
{ "type": "Feature", "properties": { "gml_id": "layer_ent_pt.405563", "Name": "好潇洒美发厅", "pyname": "hxsmft", "kind": "A080", "zipcode": null, "telephone": null, "display_x": "112.94519", "display_y": "28.17458", "side": "L", "address": "麓山南路150" }, "geometry": { "type": "Point", "coordinates": [ 112.93973532, 28.17808133 ] } },
{ "type": "Feature", "properties": { "gml_id": "layer_ent_pt.405575", "Name": "娱乐先锋KTV", "pyname": "ylxfk", "kind": "6680", "zipcode": null, "telephone": null, "display_x": "112.92855", "display_y": "28.20053", "side": "R", "address": null }, "geometry": { "type": "Point", "coordinates": [ 112.92312726, 28.20405816 ] } },
{ "type": "Feature", "properties": { "gml_id": "layer_ent_pt.405585", "Name": "你真棒专业儿童理发", "pyname": "nzbzyetlf", "kind": "A080", "zipcode": "410013", "telephone": null, "display_x": "112.92836", "display_y": "28.22301", "side": "L", "address": "谷丰路428" }, "geometry": { "type": "Point", "coordinates": [ 112.92293412, 28.22653647 ] } },
{ "type": "Feature", "properties": { "gml_id": "layer_ent_pt.405804", "Name": "美丽发现时尚烫染店", "pyname": "mlfxsstrd", "kind": "A080", "zipcode": null, "telephone": null, "display_x": "112.94035", "display_y": "28.15378", "side": "R", "address": null }, "geometry": { "type": "Point", "coordinates": [ 112.934907, 28.15728791 ] } },
{ "type": "Feature", "properties": { "gml_id": "layer_ent_pt.405883", "Name": "Nｏｎｏ", "pyname": "n", "kind": "1500", "zipcode": null, "telephone": null, "display_x": "112.93286", "display_y": "28.21374", "side": "L", "address": null }, "geometry": { "type": "Point", "coordinates": [ 112.92742818, 28.21726193 ] } },
{ "type": "Feature", "properties": { "gml_id": "layer_ent_pt.405916", "Name": "乐魔量贩式KTV", "pyname": "lmlfsk", "kind": "6680", "zipcode": null, "telephone": "0731-88632887", "display_x": "112.93397", "display_y": "28.16398", "side": "R", "address": "麓山南路739号2楼" }, "geometry": { "type": "Point", "coordinates": [ 112.92854004, 28.16749899 ] } },
{ "type": "Feature", "properties": { "gml_id": "layer_ent_pt.405995", "Name": "美时美芬（香港）SPA美容会所", "pyname": "msmf(xg)smrhs", "kind": "A080", "zipcode": null, "telephone": "0731-89711818", "display_x": "112.93511", "display_y": "28.2196", "side": "L", "address": "金星大道438号" }, "geometry": { "type": "Point", "coordinates": [ 112.92967332, 28.22311859 ] } },
{ "type": "Feature", "properties": { "gml_id": "layer_ent_pt.406018", "Name": "芙蓉国剧场", "pyname": "frgjc", "kind": "6580", "zipcode": null, "telephone": "0731-82307988", "display_x": "112.94876", "display_y": "28.16394", "side": "L", "address": "阜埠河路139号" }, "geometry": { "type": "Point", "coordinates": [ 112.9432977, 28.16743419 ] } },
{ "type": "Feature", "properties": { "gml_id": "layer_ent_pt.406019", "Name": "城市英豪动漫", "pyname": "csyhdm", "kind": "6D00", "zipcode": null, "telephone": null, "display_x": "112.9488", "display_y": "28.16275", "side": "L", "address": null }, "geometry": { "type": "Point", "coordinates": [ 112.94333784, 28.16624417 ] } },
{ "type": "Feature", "properties": { "gml_id": "layer_ent_pt.406050", "Name": "玻璃之城网吧", "pyname": "blzcwb", "kind": "6E00", "zipcode": null, "telephone": null, "display_x": "112.9346", "display_y": "28.21247", "side": "L", "address": "咸嘉湖西路58" }, "geometry": { "type": "Point", "coordinates": [ 112.9291659, 28.21599018 ] } },
{ "type": "Feature", "properties": { "gml_id": "layer_ent_pt.406051", "Name": "星籁KTV量贩", "pyname": "xlklf", "kind": "6680", "zipcode": null, "telephone": "0731-89789999", "display_x": "112.93744", "display_y": "28.21086", "side": "L", "address": "咸嘉湖路676号" }, "geometry": { "type": "Point", "coordinates": [ 112.93200198, 28.21437734 ] } },
{ "type": "Feature", "properties": { "gml_id": "layer_ent_pt.406095", "Name": "中南大学南校区－乒羽馆", "pyname": "zndxnxq-pyg", "kind": "6601", "zipcode": null, "telephone": null, "display_x": "112.93793", "display_y": "28.15882", "side": "R", "address": "麓山南路605中南大学内" }, "geometry": { "type": "Point", "coordinates": [ 112.9324914, 28.16233178 ] } },
{ "type": "Feature", "properties": { "gml_id": "layer_ent_pt.406215", "Name": "中国联通岳麓山休闲俱乐部", "pyname": "zgltylsxxjlb", "kind": "6D00", "zipcode": null, "telephone": null, "display_x": "112.93116", "display_y": "28.18188", "side": "L", "address": "麓山路82岳麓山风景名胜区" }, "geometry": { "type": "Point", "coordinates": [ 112.92573582, 28.18540539 ] } },
{ "type": "Feature", "properties": { "gml_id": "layer_ent_pt.406227", "Name": "艾伦私人发型订制", "pyname": "alsrfxdz", "kind": "A080", "zipcode": null, "telephone": null, "display_x": "112.92643", "display_y": "28.20111", "side": "L", "address": "望新路50" }, "geometry": { "type": "Point", "coordinates": [ 112.92100956, 28.20463956 ] } },
{ "type": "Feature", "properties": { "gml_id": "layer_ent_pt.406330", "Name": "老名特美发连锁机构", "pyname": "lmtmflsjg", "kind": "A080", "zipcode": null, "telephone": null, "display_x": "112.93431", "display_y": "28.16451", "side": "L", "address": "麓山南路" }, "geometry": { "type": "Point", "coordinates": [ 112.92887934, 28.16802846 ] } },
{ "type": "Feature", "properties": { "gml_id": "layer_ent_pt.406331", "Name": "魅丽女人美容美体生活馆", "pyname": "mlnrmrmtshg", "kind": "A080", "zipcode": null, "telephone": null, "display_x": "112.93959", "display_y": "28.15333", "side": "R", "address": "后湖小区15栋1单元" }, "geometry": { "type": "Point", "coordinates": [ 112.93414866, 28.15683912 ] } },
{ "type": "Feature", "properties": { "gml_id": "layer_ent_pt.406333", "Name": "快乐宝贝主题乐园", "pyname": "klbbztly", "kind": "6300", "zipcode": null, "telephone": null, "display_x": "112.92597", "display_y": "28.16066", "side": "R", "address": "步步高生活广场王家湾店3层" }, "geometry": { "type": "Point", "coordinates": [ 112.9205529, 28.16418794 ] } },
{ "type": "Feature", "properties": { "gml_id": "layer_ent_pt.406334", "Name": "皙泉活色生香美丽坊", "pyname": "xqhssxmlf", "kind": "A080", "zipcode": null, "telephone": "0731-88613202", "display_x": "112.95411", "display_y": "28.20002", "side": "R", "address": "麓山才苑E栋2层" }, "geometry": { "type": "Point", "coordinates": [ 112.94863308, 28.20350655 ] } },
{ "type": "Feature", "properties": { "gml_id": "layer_ent_pt.406466", "Name": "创艺发型", "pyname": "cyfx", "kind": "A080", "zipcode": null, "telephone": null, "display_x": "112.92659", "display_y": "28.15996", "side": "R", "address": null }, "geometry": { "type": "Point", "coordinates": [ 112.92117246, 28.16348756 ] } },
{ "type": "Feature", "properties": { "gml_id": "layer_ent_pt.406476", "Name": "名流专业美容美发中心", "pyname": "mlzymrmfzx", "kind": "A080", "zipcode": null, "telephone": "15974152586", "display_x": "112.93613", "display_y": "28.16481", "side": "R", "address": "麓山南路617" }, "geometry": { "type": "Point", "coordinates": [ 112.93069536, 28.16832546 ] } },
{ "type": "Feature", "properties": { "gml_id": "layer_ent_pt.406505", "Name": "水琳珑商院NO．1", "pyname": "sllsyn1", "kind": "A080", "zipcode": null, "telephone": "15084737369", "display_x": "112.91714", "display_y": "28.21889", "side": "R", "address": "桐梓坡路645" }, "geometry": { "type": "Point", "coordinates": [ 112.91172804, 28.22242572 ] } },
{ "type": "Feature", "properties": { "gml_id": "layer_ent_pt.406513", "Name": "力威拳馆河西润泽园店", "pyname": "lwqghxrzyd", "kind": "6D00", "zipcode": null, "telephone": "0731-89919712", "display_x": "112.92467", "display_y": "28.21656", "side": "L", "address": null }, "geometry": { "type": "Point", "coordinates": [ 112.91925006, 28.22009072 ] } },
{ "type": "Feature", "properties": { "gml_id": "layer_ent_pt.406570", "Name": "尚艺闪靓", "pyname": "sysl", "kind": "A080", "zipcode": null, "telephone": "0731-88861211", "display_x": "112.95606", "display_y": "28.20565", "side": "R", "address": "月宫街118" }, "geometry": { "type": "Point", "coordinates": [ 112.95057906, 28.20913371 ] } },
{ "type": "Feature", "properties": { "gml_id": "layer_ent_pt.406608", "Name": "嘻乐动漫电玩", "pyname": "xldmdw", "kind": "6D00", "zipcode": null, "telephone": null, "display_x": "112.92597", "display_y": "28.16066", "side": "R", "address": "步步高生活广场王家湾店1层中庭广场" }, "geometry": { "type": "Point", "coordinates": [ 112.9205529, 28.16418794 ] } },
{ "type": "Feature", "properties": { "gml_id": "layer_ent_pt.406652", "Name": "尚美皮肤修复专家美容连锁", "pyname": "smpfxfzjmrls", "kind": "A080", "zipcode": null, "telephone": "0731-85454803", "display_x": "112.9284", "display_y": "28.22056", "side": "L", "address": "谷丰路25" }, "geometry": { "type": "Point", "coordinates": [ 112.92297372, 28.22408627 ] } },
{ "type": "Feature", "properties": { "gml_id": "layer_ent_pt.406653", "Name": "浩瀚动漫城", "pyname": "hhdmc", "kind": "6D00", "zipcode": null, "telephone": "13870918293", "display_x": "112.92786", "display_y": "28.21731", "side": "L", "address": "谷丰南路" }, "geometry": { "type": "Point", "coordinates": [ 112.92243462, 28.22083686 ] } },
{ "type": "Feature", "properties": { "gml_id": "layer_ent_pt.406654", "Name": "飘逸美发沙龙", "pyname": "pymfsl", "kind": "A080", "zipcode": null, "telephone": "18874181028", "display_x": "112.91641", "display_y": "28.20684", "side": "L", "address": null }, "geometry": { "type": "Point", "coordinates": [ 112.91099976, 28.21037648 ] } },
{ "type": "Feature", "properties": { "gml_id": "layer_ent_pt.406788", "Name": "克丽缇娜美容美体SPA会所特约雨郡美容院", "pyname": "kltnmrmtshstyyjmry", "kind": "A080", "zipcode": null, "telephone": "0731-89609678", "display_x": "112.93607", "display_y": "28.22174", "side": "L", "address": null }, "geometry": { "type": "Point", "coordinates": [ 112.93063146, 28.22525721 ] } },
{ "type": "Feature", "properties": { "gml_id": "layer_ent_pt.406789", "Name": "幸福时光", "pyname": "xfsg", "kind": "A080", "zipcode": null, "telephone": null, "display_x": "112.93361", "display_y": "28.21747", "side": "L", "address": "时代帝景广场1单元3楼" }, "geometry": { "type": "Point", "coordinates": [ 112.92817608, 28.22099054 ] } },
{ "type": "Feature", "properties": { "gml_id": "layer_ent_pt.406796", "Name": "天籁之音", "pyname": "tlzy", "kind": "6680", "zipcode": null, "telephone": null, "display_x": "112.93312", "display_y": "28.21402", "side": "L", "address": null }, "geometry": { "type": "Point", "coordinates": [ 112.92768774, 28.2175416 ] } },
{ "type": "Feature", "properties": { "gml_id": "layer_ent_pt.406947", "Name": "枫林宾馆－美容美发", "pyname": "flbg-mrmf", "kind": "A080", "zipcode": "410006", "telephone": "0731-88798888", "display_x": "112.94994", "display_y": "28.19668", "side": "L", "address": "枫林一路43号枫林宾馆" }, "geometry": { "type": "Point", "coordinates": [ 112.94447292, 28.2001739 ] } },
{ "type": "Feature", "properties": { "gml_id": "layer_ent_pt.406991", "Name": "金满苑水艺会所", "pyname": "jmysyhs", "kind": "A100", "zipcode": null, "telephone": null, "display_x": "112.95648", "display_y": "28.20082", "side": "L", "address": "银盆南路74" }, "geometry": { "type": "Point", "coordinates": [ 112.95099774, 28.20430242 ] } },
{ "type": "Feature", "properties": { "gml_id": "layer_ent_pt.407000", "Name": "铭感发艺", "pyname": "mgfy", "kind": "A080", "zipcode": null, "telephone": null, "display_x": "112.93969", "display_y": "28.21256", "side": "L", "address": null }, "geometry": { "type": "Point", "coordinates": [ 112.9342473, 28.21607388 ] } },
{ "type": "Feature", "properties": { "gml_id": "layer_ent_pt.407001", "Name": "归粹堂", "pyname": "gct", "kind": "A100", "zipcode": null, "telephone": null, "display_x": "112.95499", "display_y": "28.19215", "side": "L", "address": "爱民路67" }, "geometry": { "type": "Point", "coordinates": [ 112.94951202, 28.19563493 ] } },
{ "type": "Feature", "properties": { "gml_id": "layer_ent_pt.407056", "Name": "豪帝水艺会所", "pyname": "hdsyhs", "kind": "A100", "zipcode": null, "telephone": "18673607383", "display_x": "112.92079", "display_y": "28.21945", "side": "R", "address": "桐梓坡路356" }, "geometry": { "type": "Point", "coordinates": [ 112.9153752, 28.22298431 ] } },
{ "type": "Feature", "properties": { "gml_id": "layer_ent_pt.407150", "Name": "伊人美容养生会所", "pyname": "yrmryshs", "kind": "A080", "zipcode": null, "telephone": null, "display_x": "112.93262", "display_y": "28.20167", "side": "L", "address": "石佳冲路30" }, "geometry": { "type": "Point", "coordinates": [ 112.92719148, 28.20519396 ] } },
{ "type": "Feature", "properties": { "gml_id": "layer_ent_pt.407371", "Name": "克丽缇娜河西新外滩美容美体中心", "pyname": "kltnhxxwtmrmtzx", "kind": "A080", "zipcode": null, "telephone": "0731-85951298", "display_x": "112.95487", "display_y": "28.20005", "side": "L", "address": "白沙液街12" }, "geometry": { "type": "Point", "coordinates": [ 112.94939142, 28.20353522 ] } },
{ "type": "Feature", "properties": { "gml_id": "layer_ent_pt.407445", "Name": "美时慕专业美容美体", "pyname": "msmzymrmt", "kind": "A080", "zipcode": "410006", "telephone": "0731-88613550", "display_x": "112.95197", "display_y": "28.19299", "side": "L", "address": "新民路98" }, "geometry": { "type": "Point", "coordinates": [ 112.94649882, 28.1964803 ] } },
{ "type": "Feature", "properties": { "gml_id": "layer_ent_pt.407446", "Name": "佐登妮丝美容SPA生活馆新民路店", "pyname": "zdnsmrsshgxmld", "kind": "A080", "zipcode": "410006", "telephone": null, "display_x": "112.95499", "display_y": "28.19215", "side": "L", "address": "爱民路67" }, "geometry": { "type": "Point", "coordinates": [ 112.94951202, 28.19563493 ] } },
{ "type": "Feature", "properties": { "gml_id": "layer_ent_pt.407527", "Name": "路伊·威莎美容养生会所景秀店", "pyname": "lywsmryshsjxd", "kind": "A100", "zipcode": null, "telephone": null, "display_x": "112.955", "display_y": "28.21347", "side": "L", "address": "景秀路" }, "geometry": { "type": "Point", "coordinates": [ 112.9495221, 28.21695656 ] } },
{ "type": "Feature", "properties": { "gml_id": "layer_ent_pt.407530", "Name": "锋尚", "pyname": "fs", "kind": "A080", "zipcode": null, "telephone": "18973107106", "display_x": "112.94789", "display_y": "28.18792", "side": "L", "address": "麓山路282" }, "geometry": { "type": "Point", "coordinates": [ 112.94242866, 28.19141757 ] } },
{ "type": "Feature", "properties": { "gml_id": "layer_ent_pt.407561", "Name": "晨美国际美容养生会所美林店", "pyname": "cmgjmryshsmld", "kind": "A080", "zipcode": null, "telephone": "0731-82788828", "display_x": "112.9359", "display_y": "28.22232", "side": "R", "address": "金星中路528－13" }, "geometry": { "type": "Point", "coordinates": [ 112.93046154, 28.22583731 ] } },
{ "type": "Feature", "properties": { "gml_id": "layer_ent_pt.407836", "Name": "白云台球城", "pyname": "bytqc", "kind": "6D00", "zipcode": null, "telephone": null, "display_x": "112.93879", "display_y": "28.19917", "side": "R", "address": "谭石路" }, "geometry": { "type": "Point", "coordinates": [ 112.93334856, 28.20268391 ] } },
{ "type": "Feature", "properties": { "gml_id": "layer_ent_pt.407910", "Name": "炫亮造型专业美发工作室", "pyname": "xlzxzymfgzs", "kind": "A080", "zipcode": null, "telephone": null, "display_x": "112.95508", "display_y": "28.21309", "side": "R", "address": "铜盆湖路1－8" }, "geometry": { "type": "Point", "coordinates": [ 112.94960184, 28.21657635 ] } },
{ "type": "Feature", "properties": { "gml_id": "layer_ent_pt.407911", "Name": "君喜羽毛球", "pyname": "jxymq", "kind": "6601", "zipcode": null, "telephone": "0731-88855848", "display_x": "112.95589", "display_y": "28.21415", "side": "L", "address": "麓源路33号7楼" }, "geometry": { "type": "Point", "coordinates": [ 112.95041004, 28.21763502 ] } },
{ "type": "Feature", "properties": { "gml_id": "layer_ent_pt.407974", "Name": "领尚发型社", "pyname": "lsfxs", "kind": "A080", "zipcode": null, "telephone": null, "display_x": "112.93226", "display_y": "28.20142", "side": "L", "address": "石佳冲路47" }, "geometry": { "type": "Point", "coordinates": [ 112.92683202, 28.20494439 ] } },
{ "type": "Feature", "properties": { "gml_id": "layer_ent_pt.407975", "Name": "瑞诗凯诗国际瑜伽", "pyname": "rsksgjyj", "kind": "A080", "zipcode": null, "telephone": null, "display_x": "112.94479", "display_y": "28.17105", "side": "R", "address": "麓山南路" }, "geometry": { "type": "Point", "coordinates": [ 112.93933626, 28.17455162 ] } },
{ "type": "Feature", "properties": { "gml_id": "layer_ent_pt.408124", "Name": "魅力空间专业烫染沙龙", "pyname": "mlkjzytrsl", "kind": "A080", "zipcode": null, "telephone": null, "display_x": "112.93397", "display_y": "28.16398", "side": "R", "address": "麓山南路739号2楼" }, "geometry": { "type": "Point", "coordinates": [ 112.92854004, 28.16749899 ] } },
{ "type": "Feature", "properties": { "gml_id": "layer_ent_pt.408176", "Name": "M＆M时尚造型国际连锁旗舰店", "pyname": "m&msszxgjlsqjd", "kind": "A080", "zipcode": null, "telephone": "0731-84255856", "display_x": "112.92597", "display_y": "28.16066", "side": "R", "address": "步步高生活广场王家湾店1层中庭广场" }, "geometry": { "type": "Point", "coordinates": [ 112.9205529, 28.16418794 ] } },
{ "type": "Feature", "properties": { "gml_id": "layer_ent_pt.408202", "Name": "火玫瑰网络休闲会所", "pyname": "hmgwlxxhs", "kind": "6E00", "zipcode": null, "telephone": null, "display_x": "112.95475", "display_y": "28.21665", "side": "R", "address": "麓源路" }, "geometry": { "type": "Point", "coordinates": [ 112.9492728, 28.22013738 ] } },
{ "type": "Feature", "properties": { "gml_id": "layer_ent_pt.408231", "Name": "Hｉ造型", "pyname": "hzx", "kind": "A080", "zipcode": null, "telephone": "18613992418", "display_x": "112.93426", "display_y": "28.16449", "side": "L", "address": "麓山南路" }, "geometry": { "type": "Point", "coordinates": [ 112.9288293, 28.16800853 ] } },
{ "type": "Feature", "properties": { "gml_id": "layer_ent_pt.408232", "Name": "嗨乐KTV量贩", "pyname": "hlklf", "kind": "6680", "zipcode": null, "telephone": null, "display_x": "112.92597", "display_y": "28.16066", "side": "R", "address": "步步高生活广场王家湾店" }, "geometry": { "type": "Point", "coordinates": [ 112.9205529, 28.16418794 ] } },
{ "type": "Feature", "properties": { "gml_id": "layer_ent_pt.408233", "Name": "金剪坊", "pyname": "jjf", "kind": "A080", "zipcode": null, "telephone": null, "display_x": "112.94111", "display_y": "28.15383", "side": "L", "address": null }, "geometry": { "type": "Point", "coordinates": [ 112.93566552, 28.15733669 ] } },
{ "type": "Feature", "properties": { "gml_id": "layer_ent_pt.408508", "Name": "笑笑唱吧", "pyname": "xxcb", "kind": "6680", "zipcode": null, "telephone": "13787272157", "display_x": "112.9517", "display_y": "28.1639", "side": "R", "address": "阜埠河路70" }, "geometry": { "type": "Point", "coordinates": [ 112.94623152, 28.16738951 ] } },
{ "type": "Feature", "properties": { "gml_id": "layer_ent_pt.408551", "Name": "卡琪名品造型", "pyname": "kqmpzx", "kind": "A080", "zipcode": null, "telephone": null, "display_x": "112.93973", "display_y": "28.19886", "side": "R", "address": "谭石路" }, "geometry": { "type": "Point", "coordinates": [ 112.93428636, 28.20237219 ] } },
{ "type": "Feature", "properties": { "gml_id": "layer_ent_pt.408738", "Name": "先科网吧", "pyname": "xkwb", "kind": "6E00", "zipcode": null, "telephone": null, "display_x": "112.92234", "display_y": "28.17106", "side": "L", "address": "溁左路" }, "geometry": { "type": "Point", "coordinates": [ 112.91692536, 28.17459027 ] } },
{ "type": "Feature", "properties": { "gml_id": "layer_ent_pt.408739", "Name": "艺皇时尚·造型", "pyname": "yhsszx", "kind": "A080", "zipcode": null, "telephone": null, "display_x": "112.95076", "display_y": "28.16062", "side": "R", "address": null }, "geometry": { "type": "Point", "coordinates": [ 112.94529426, 28.16411112 ] } },
{ "type": "Feature", "properties": { "gml_id": "layer_ent_pt.408762", "Name": "你和我靓歌坊", "pyname": "nhwlgf", "kind": "6680", "zipcode": null, "telephone": "13975175623", "display_x": "112.94934", "display_y": "28.16106", "side": "L", "address": null }, "geometry": { "type": "Point", "coordinates": [ 112.94387712, 28.16455334 ] } },
{ "type": "Feature", "properties": { "gml_id": "layer_ent_pt.408800", "Name": "东麟阁网络会所", "pyname": "dlgwlhs", "kind": "6E00", "zipcode": null, "telephone": null, "display_x": "112.9227", "display_y": "28.16421", "side": "L", "address": null }, "geometry": { "type": "Point", "coordinates": [ 112.91728572, 28.16773988 ] } },
{ "type": "Feature", "properties": { "gml_id": "layer_ent_pt.408875", "Name": "丝发域专业烫染财院分店", "pyname": "sfyzytrcyfd", "kind": "A080", "zipcode": null, "telephone": null, "display_x": "112.92891", "display_y": "28.19983", "side": "R", "address": "石佳冲路" }, "geometry": { "type": "Point", "coordinates": [ 112.9234869, 28.20335783 ] } },
{ "type": "Feature", "properties": { "gml_id": "layer_ent_pt.408951", "Name": "英才广场", "pyname": "ycgc", "kind": "7380", "zipcode": null, "telephone": null, "display_x": "112.91803", "display_y": "28.22034", "side": "R", "address": "湖南商学院内" }, "geometry": { "type": "Point", "coordinates": [ 112.91261724, 28.22387522 ] } },
{ "type": "Feature", "properties": { "gml_id": "layer_ent_pt.409079", "Name": "美时慕（国际）美容美体连锁机构银盆南路SPA尊尚会所", "pyname": "msm(gj)mrmtlsjgypnlszsh", "kind": "A080", "zipcode": null, "telephone": null, "display_x": "112.95594", "display_y": "28.21608", "side": "L", "address": "银盆南路319－6号长平大厦裙2层" }, "geometry": { "type": "Point", "coordinates": [ 112.95045918, 28.21956449 ] } },
{ "type": "Feature", "properties": { "gml_id": "layer_ent_pt.409102", "Name": "逸鸿台球", "pyname": "yhtq", "kind": "6D00", "zipcode": null, "telephone": null, "display_x": "112.93586", "display_y": "28.16459", "side": "R", "address": "麓山美庐5楼" }, "geometry": { "type": "Point", "coordinates": [ 112.9304259, 28.16810586 ] } },
{ "type": "Feature", "properties": { "gml_id": "layer_ent_pt.409104", "Name": "湘水缘音乐会所", "pyname": "xsyyyhs", "kind": "6680", "zipcode": null, "telephone": "13975860838", "display_x": "112.94989", "display_y": "28.16213", "side": "R", "address": null }, "geometry": { "type": "Point", "coordinates": [ 112.94442576, 28.16562245 ] } },
{ "type": "Feature", "properties": { "gml_id": "layer_ent_pt.409122", "Name": "美约会", "pyname": "myh", "kind": "A080", "zipcode": null, "telephone": null, "display_x": "112.93664", "display_y": "28.22494", "side": "L", "address": "岳麓大道311号金麓国际写字楼8层" }, "geometry": { "type": "Point", "coordinates": [ 112.93119972, 28.22845608 ] } },
{ "type": "Feature", "properties": { "gml_id": "layer_ent_pt.409180", "Name": "比歌量贩KTV河西店", "pyname": "bglfkhxd", "kind": "6680", "zipcode": null, "telephone": "0731-89904337", "display_x": "112.95462", "display_y": "28.19157", "side": "R", "address": "学堂坡路" }, "geometry": { "type": "Point", "coordinates": [ 112.94914284, 28.1950556 ] } },
{ "type": "Feature", "properties": { "gml_id": "layer_ent_pt.409191", "Name": "丝域养发馆", "pyname": "syyfg", "kind": "A080", "zipcode": null, "telephone": "0731-88295768", "display_x": "112.95451", "display_y": "28.22297", "side": "R", "address": "岳麓大道57号奥克斯广场2层" }, "geometry": { "type": "Point", "coordinates": [ 112.94903106, 28.22645615 ] } },
{ "type": "Feature", "properties": { "gml_id": "layer_ent_pt.409222", "Name": "伊格蕾斯SPA精修养生会所中南大学会所店", "pyname": "yglssjxyshszndxhsd", "kind": "A080", "zipcode": null, "telephone": "0731-88632266", "display_x": "112.93438", "display_y": "28.16388", "side": "R", "address": "麓山南路739号3楼" }, "geometry": { "type": "Point", "coordinates": [ 112.92894918, 28.16739828 ] } },
{ "type": "Feature", "properties": { "gml_id": "layer_ent_pt.409224", "Name": "馨颜护肤中南工大店", "pyname": "xyhfzngdd", "kind": "A080", "zipcode": null, "telephone": "15673101513", "display_x": "112.94022", "display_y": "28.15381", "side": "R", "address": null }, "geometry": { "type": "Point", "coordinates": [ 112.9347774, 28.1573181 ] } },
{ "type": "Feature", "properties": { "gml_id": "layer_ent_pt.409348", "Name": "艾美形象工作室", "pyname": "amxxgzs", "kind": "A080", "zipcode": null, "telephone": null, "display_x": "112.95077", "display_y": "28.16364", "side": "L", "address": "阜埠河路" }, "geometry": { "type": "Point", "coordinates": [ 112.94530362, 28.16713098 ] } },
{ "type": "Feature", "properties": { "gml_id": "layer_ent_pt.409386", "Name": "卡特造型", "pyname": "ktzx", "kind": "A080", "zipcode": null, "telephone": "15526418676", "display_x": "112.95131", "display_y": "28.19323", "side": "L", "address": "新民路114" }, "geometry": { "type": "Point", "coordinates": [ 112.9458402, 28.1967215 ] } },
{ "type": "Feature", "properties": { "gml_id": "layer_ent_pt.409416", "Name": "金源网吧", "pyname": "jywb", "kind": "6E00", "zipcode": null, "telephone": null, "display_x": "112.92186", "display_y": "28.16441", "side": "R", "address": null }, "geometry": { "type": "Point", "coordinates": [ 112.91644638, 28.16794031 ] } },
{ "type": "Feature", "properties": { "gml_id": "layer_ent_pt.409434", "Name": "精剪发型工作室", "pyname": "jjfxgzs", "kind": "A080", "zipcode": null, "telephone": null, "display_x": "112.93853", "display_y": "28.15405", "side": "L", "address": "后湖小区22栋" }, "geometry": { "type": "Point", "coordinates": [ 112.9330908, 28.15756079 ] } },
{ "type": "Feature", "properties": { "gml_id": "layer_ent_pt.409437", "Name": "宝宝形象设计", "pyname": "bbxxsj", "kind": "A080", "zipcode": null, "telephone": "13975809346", "display_x": "112.94041", "display_y": "28.15408", "side": "L", "address": null }, "geometry": { "type": "Point", "coordinates": [ 112.93496694, 28.15758779 ] } },
{ "type": "Feature", "properties": { "gml_id": "layer_ent_pt.409462", "Name": "紫气东来", "pyname": "zqdl", "kind": "A100", "zipcode": null, "telephone": null, "display_x": "112.91678", "display_y": "28.21362", "side": "R", "address": "咸嘉湖西路" }, "geometry": { "type": "Point", "coordinates": [ 112.91136894, 28.21715645 ] } },
{ "type": "Feature", "properties": { "gml_id": "layer_ent_pt.409463", "Name": "新极速网络会所", "pyname": "xjswlhs", "kind": "6E00", "zipcode": null, "telephone": null, "display_x": "112.93775", "display_y": "28.15829", "side": "R", "address": null }, "geometry": { "type": "Point", "coordinates": [ 112.93231176, 28.16180204 ] } },
{ "type": "Feature", "properties": { "gml_id": "layer_ent_pt.409520", "Name": "傲视形象设计", "pyname": "asxxsj", "kind": "A080", "zipcode": null, "telephone": "0731-82783166", "display_x": "112.9363", "display_y": "28.22233", "side": "R", "address": "银双路美林银谷6－7栋大门" }, "geometry": { "type": "Point", "coordinates": [ 112.93086096, 28.22584685 ] } },
{ "type": "Feature", "properties": { "gml_id": "layer_ent_pt.409521", "Name": "发艺形象设计中心", "pyname": "fyxxsjzx", "kind": "A080", "zipcode": null, "telephone": null, "display_x": "112.91665", "display_y": "28.20686", "side": "L", "address": null }, "geometry": { "type": "Point", "coordinates": [ 112.9112397, 28.21039641 ] } },
{ "type": "Feature", "properties": { "gml_id": "layer_ent_pt.409522", "Name": "左右左造型连锁NO．2", "pyname": "zyzzxlsn2", "kind": "A080", "zipcode": null, "telephone": "0731-89742510", "display_x": "112.92194", "display_y": "28.2164", "side": "R", "address": "望岳南路" }, "geometry": { "type": "Point", "coordinates": [ 112.91652486, 28.21993416 ] } },
{ "type": "Feature", "properties": { "gml_id": "layer_ent_pt.409597", "Name": "颜泉美容养生坊", "pyname": "yqmrysf", "kind": "A080", "zipcode": null, "telephone": "15207490839", "display_x": "112.93704", "display_y": "28.22128", "side": "R", "address": null }, "geometry": { "type": "Point", "coordinates": [ 112.93160004, 28.22479619 ] } },
{ "type": "Feature", "properties": { "gml_id": "layer_ent_pt.409716", "Name": "秀域古方减肥美容保健", "pyname": "xygfjfmrbj", "kind": "A080", "zipcode": null, "telephone": "0731-85719909", "display_x": "112.95432", "display_y": "28.20039", "side": "L", "address": "白沙液街42" }, "geometry": { "type": "Point", "coordinates": [ 112.9488426, 28.20387623 ] } },
{ "type": "Feature", "properties": { "gml_id": "layer_ent_pt.409755", "Name": "时尚码头盛锋店", "pyname": "ssmtsfd", "kind": "A080", "zipcode": null, "telephone": null, "display_x": "112.95045", "display_y": "28.16224", "side": "R", "address": null }, "geometry": { "type": "Point", "coordinates": [ 112.94498448, 28.16573157 ] } },
{ "type": "Feature", "properties": { "gml_id": "layer_ent_pt.409756", "Name": "乐客星牌台球", "pyname": "lkxptq", "kind": "6D00", "zipcode": null, "telephone": null, "display_x": "112.9553", "display_y": "28.21745", "side": "L", "address": "银盆南路" }, "geometry": { "type": "Point", "coordinates": [ 112.94982072, 28.22093577 ] } },
{ "type": "Feature", "properties": { "gml_id": "layer_ent_pt.409817", "Name": "若茗专业护肤养生馆", "pyname": "rmzyhfysg", "kind": "A080", "zipcode": null, "telephone": "0731-88613058", "display_x": "112.95258", "display_y": "28.22327", "side": "L", "address": "彩虹路" }, "geometry": { "type": "Point", "coordinates": [ 112.9471074, 28.22676116 ] } },
{ "type": "Feature", "properties": { "gml_id": "layer_ent_pt.409835", "Name": "新情缘网络会所", "pyname": "xqywlhs", "kind": "6E00", "zipcode": null, "telephone": null, "display_x": "112.92192", "display_y": "28.21713", "side": "R", "address": "望岳南路030" }, "geometry": { "type": "Point", "coordinates": [ 112.9165047, 28.22066415 ] } },
{ "type": "Feature", "properties": { "gml_id": "layer_ent_pt.409887", "Name": "韩发域形象工作室", "pyname": "hfyxxgzs", "kind": "A080", "zipcode": null, "telephone": "13037317778", "display_x": "112.92517", "display_y": "28.21628", "side": "L", "address": null }, "geometry": { "type": "Point", "coordinates": [ 112.9197492, 28.21981005 ] } },
{ "type": "Feature", "properties": { "gml_id": "layer_ent_pt.409888", "Name": "风玲美发", "pyname": "flmf", "kind": "A080", "zipcode": null, "telephone": "13973169617", "display_x": "112.93291", "display_y": "28.21577", "side": "L", "address": "白鹤咀街" }, "geometry": { "type": "Point", "coordinates": [ 112.9274775, 28.21929156 ] } },
{ "type": "Feature", "properties": { "gml_id": "layer_ent_pt.409954", "Name": "爱尚你", "pyname": "asn", "kind": "A080", "zipcode": null, "telephone": "18607317592", "display_x": "112.95161", "display_y": "28.16051", "side": "R", "address": null }, "geometry": { "type": "Point", "coordinates": [ 112.94614242, 28.16399975 ] } },
{ "type": "Feature", "properties": { "gml_id": "layer_ent_pt.409955", "Name": "思妍丽", "pyname": "syl", "kind": "A080", "zipcode": null, "telephone": "0731-82927066", "display_x": "112.93499", "display_y": "28.22275", "side": "R", "address": "金星中路528号茉莉花国际酒店1层" }, "geometry": { "type": "Point", "coordinates": [ 112.92955272, 28.22626823 ] } },
{ "type": "Feature", "properties": { "gml_id": "layer_ent_pt.409956", "Name": "足艺堂", "pyname": "zyt", "kind": "A100", "zipcode": null, "telephone": "0731-89730555", "display_x": "112.93634", "display_y": "28.2251", "side": "L", "address": "岳麓大道311号金麓国际大酒店4层" }, "geometry": { "type": "Point", "coordinates": [ 112.9309002, 28.22861646 ] } },
{ "type": "Feature", "properties": { "gml_id": "layer_ent_pt.409987", "Name": "克丽缇娜美美女子养生会所", "pyname": "kltnmmnzyshs", "kind": "A080", "zipcode": null, "telephone": "0731-84172828", "display_x": "112.92597", "display_y": "28.16066", "side": "R", "address": "步步高生活广场王家湾店1层中庭广场" }, "geometry": { "type": "Point", "coordinates": [ 112.9205529, 28.16418794 ] } },
{ "type": "Feature", "properties": { "gml_id": "layer_ent_pt.409988", "Name": "嘉嘉网络会所", "pyname": "jjwlhs", "kind": "6E00", "zipcode": null, "telephone": null, "display_x": "112.94136", "display_y": "28.15375", "side": "L", "address": null }, "geometry": { "type": "Point", "coordinates": [ 112.935915, 28.15725627 ] } },
{ "type": "Feature", "properties": { "gml_id": "layer_ent_pt.410003", "Name": "蝶曼美容SPA养生馆", "pyname": "dmmrsysg", "kind": "A100", "zipcode": null, "telephone": "0731-88858016", "display_x": "112.95673", "display_y": "28.20382", "side": "L", "address": null }, "geometry": { "type": "Point", "coordinates": [ 112.9512474, 28.2073023 ] } },
{ "type": "Feature", "properties": { "gml_id": "layer_ent_pt.410028", "Name": "8090专业烫染麓山名园店", "pyname": "8090zytrlsmyd", "kind": "A080", "zipcode": null, "telephone": null, "display_x": "112.93021", "display_y": "28.20756", "side": "R", "address": null }, "geometry": { "type": "Point", "coordinates": [ 112.92478362, 28.21108572 ] } },
{ "type": "Feature", "properties": { "gml_id": "layer_ent_pt.410029", "Name": "美绘所", "pyname": "mhs", "kind": "A080", "zipcode": null, "telephone": "0731-89606678", "display_x": "112.93206", "display_y": "28.21027", "side": "R", "address": null }, "geometry": { "type": "Point", "coordinates": [ 112.92663024, 28.21379333 ] } },
{ "type": "Feature", "properties": { "gml_id": "layer_ent_pt.410042", "Name": "芙蓉乒乓球运动俱乐部", "pyname": "frppqydjlb", "kind": "6D00", "zipcode": "410013", "telephone": null, "display_x": "112.94243", "display_y": "28.22487", "side": "R", "address": "岳麓大道233湖南科技大厦3层" }, "geometry": { "type": "Point", "coordinates": [ 112.93698114, 28.22837976 ] } },
{ "type": "Feature", "properties": { "gml_id": "layer_ent_pt.410064", "Name": "主流造型第五形象店", "pyname": "zlzxdwxxd", "kind": "A080", "zipcode": null, "telephone": null, "display_x": "112.92484", "display_y": "28.20727", "side": "R", "address": null }, "geometry": { "type": "Point", "coordinates": [ 112.9194216, 28.21080164 ] } },
{ "type": "Feature", "properties": { "gml_id": "layer_ent_pt.410093", "Name": "南国丽人美容瑜伽会所", "pyname": "nglrmryjhs", "kind": "A080", "zipcode": null, "telephone": null, "display_x": "112.9293", "display_y": "28.21765", "side": "L", "address": "桐梓坡路485号4层" }, "geometry": { "type": "Point", "coordinates": [ 112.92387246, 28.22117522 ] } },
{ "type": "Feature", "properties": { "gml_id": "layer_ent_pt.410161", "Name": "君喜体育运动中心", "pyname": "jxtyydzx", "kind": "6D00", "zipcode": null, "telephone": null, "display_x": "112.95513", "display_y": "28.21438", "side": "R", "address": "集贤路10" }, "geometry": { "type": "Point", "coordinates": [ 112.94965188, 28.21786641 ] } },
{ "type": "Feature", "properties": { "gml_id": "layer_ent_pt.410162", "Name": "香港卓而美国际医学美容医院湖南分院", "pyname": "xgzemgjyxmryyhnfy", "kind": "A080", "zipcode": null, "telephone": "0731-82118888", "display_x": "112.95548", "display_y": "28.19555", "side": "R", "address": "枫林一路7" }, "geometry": { "type": "Point", "coordinates": [ 112.95000036, 28.19903405 ] } },
{ "type": "Feature", "properties": { "gml_id": "layer_ent_pt.410163", "Name": "爵士台球会所", "pyname": "jstqhs", "kind": "6D00", "zipcode": null, "telephone": null, "display_x": "112.94991", "display_y": "28.16228", "side": "L", "address": null }, "geometry": { "type": "Point", "coordinates": [ 112.94444556, 28.16577239 ] } },
{ "type": "Feature", "properties": { "gml_id": "layer_ent_pt.410164", "Name": "贡享发型顾问中心", "pyname": "gxfxgwzx", "kind": "A080", "zipcode": null, "telephone": null, "display_x": "112.95228", "display_y": "28.22387", "side": "L", "address": "银双路28－14" }, "geometry": { "type": "Point", "coordinates": [ 112.94680806, 28.22736177 ] } },
{ "type": "Feature", "properties": { "gml_id": "layer_ent_pt.410200", "Name": "裁神道", "pyname": "csd", "kind": "A080", "zipcode": null, "telephone": "0731-88228646", "display_x": "112.94528", "display_y": "28.16804", "side": "L", "address": "阜埠河路233" }, "geometry": { "type": "Point", "coordinates": [ 112.93982532, 28.17154049 ] } },
{ "type": "Feature", "properties": { "gml_id": "layer_ent_pt.410237", "Name": "湖南大学北校区－游泳池", "pyname": "hndxbxq-yyc", "kind": "6600", "zipcode": null, "telephone": null, "display_x": "112.9326", "display_y": "28.19865", "side": "L", "address": "石佳冲路109号湖南大学北校区内" }, "geometry": { "type": "Point", "coordinates": [ 112.92717222, 28.20217446 ] } },
{ "type": "Feature", "properties": { "gml_id": "layer_ent_pt.410252", "Name": "晓晓美容减肥", "pyname": "xxmrjf", "kind": "A080", "zipcode": null, "telephone": "13786133811", "display_x": "112.93833", "display_y": "28.16594", "side": "L", "address": "麓山南路640" }, "geometry": { "type": "Point", "coordinates": [ 112.93289046, 28.1694519 ] } },
{ "type": "Feature", "properties": { "gml_id": "layer_ent_pt.410426", "Name": "芭比国际发型设计", "pyname": "bbgjfxsj", "kind": "A080", "zipcode": null, "telephone": "15084888928", "display_x": "112.93199", "display_y": "28.19458", "side": "L", "address": "校区路" }, "geometry": { "type": "Point", "coordinates": [ 112.92656364, 28.1981052 ] } },
{ "type": "Feature", "properties": { "gml_id": "layer_ent_pt.410449", "Name": "洋海塘社区公园", "pyname": "yhtsqgy", "kind": "7300", "zipcode": null, "telephone": null, "display_x": "112.92499", "display_y": "28.15865", "side": "R", "address": "左家垅洋海塘小区内" }, "geometry": { "type": "Point", "coordinates": [ 112.91957406, 28.16217837 ] } },
{ "type": "Feature", "properties": { "gml_id": "layer_ent_pt.410452", "Name": "湘核影城长沙店", "pyname": "xhyccsd", "kind": "6500", "zipcode": null, "telephone": "0731-88292101", "display_x": "112.92597", "display_y": "28.16066", "side": "R", "address": "步步高生活广场王家湾店4层" }, "geometry": { "type": "Point", "coordinates": [ 112.9205529, 28.16418794 ] } },
{ "type": "Feature", "properties": { "gml_id": "layer_ent_pt.410454", "Name": "扬州专业修脚足疗", "pyname": "yzzyxjzl", "kind": "A100", "zipcode": null, "telephone": "18684886491", "display_x": "112.93918", "display_y": "28.1538", "side": "L", "address": null }, "geometry": { "type": "Point", "coordinates": [ 112.93373952, 28.15730973 ] } },
{ "type": "Feature", "properties": { "gml_id": "layer_ent_pt.410487", "Name": "英才园社区公园", "pyname": "ycysqgy", "kind": "7300", "zipcode": null, "telephone": null, "display_x": "112.9466", "display_y": "28.21297", "side": "L", "address": "咸嘉湖路" }, "geometry": { "type": "Point", "coordinates": [ 112.94114148, 28.21647155 ] } },
{ "type": "Feature", "properties": { "gml_id": "layer_ent_pt.410488", "Name": "亚太医疗美容", "pyname": "ytylmr", "kind": "A080", "zipcode": null, "telephone": null, "display_x": "112.948", "display_y": "28.21289", "side": "L", "address": "西山汇景108" }, "geometry": { "type": "Point", "coordinates": [ 112.94253828, 28.21638902 ] } },
{ "type": "Feature", "properties": { "gml_id": "layer_ent_pt.410522", "Name": "灵尚发艺形象工作室NO．2", "pyname": "lsfyxxgzsn2", "kind": "A080", "zipcode": null, "telephone": "15575858068", "display_x": "112.95102", "display_y": "28.16118", "side": "L", "address": null }, "geometry": { "type": "Point", "coordinates": [ 112.94555346, 28.1646707 ] } },
{ "type": "Feature", "properties": { "gml_id": "layer_ent_pt.410523", "Name": "神采飞扬动漫电玩城", "pyname": "scfydmdwc", "kind": "6D00", "zipcode": null, "telephone": null, "display_x": "112.93529", "display_y": "28.21925", "side": "L", "address": "湘腾城市广场3栋M层" }, "geometry": { "type": "Point", "coordinates": [ 112.92985314, 28.22276844 ] } },
{ "type": "Feature", "properties": { "gml_id": "layer_ent_pt.410524", "Name": "汉子足浴", "pyname": "hzzy", "kind": "A100", "zipcode": null, "telephone": "0731-85889698", "display_x": "112.93602", "display_y": "28.21993", "side": "L", "address": "湘腾城市广场1栋3楼" }, "geometry": { "type": "Point", "coordinates": [ 112.93058196, 28.22344754 ] } },
{ "type": "Feature", "properties": { "gml_id": "layer_ent_pt.410525", "Name": "克丽缇娜甲乙丙丁美容院", "pyname": "kltnjybdmry", "kind": "A080", "zipcode": null, "telephone": "0731-86453838", "display_x": "112.94237", "display_y": "28.21274", "side": "R", "address": null }, "geometry": { "type": "Point", "coordinates": [ 112.9369212, 28.21624911 ] } },
{ "type": "Feature", "properties": { "gml_id": "layer_ent_pt.410526", "Name": "湘泽舞厅", "pyname": "xzwt", "kind": "6C00", "zipcode": null, "telephone": null, "display_x": "112.92446", "display_y": "28.21472", "side": "L", "address": null }, "geometry": { "type": "Point", "coordinates": [ 112.91904036, 28.21825094 ] } },
{ "type": "Feature", "properties": { "gml_id": "layer_ent_pt.410592", "Name": "开心哈乐室内儿童主题亲子乐园长沙步步高店", "pyname": "kxhlsnetztqzlycsbbgd", "kind": "6300", "zipcode": null, "telephone": null, "display_x": "112.92597", "display_y": "28.16066", "side": "R", "address": "步步高生活广场王家湾店1层" }, "geometry": { "type": "Point", "coordinates": [ 112.9205529, 28.16418794 ] } },
{ "type": "Feature", "properties": { "gml_id": "layer_ent_pt.410625", "Name": "百度发艺", "pyname": "bdfy", "kind": "A080", "zipcode": null, "telephone": null, "display_x": "112.94012", "display_y": "28.22193", "side": "L", "address": "银双路263" }, "geometry": { "type": "Point", "coordinates": [ 112.93467534, 28.22544275 ] } },
{ "type": "Feature", "properties": { "gml_id": "layer_ent_pt.410842", "Name": "水玲珑", "pyname": "sll", "kind": "A080", "zipcode": null, "telephone": "0731-85534327", "display_x": "112.94451", "display_y": "28.1689", "side": "L", "address": null }, "geometry": { "type": "Point", "coordinates": [ 112.9390569, 28.17240183 ] } },
{ "type": "Feature", "properties": { "gml_id": "layer_ent_pt.410991", "Name": "帅帅网吧", "pyname": "sswb", "kind": "6E00", "zipcode": null, "telephone": null, "display_x": "112.94602", "display_y": "28.16729", "side": "L", "address": "天马学生公寓潇湘大厦1楼" }, "geometry": { "type": "Point", "coordinates": [ 112.94056368, 28.17078917 ] } },
{ "type": "Feature", "properties": { "gml_id": "layer_ent_pt.411053", "Name": "长沙万达电影桐梓坡店", "pyname": "cswddytzpd", "kind": "6500", "zipcode": null, "telephone": "0731-88959722", "display_x": "112.93537", "display_y": "28.21832", "side": "R", "address": "金星中路428步步高广场9楼" }, "geometry": { "type": "Point", "coordinates": [ 112.92993324, 28.22183847 ] } },
{ "type": "Feature", "properties": { "gml_id": "layer_ent_pt.411054", "Name": "美丽妈妈产后恢复中心", "pyname": "mlmmchhfzx", "kind": "A080", "zipcode": null, "telephone": null, "display_x": "112.93651", "display_y": "28.22167", "side": "L", "address": null }, "geometry": { "type": "Point", "coordinates": [ 112.93107084, 28.22518674 ] } },
{ "type": "Feature", "properties": { "gml_id": "layer_ent_pt.411075", "Name": "滴嗒滴洗浴会所", "pyname": "dddxyhs", "kind": "A100", "zipcode": null, "telephone": "13517489126", "display_x": "112.93194", "display_y": "28.21589", "side": "R", "address": "白鹤咀街" }, "geometry": { "type": "Point", "coordinates": [ 112.92650892, 28.21941261 ] } },
{ "type": "Feature", "properties": { "gml_id": "layer_ent_pt.411143", "Name": "麓湘映象", "pyname": "lxyx", "kind": "6500", "zipcode": null, "telephone": "0731-88750899", "display_x": "112.94202", "display_y": "28.16752", "side": "L", "address": "麓山南路534号" }, "geometry": { "type": "Point", "coordinates": [ 112.93657236, 28.17102587 ] } },
{ "type": "Feature", "properties": { "gml_id": "layer_ent_pt.411220", "Name": "ID制造精品发艺私享艺术空间", "pyname": "izzjpfysxyskj", "kind": "A080", "zipcode": null, "telephone": "0731-86458967", "display_x": "112.93529", "display_y": "28.21994", "side": "L", "address": "湘腾城市广场1－118" }, "geometry": { "type": "Point", "coordinates": [ 112.92985296, 28.22345834 ] } },
{ "type": "Feature", "properties": { "gml_id": "layer_ent_pt.411279", "Name": "哈尼小城", "pyname": "hnxc", "kind": "6300", "zipcode": null, "telephone": null, "display_x": "112.95419", "display_y": "28.22534", "side": "R", "address": "岳麓大道" }, "geometry": { "type": "Point", "coordinates": [ 112.9487112, 28.22882625 ] } },
{ "type": "Feature", "properties": { "gml_id": "layer_ent_pt.411280", "Name": "美后抗衰美疗中心", "pyname": "mhksmlzx", "kind": "A080", "zipcode": null, "telephone": "15873133699", "display_x": "112.95442", "display_y": "28.22123", "side": "L", "address": "银盆南路282" }, "geometry": { "type": "Point", "coordinates": [ 112.94894214, 28.2247169 ] } },
{ "type": "Feature", "properties": { "gml_id": "layer_ent_pt.411281", "Name": "纤丝造型", "pyname": "xszx", "kind": "A080", "zipcode": null, "telephone": null, "display_x": "112.94441", "display_y": "28.19976", "side": "R", "address": "谭石路" }, "geometry": { "type": "Point", "coordinates": [ 112.93895556, 28.20326391 ] } },
{ "type": "Feature", "properties": { "gml_id": "layer_ent_pt.411390", "Name": "网娱网鸽数字生活馆", "pyname": "wywgszshg", "kind": "6E00", "zipcode": null, "telephone": null, "display_x": "112.94483", "display_y": "28.17229", "side": "L", "address": "麓山南路256" }, "geometry": { "type": "Point", "coordinates": [ 112.93937622, 28.17579168 ] } },
{ "type": "Feature", "properties": { "gml_id": "layer_ent_pt.411413", "Name": "星力拳馆", "pyname": "xlqg", "kind": "6D00", "zipcode": null, "telephone": "13786174793", "display_x": "112.95429", "display_y": "28.21752", "side": "R", "address": "麓源路" }, "geometry": { "type": "Point", "coordinates": [ 112.94881398, 28.22100831 ] } },
{ "type": "Feature", "properties": { "gml_id": "layer_ent_pt.411414", "Name": "红狐狸小小BAR", "pyname": "hhlxxb", "kind": "1500", "zipcode": null, "telephone": null, "display_x": "112.93566", "display_y": "28.21951", "side": "R", "address": "湘腾城市广场2－102" }, "geometry": { "type": "Point", "coordinates": [ 112.9302225, 28.223028 ] } },
{ "type": "Feature", "properties": { "gml_id": "layer_ent_pt.411418", "Name": "正道足浴会所", "pyname": "zdzyhs", "kind": "A100", "zipcode": null, "telephone": "0731-88828678", "display_x": "112.92903", "display_y": "28.22493", "side": "L", "address": "岳麓大道383" }, "geometry": { "type": "Point", "coordinates": [ 112.923603, 28.22845577 ] } },
{ "type": "Feature", "properties": { "gml_id": "layer_ent_pt.411419", "Name": "颐而康", "pyname": "yek", "kind": "A100", "zipcode": "410006", "telephone": "0731-88614666", "display_x": "112.95187", "display_y": "28.19265", "side": "R", "address": "新民路163" }, "geometry": { "type": "Point", "coordinates": [ 112.9463991, 28.1961405 ] } },
{ "type": "Feature", "properties": { "gml_id": "layer_ent_pt.411466", "Name": "榕树网吧", "pyname": "rswb", "kind": "6E00", "zipcode": null, "telephone": "15874286518", "display_x": "112.92855", "display_y": "28.2009", "side": "L", "address": null }, "geometry": { "type": "Point", "coordinates": [ 112.92312726, 28.20442824 ] } },
{ "type": "Feature", "properties": { "gml_id": "layer_ent_pt.411798", "Name": "源畅养润府", "pyname": "ycyrf", "kind": "A100", "zipcode": null, "telephone": null, "display_x": "112.95417", "display_y": "28.19998", "side": "R", "address": "白沙液街21" }, "geometry": { "type": "Point", "coordinates": [ 112.94869302, 28.20346646 ] } },
{ "type": "Feature", "properties": { "gml_id": "layer_ent_pt.411799", "Name": "尚尚全国连锁直营店", "pyname": "ssqglszyd", "kind": "A080", "zipcode": null, "telephone": "0731-89719268", "display_x": "112.93616", "display_y": "28.22046", "side": "L", "address": null }, "geometry": { "type": "Point", "coordinates": [ 112.93072164, 28.22397728 ] } },
{ "type": "Feature", "properties": { "gml_id": "layer_ent_pt.411802", "Name": "魔方主题KTV", "pyname": "mfztk", "kind": "6680", "zipcode": null, "telephone": "0731-85826555", "display_x": "112.95522", "display_y": "28.22288", "side": "R", "address": "岳麓大道57号奥克斯广场3层" }, "geometry": { "type": "Point", "coordinates": [ 112.94973882, 28.2263643 ] } },
{ "type": "Feature", "properties": { "gml_id": "layer_ent_pt.411915", "Name": "宜康足疗", "pyname": "ykzl", "kind": "A100", "zipcode": null, "telephone": null, "display_x": "112.95483", "display_y": "28.21299", "side": "R", "address": "铜盆湖路1－15" }, "geometry": { "type": "Point", "coordinates": [ 112.94935236, 28.21647681 ] } },
{ "type": "Feature", "properties": { "gml_id": "layer_ent_pt.411957", "Name": "中南大学运动场（2）", "pyname": "zndxydc(2)", "kind": "6600", "zipcode": null, "telephone": null, "display_x": "112.94041", "display_y": "28.21824", "side": "R", "address": "桐梓坡路" }, "geometry": { "type": "Point", "coordinates": [ 112.93496586, 28.22175297 ] } },
{ "type": "Feature", "properties": { "gml_id": "layer_ent_pt.412140", "Name": "麓鼎宫养生会所", "pyname": "ldgyshs", "kind": "A100", "zipcode": null, "telephone": "0731-89735555", "display_x": "112.9548", "display_y": "28.2184", "side": "L", "address": "银盆南路337号" }, "geometry": { "type": "Point", "coordinates": [ 112.94932212, 28.2218868 ] } },
{ "type": "Feature", "properties": { "gml_id": "layer_ent_pt.412366", "Name": "摩登烫染形象店", "pyname": "mdtrxxd", "kind": "A080", "zipcode": "410012", "telephone": "13077337621", "display_x": "112.94581", "display_y": "28.16817", "side": "R", "address": "阜埠河路274" }, "geometry": { "type": "Point", "coordinates": [ 112.94035416, 28.17166959 ] } },
{ "type": "Feature", "properties": { "gml_id": "layer_ent_pt.412398", "Name": "欢乐谷儿童乐园", "pyname": "hlgetly", "kind": "6D00", "zipcode": null, "telephone": null, "display_x": "112.92504", "display_y": "28.216", "side": "R", "address": null }, "geometry": { "type": "Point", "coordinates": [ 112.91961942, 28.2195302 ] } },
{ "type": "Feature", "properties": { "gml_id": "layer_ent_pt.412402", "Name": "湖南师大羽毛球俱乐部", "pyname": "hnsdymqjlb", "kind": "6601", "zipcode": null, "telephone": null, "display_x": "112.94871", "display_y": "28.18482", "side": "R", "address": "麓山路36号湖南师范大学内" }, "geometry": { "type": "Point", "coordinates": [ 112.94324712, 28.18831613 ] } },
{ "type": "Feature", "properties": { "gml_id": "layer_ent_pt.412545", "Name": "泰美丽纤体SPA养生馆", "pyname": "tmlxtsysg", "kind": "A080", "zipcode": null, "telephone": null, "display_x": "112.93311", "display_y": "28.22426", "side": "R", "address": "岳麓大道355－9" }, "geometry": { "type": "Point", "coordinates": [ 112.92767586, 28.2277805 ] } },
{ "type": "Feature", "properties": { "gml_id": "layer_ent_pt.412643", "Name": "佐登妮丝美容SPA生活馆西子湖畔店", "pyname": "zdnsmrsshgxzhpd", "kind": "A080", "zipcode": null, "telephone": "0731-84625798", "display_x": "112.93486", "display_y": "28.21151", "side": "L", "address": null }, "geometry": { "type": "Point", "coordinates": [ 112.92942564, 28.21503006 ] } },
{ "type": "Feature", "properties": { "gml_id": "layer_ent_pt.412671", "Name": "美奥斯乐酒店－棋牌", "pyname": "masljd-qp", "kind": "6D80", "zipcode": null, "telephone": null, "display_x": "112.93446", "display_y": "28.21449", "side": "L", "address": "金星中路400号美奥斯乐酒店1楼" }, "geometry": { "type": "Point", "coordinates": [ 112.9290255, 28.21801005 ] } },
{ "type": "Feature", "properties": { "gml_id": "layer_ent_pt.412675", "Name": "佳影美容养生会所", "pyname": "jymryshs", "kind": "A080", "zipcode": "410013", "telephone": null, "display_x": "112.93193", "display_y": "28.21836", "side": "N", "address": null }, "geometry": { "type": "Point", "coordinates": [ 112.92649848, 28.22188226 ] } },
{ "type": "Feature", "properties": { "gml_id": "layer_ent_pt.412727", "Name": "开口笑广场", "pyname": "kkxgc", "kind": "7380", "zipcode": null, "telephone": null, "display_x": "112.93469", "display_y": "28.15533", "side": "L", "address": "中南大学内" }, "geometry": { "type": "Point", "coordinates": [ 112.9292586, 28.15884684 ] } },
{ "type": "Feature", "properties": { "gml_id": "layer_ent_pt.412771", "Name": "爱美阁养生馆", "pyname": "amgysg", "kind": "A080", "zipcode": null, "telephone": "0731-88632889", "display_x": "112.93438", "display_y": "28.16388", "side": "R", "address": "麓山南路739号3楼" }, "geometry": { "type": "Point", "coordinates": [ 112.92894918, 28.16739828 ] } },
{ "type": "Feature", "properties": { "gml_id": "layer_ent_pt.412772", "Name": "发丝养发馆", "pyname": "fsyfg", "kind": "A080", "zipcode": null, "telephone": null, "display_x": "112.95059", "display_y": "28.16224", "side": "R", "address": null }, "geometry": { "type": "Point", "coordinates": [ 112.94512416, 28.16573135 ] } },
{ "type": "Feature", "properties": { "gml_id": "layer_ent_pt.412786", "Name": "时代帝景大酒店－乒乓球室", "pyname": "sddjdjd-ppqs", "kind": "6600", "zipcode": "410013", "telephone": "0731-88989999", "display_x": "112.93401", "display_y": "28.2174", "side": "R", "address": "桐梓坡路399号时代帝景大酒店6层" }, "geometry": { "type": "Point", "coordinates": [ 112.9285755, 28.22092011 ] } },
{ "type": "Feature", "properties": { "gml_id": "layer_ent_pt.412787", "Name": "时代帝景大酒店－台球室", "pyname": "sddjdjd-tqs", "kind": "6600", "zipcode": "410013", "telephone": "0731-88989999", "display_x": "112.93401", "display_y": "28.2174", "side": "R", "address": "桐梓坡路399号时代帝景大酒店B1层" }, "geometry": { "type": "Point", "coordinates": [ 112.9285755, 28.22092011 ] } },
{ "type": "Feature", "properties": { "gml_id": "layer_ent_pt.412944", "Name": "风火轮滚轴溜冰城", "pyname": "fhlgzlbc", "kind": "6B00", "zipcode": null, "telephone": null, "display_x": "112.93978", "display_y": "28.16345", "side": "L", "address": "师南路" }, "geometry": { "type": "Point", "coordinates": [ 112.9343373, 28.16695917 ] } },
{ "type": "Feature", "properties": { "gml_id": "layer_ent_pt.412945", "Name": "中南大学体育中心", "pyname": "zndxtyzx", "kind": "6600", "zipcode": null, "telephone": null, "display_x": "112.93793", "display_y": "28.15882", "side": "R", "address": "麓山南路605中南大学内" }, "geometry": { "type": "Point", "coordinates": [ 112.9324914, 28.16233178 ] } },
{ "type": "Feature", "properties": { "gml_id": "layer_ent_pt.412987", "Name": "时尚码头烫染连锁NO．2", "pyname": "ssmttrlsn2", "kind": "A080", "zipcode": "410006", "telephone": null, "display_x": "112.94824", "display_y": "28.18862", "side": "R", "address": "麓山路264" }, "geometry": { "type": "Point", "coordinates": [ 112.94277786, 28.19211692 ] } },
{ "type": "Feature", "properties": { "gml_id": "layer_ent_pt.412989", "Name": "维度量贩KTV", "pyname": "wdlfk", "kind": "6680", "zipcode": null, "telephone": "0731-89661919", "display_x": "112.94422", "display_y": "28.16907", "side": "R", "address": "河西渔湾商业广场麓枫华天假日酒店3楼" }, "geometry": { "type": "Point", "coordinates": [ 112.93876764, 28.17257234 ] } },
{ "type": "Feature", "properties": { "gml_id": "layer_ent_pt.413065", "Name": "蓝色天空动漫城", "pyname": "lstkdmc", "kind": "6D00", "zipcode": null, "telephone": null, "display_x": "112.93624", "display_y": "28.22045", "side": "L", "address": null }, "geometry": { "type": "Point", "coordinates": [ 112.93080138, 28.2239672 ] } },
{ "type": "Feature", "properties": { "gml_id": "layer_ent_pt.413067", "Name": "菡美国际美容连锁机构", "pyname": "hmgjmrlsjg", "kind": "A080", "zipcode": null, "telephone": "13677324283", "display_x": "112.92556", "display_y": "28.21846", "side": "R", "address": "桐梓坡路6－101" }, "geometry": { "type": "Point", "coordinates": [ 112.92013854, 28.22198972 ] } },
{ "type": "Feature", "properties": { "gml_id": "layer_ent_pt.413069", "Name": "梦幻舞厅", "pyname": "mhwt", "kind": "6C00", "zipcode": "410205", "telephone": null, "display_x": "112.91553", "display_y": "28.21107", "side": "L", "address": "枫林二路550号2楼" }, "geometry": { "type": "Point", "coordinates": [ 112.91012028, 28.21460702 ] } },
{ "type": "Feature", "properties": { "gml_id": "layer_ent_pt.413085", "Name": "小叮当电玩城", "pyname": "xdddwc", "kind": "6D00", "zipcode": null, "telephone": null, "display_x": "112.94639", "display_y": "28.16694", "side": "L", "address": "阜埠河路" }, "geometry": { "type": "Point", "coordinates": [ 112.94093286, 28.17043848 ] } },
{ "type": "Feature", "properties": { "gml_id": "layer_ent_pt.413086", "Name": "天穆足浴", "pyname": "tmzy", "kind": "A100", "zipcode": null, "telephone": null, "display_x": "112.9465", "display_y": "28.16683", "side": "L", "address": "阜埠河路185号天马学生公寓八栋" }, "geometry": { "type": "Point", "coordinates": [ 112.94104266, 28.17032828 ] } },
{ "type": "Feature", "properties": { "gml_id": "layer_ent_pt.413186", "Name": "秀域古方减肥美容保健", "pyname": "xygfjfmrbj", "kind": "A080", "zipcode": "410013", "telephone": "0731-88852707", "display_x": "112.95419", "display_y": "28.22035", "side": "R", "address": "银盆南路357－3号威胜大厦B座4层419" }, "geometry": { "type": "Point", "coordinates": [ 112.94871318, 28.22383778 ] } },
{ "type": "Feature", "properties": { "gml_id": "layer_ent_pt.413187", "Name": "金蓝源抗衰老美容护理", "pyname": "jlykslmrhl", "kind": "A080", "zipcode": null, "telephone": "0731-88828513", "display_x": "112.95308", "display_y": "28.22004", "side": "R", "address": "桐梓坡路22号威胜大厦A座5层513" }, "geometry": { "type": "Point", "coordinates": [ 112.9476069, 28.22353079 ] } },
{ "type": "Feature", "properties": { "gml_id": "layer_ent_pt.413188", "Name": "禾美泛歌美容沙龙", "pyname": "hmfgmrsl", "kind": "A080", "zipcode": null, "telephone": "0731-88922002", "display_x": "112.95308", "display_y": "28.22004", "side": "R", "address": "桐梓坡路22号威胜大厦A座3层" }, "geometry": { "type": "Point", "coordinates": [ 112.9476069, 28.22353079 ] } },
{ "type": "Feature", "properties": { "gml_id": "layer_ent_pt.413189", "Name": "艺鑫专业烫染名店", "pyname": "yxzytrmd", "kind": "A080", "zipcode": null, "telephone": null, "display_x": "112.9313", "display_y": "28.2102", "side": "L", "address": "咸嘉湖路804－A" }, "geometry": { "type": "Point", "coordinates": [ 112.92587136, 28.21372416 ] } },
{ "type": "Feature", "properties": { "gml_id": "layer_ent_pt.413301", "Name": "欧也造型", "pyname": "oyzx", "kind": "A080", "zipcode": null, "telephone": null, "display_x": "112.95599", "display_y": "28.21598", "side": "L", "address": "银盆南路319－4" }, "geometry": { "type": "Point", "coordinates": [ 112.95050922, 28.21946436 ] } },
{ "type": "Feature", "properties": { "gml_id": "layer_ent_pt.413305", "Name": "西奇网络会所同盟军连锁", "pyname": "xqwlhstmjls", "kind": "6E00", "zipcode": null, "telephone": "13607496673", "display_x": "112.92113", "display_y": "28.2095", "side": "R", "address": "枫林二路421" }, "geometry": { "type": "Point", "coordinates": [ 112.91571558, 28.2130344 ] } },
{ "type": "Feature", "properties": { "gml_id": "layer_ent_pt.413317", "Name": "爱亲游乐场", "pyname": "aqylc", "kind": "6300", "zipcode": null, "telephone": null, "display_x": "112.92199", "display_y": "28.22289", "side": "R", "address": "望岳路038" }, "geometry": { "type": "Point", "coordinates": [ 112.916574, 28.22642348 ] } },
{ "type": "Feature", "properties": { "gml_id": "layer_ent_pt.413324", "Name": "竞竞美业", "pyname": "jjmy", "kind": "A080", "zipcode": null, "telephone": null, "display_x": "112.95433", "display_y": "28.194", "side": "R", "address": "爱民路86" }, "geometry": { "type": "Point", "coordinates": [ 112.94885322, 28.19748609 ] } },
{ "type": "Feature", "properties": { "gml_id": "layer_ent_pt.413334", "Name": "宏运动漫电玩城", "pyname": "hydmdwc", "kind": "6D00", "zipcode": "410013", "telephone": null, "display_x": "112.95574", "display_y": "28.19976", "side": "L", "address": "银盆南路52－2" }, "geometry": { "type": "Point", "coordinates": [ 112.95025938, 28.20324362 ] } },
{ "type": "Feature", "properties": { "gml_id": "layer_ent_pt.413456", "Name": "麓山发艺", "pyname": "lsfy", "kind": "A080", "zipcode": null, "telephone": null, "display_x": "112.92707", "display_y": "28.15928", "side": "R", "address": null }, "geometry": { "type": "Point", "coordinates": [ 112.92165198, 28.16280729 ] } },
{ "type": "Feature", "properties": { "gml_id": "layer_ent_pt.413481", "Name": "歌丽芬美容美体生活馆", "pyname": "glfmrmtshg", "kind": "A080", "zipcode": null, "telephone": "0731-88861211", "display_x": "112.95606", "display_y": "28.20568", "side": "R", "address": "月宫街120" }, "geometry": { "type": "Point", "coordinates": [ 112.95057906, 28.20916373 ] } },
{ "type": "Feature", "properties": { "gml_id": "layer_ent_pt.413675", "Name": "福托妮斯芳香美容连锁玛依拉店", "pyname": "ftnsfxmrlsmyld", "kind": "A080", "zipcode": null, "telephone": "13787217219", "display_x": "112.93576", "display_y": "28.21205", "side": "L", "address": "咸嘉湖西路34" }, "geometry": { "type": "Point", "coordinates": [ 112.9303242, 28.21556898 ] } },
{ "type": "Feature", "properties": { "gml_id": "layer_ent_pt.413834", "Name": "熊熊乐园", "pyname": "xxly", "kind": "6300", "zipcode": null, "telephone": null, "display_x": "112.95043", "display_y": "28.22253", "side": "R", "address": "银双路" }, "geometry": { "type": "Point", "coordinates": [ 112.94496324, 28.22602581 ] } },
{ "type": "Feature", "properties": { "gml_id": "layer_ent_pt.413863", "Name": "皙泉国际美容连锁机构", "pyname": "xqgjmrlsjg", "kind": "A080", "zipcode": null, "telephone": "0731-88825568", "display_x": "112.9359", "display_y": "28.22232", "side": "R", "address": "金星中路528－13" }, "geometry": { "type": "Point", "coordinates": [ 112.93046154, 28.22583731 ] } },
{ "type": "Feature", "properties": { "gml_id": "layer_ent_pt.413965", "Name": "方程式网络会所广茂连锁", "pyname": "fcswlhsgmls", "kind": "6E00", "zipcode": null, "telephone": null, "display_x": "112.92714", "display_y": "28.20047", "side": "R", "address": "石佳冲路" }, "geometry": { "type": "Point", "coordinates": [ 112.92171876, 28.20399899 ] } },
{ "type": "Feature", "properties": { "gml_id": "layer_ent_pt.413966", "Name": "天悦福足浴", "pyname": "tyfzy", "kind": "A100", "zipcode": null, "telephone": "0731-88989168", "display_x": "112.94839", "display_y": "28.16828", "side": "L", "address": "天马路115号天马大酒店2楼" }, "geometry": { "type": "Point", "coordinates": [ 112.94292852, 28.1717753 ] } },
{ "type": "Feature", "properties": { "gml_id": "layer_ent_pt.413967", "Name": "帝景休闲", "pyname": "djxx", "kind": "A100", "zipcode": "410013", "telephone": null, "display_x": "112.93401", "display_y": "28.2174", "side": "R", "address": "桐梓坡路399号时代帝景大酒店4层" }, "geometry": { "type": "Point", "coordinates": [ 112.9285755, 28.22092011 ] } },
{ "type": "Feature", "properties": { "gml_id": "layer_ent_pt.413975", "Name": "蓬友会清吧", "pyname": "pyhqb", "kind": "1500", "zipcode": null, "telephone": "15073150973", "display_x": "112.9451", "display_y": "28.17296", "side": "L", "address": "麓山南路" }, "geometry": { "type": "Point", "coordinates": [ 112.93964568, 28.17646128 ] } },
{ "type": "Feature", "properties": { "gml_id": "layer_ent_pt.414051", "Name": "百威台球俱乐部", "pyname": "bwtqjlb", "kind": "6D00", "zipcode": null, "telephone": "15874983648", "display_x": "112.94092", "display_y": "28.15391", "side": "L", "address": null }, "geometry": { "type": "Point", "coordinates": [ 112.9354758, 28.15741697 ] } },
{ "type": "Feature", "properties": { "gml_id": "layer_ent_pt.414102", "Name": "美奇造型", "pyname": "mqzx", "kind": "A080", "zipcode": null, "telephone": "0731-89602125", "display_x": "112.95516", "display_y": "28.19769", "side": "L", "address": "银盆南路4号" }, "geometry": { "type": "Point", "coordinates": [ 112.94968086, 28.20117465 ] } },
{ "type": "Feature", "properties": { "gml_id": "layer_ent_pt.414157", "Name": "通程麓山大酒店合声会所", "pyname": "tclsdjdhshs", "kind": "6680", "zipcode": null, "telephone": null, "display_x": "112.95416", "display_y": "28.19565", "side": "L", "address": "枫林一路19通程麓山大酒店6层" }, "geometry": { "type": "Point", "coordinates": [ 112.94868348, 28.19913642 ] } },
{ "type": "Feature", "properties": { "gml_id": "layer_ent_pt.414493", "Name": "雅琪造型", "pyname": "yqzx", "kind": "A080", "zipcode": null, "telephone": null, "display_x": "112.92663", "display_y": "28.20101", "side": "L", "address": "石佳冲路" }, "geometry": { "type": "Point", "coordinates": [ 112.92120918, 28.20453944 ] } },
{ "type": "Feature", "properties": { "gml_id": "layer_ent_pt.414639", "Name": "频频美容美发", "pyname": "ppmrmf", "kind": "A080", "zipcode": null, "telephone": null, "display_x": "112.95392", "display_y": "28.20058", "side": "L", "address": "白沙液路50" }, "geometry": { "type": "Point", "coordinates": [ 112.94844354, 28.20406698 ] } },
{ "type": "Feature", "properties": { "gml_id": "layer_ent_pt.414671", "Name": "丝语发型设计", "pyname": "syfxsj", "kind": "A080", "zipcode": null, "telephone": null, "display_x": "112.92266", "display_y": "28.22232", "side": "L", "address": "晨风路106" }, "geometry": { "type": "Point", "coordinates": [ 112.9172436, 28.22585328 ] } },
{ "type": "Feature", "properties": { "gml_id": "layer_ent_pt.414683", "Name": "梦幻缘网吧", "pyname": "mhywb", "kind": "6E00", "zipcode": null, "telephone": null, "display_x": "112.93906", "display_y": "28.16535", "side": "R", "address": "师南路" }, "geometry": { "type": "Point", "coordinates": [ 112.93361892, 28.1688606 ] } },
{ "type": "Feature", "properties": { "gml_id": "layer_ent_pt.414722", "Name": "文峰美容美发", "pyname": "wfmrmf", "kind": "A080", "zipcode": null, "telephone": "0731-89749898", "display_x": "112.93538", "display_y": "28.22175", "side": "L", "address": null }, "geometry": { "type": "Point", "coordinates": [ 112.92994242, 28.22526797 ] } },
{ "type": "Feature", "properties": { "gml_id": "layer_ent_pt.414723", "Name": "欣艺造型", "pyname": "xyzx", "kind": "A080", "zipcode": null, "telephone": "0731-85839908", "display_x": "112.93327", "display_y": "28.22419", "side": "R", "address": "岳麓大道355－13" }, "geometry": { "type": "Point", "coordinates": [ 112.92783552, 28.2277103 ] } },
{ "type": "Feature", "properties": { "gml_id": "layer_ent_pt.414819", "Name": "宝顶头发健康中心", "pyname": "bdtfjkzx", "kind": "A080", "zipcode": null, "telephone": null, "display_x": "112.92011", "display_y": "28.21014", "side": "L", "address": "枫林二路" }, "geometry": { "type": "Point", "coordinates": [ 112.91469678, 28.21367516 ] } },
{ "type": "Feature", "properties": { "gml_id": "layer_ent_pt.414820", "Name": "海高美KTV量贩", "pyname": "hgmklf", "kind": "6680", "zipcode": null, "telephone": "0731-89751111", "display_x": "112.95039", "display_y": "28.19603", "side": "L", "address": "枫林一路43号枫林宾馆" }, "geometry": { "type": "Point", "coordinates": [ 112.94492202, 28.19952311 ] } },
{ "type": "Feature", "properties": { "gml_id": "layer_ent_pt.414843", "Name": "麓南电玩城", "pyname": "lndwc", "kind": "6D00", "zipcode": null, "telephone": "15675162563", "display_x": "112.93278", "display_y": "28.16256", "side": "R", "address": "清水路" }, "geometry": { "type": "Point", "coordinates": [ 112.92735258, 28.16608082 ] } },
{ "type": "Feature", "properties": { "gml_id": "layer_ent_pt.414864", "Name": "韩国希界维国际影城长沙岳麓店", "pyname": "hgxjwgjyccsyld", "kind": "6500", "zipcode": null, "telephone": "0731-89728628", "display_x": "112.95522", "display_y": "28.22288", "side": "R", "address": "岳麓大道57号奥克斯广场5层" }, "geometry": { "type": "Point", "coordinates": [ 112.94973882, 28.2263643 ] } },
{ "type": "Feature", "properties": { "gml_id": "layer_ent_pt.414898", "Name": "伊兰网络会所", "pyname": "ylwlhs", "kind": "6E00", "zipcode": null, "telephone": null, "display_x": "112.92668", "display_y": "28.20055", "side": "L", "address": null }, "geometry": { "type": "Point", "coordinates": [ 112.92125922, 28.20407931 ] } },
{ "type": "Feature", "properties": { "gml_id": "layer_ent_pt.414974", "Name": "嘿吧台球会所", "pyname": "hbtqhs", "kind": "6D00", "zipcode": null, "telephone": null, "display_x": "112.94174", "display_y": "28.15299", "side": "R", "address": null }, "geometry": { "type": "Point", "coordinates": [ 112.93629426, 28.15649568 ] } },
{ "type": "Feature", "properties": { "gml_id": "layer_ent_pt.414987", "Name": "巴洛克形象馆", "pyname": "blkxxg", "kind": "A080", "zipcode": null, "telephone": "0731-89714356", "display_x": "112.93597", "display_y": "28.22046", "side": "L", "address": null }, "geometry": { "type": "Point", "coordinates": [ 112.93053192, 28.2239775 ] } },
{ "type": "Feature", "properties": { "gml_id": "layer_ent_pt.414988", "Name": "银庭网吧", "pyname": "ytwb", "kind": "6E00", "zipcode": null, "telephone": null, "display_x": "112.94472", "display_y": "28.21787", "side": "L", "address": null }, "geometry": { "type": "Point", "coordinates": [ 112.93926606, 28.22137551 ] } },
{ "type": "Feature", "properties": { "gml_id": "layer_ent_pt.414990", "Name": "顶好造型天马店", "pyname": "dhzxtmd", "kind": "A080", "zipcode": null, "telephone": "18670028750", "display_x": "112.9508", "display_y": "28.16221", "side": "R", "address": null }, "geometry": { "type": "Point", "coordinates": [ 112.94533386, 28.16570097 ] } },
{ "type": "Feature", "properties": { "gml_id": "layer_ent_pt.415012", "Name": "美相遇国际减肥养生馆", "pyname": "mxygjjfysg", "kind": "A080", "zipcode": null, "telephone": "0731-88990055", "display_x": "112.95416", "display_y": "28.19565", "side": "L", "address": "枫林一路19号通程麓山大酒店6楼" }, "geometry": { "type": "Point", "coordinates": [ 112.94868348, 28.19913642 ] } },
{ "type": "Feature", "properties": { "gml_id": "layer_ent_pt.415094", "Name": "奇迹健身", "pyname": "qjjs", "kind": "6D00", "zipcode": null, "telephone": null, "display_x": "112.95419", "display_y": "28.22534", "side": "R", "address": "奥克斯国际公寓A座4楼" }, "geometry": { "type": "Point", "coordinates": [ 112.9487112, 28.22882625 ] } },
{ "type": "Feature", "properties": { "gml_id": "layer_ent_pt.415218", "Name": "丽音KTV", "pyname": "lyk", "kind": "6680", "zipcode": null, "telephone": null, "display_x": "112.93756", "display_y": "28.19661", "side": "R", "address": "白云路224" }, "geometry": { "type": "Point", "coordinates": [ 112.93212114, 28.20012588 ] } },
{ "type": "Feature", "properties": { "gml_id": "layer_ent_pt.415251", "Name": "159台球", "pyname": "159tq", "kind": "6D00", "zipcode": null, "telephone": null, "display_x": "112.92155", "display_y": "28.22284", "side": "L", "address": "望岳路" }, "geometry": { "type": "Point", "coordinates": [ 112.91613426, 28.22637366 ] } },
{ "type": "Feature", "properties": { "gml_id": "layer_ent_pt.415306", "Name": "美缘阁SPA美容养生会所", "pyname": "mygsmryshs", "kind": "A080", "zipcode": null, "telephone": null, "display_x": "112.94083", "display_y": "28.16676", "side": "L", "address": "麓山南路" }, "geometry": { "type": "Point", "coordinates": [ 112.93538508, 28.1702678 ] } },
{ "type": "Feature", "properties": { "gml_id": "layer_ent_pt.415308", "Name": "湖南财政经济学院－羽毛球馆", "pyname": "hnczjjxy-ymqg", "kind": "6601", "zipcode": null, "telephone": null, "display_x": "112.92552", "display_y": "28.20343", "side": "R", "address": "枫林二路139号湖南财政经济学院内" }, "geometry": { "type": "Point", "coordinates": [ 112.92010056, 28.20696057 ] } },
{ "type": "Feature", "properties": { "gml_id": "layer_ent_pt.415309", "Name": "主流剪烫染望舒分店", "pyname": "zljtrwsfd", "kind": "A080", "zipcode": null, "telephone": null, "display_x": "112.9242", "display_y": "28.20728", "side": "R", "address": null }, "geometry": { "type": "Point", "coordinates": [ 112.91878242, 28.21081212 ] } },
{ "type": "Feature", "properties": { "gml_id": "layer_ent_pt.415383", "Name": "TT　SHOW　NO．湘A0016", "pyname": "tsna0016", "kind": "A080", "zipcode": null, "telephone": "18673184357", "display_x": "112.93804", "display_y": "28.16586", "side": "L", "address": "麓山南路654" }, "geometry": { "type": "Point", "coordinates": [ 112.93260102, 28.16937234 ] } },
{ "type": "Feature", "properties": { "gml_id": "layer_ent_pt.415455", "Name": "首艺造型机构", "pyname": "syzxjg", "kind": "A080", "zipcode": null, "telephone": null, "display_x": "112.93774", "display_y": "28.22006", "side": "L", "address": null }, "geometry": { "type": "Point", "coordinates": [ 112.93229934, 28.22357561 ] } },
{ "type": "Feature", "properties": { "gml_id": "layer_ent_pt.415457", "Name": "丝语美发美容连锁NO．3", "pyname": "symfmrlsn3", "kind": "A080", "zipcode": null, "telephone": null, "display_x": "112.92194", "display_y": "28.21668", "side": "R", "address": "望岳南路" }, "geometry": { "type": "Point", "coordinates": [ 112.91652486, 28.2202142 ] } },
{ "type": "Feature", "properties": { "gml_id": "layer_ent_pt.415507", "Name": "纤手发型发色", "pyname": "qsfxfs", "kind": "A080", "zipcode": null, "telephone": null, "display_x": "112.92954", "display_y": "28.17287", "side": "R", "address": "新民路" }, "geometry": { "type": "Point", "coordinates": [ 112.92411816, 28.17639617 ] } },
{ "type": "Feature", "properties": { "gml_id": "layer_ent_pt.415597", "Name": "名阳足浴", "pyname": "myzy", "kind": "A100", "zipcode": null, "telephone": "0731-84167777", "display_x": "112.94397", "display_y": "28.21645", "side": "R", "address": "岳华路61" }, "geometry": { "type": "Point", "coordinates": [ 112.9385178, 28.21995666 ] } },
{ "type": "Feature", "properties": { "gml_id": "layer_ent_pt.415684", "Name": "西门町烫专业造型染连锁店", "pyname": "xmdtzyzxrlsd", "kind": "A080", "zipcode": null, "telephone": null, "display_x": "112.9531", "display_y": "28.1854", "side": "L", "address": null }, "geometry": { "type": "Point", "coordinates": [ 112.94762706, 28.1888883 ] } },
{ "type": "Feature", "properties": { "gml_id": "layer_ent_pt.415685", "Name": "慧珥网络会所", "pyname": "hewlhs", "kind": "6E00", "zipcode": null, "telephone": null, "display_x": "112.93594", "display_y": "28.16473", "side": "R", "address": "麓山南路" }, "geometry": { "type": "Point", "coordinates": [ 112.93050564, 28.16824577 ] } },
{ "type": "Feature", "properties": { "gml_id": "layer_ent_pt.415789", "Name": "创艺剪烫染连锁", "pyname": "cyjtrls", "kind": "A080", "zipcode": null, "telephone": null, "display_x": "112.92936", "display_y": "28.21069", "side": "L", "address": "咸嘉湖路860" }, "geometry": { "type": "Point", "coordinates": [ 112.92393402, 28.21421619 ] } },
{ "type": "Feature", "properties": { "gml_id": "layer_ent_pt.415790", "Name": "顶尚造型", "pyname": "dszx", "kind": "A080", "zipcode": null, "telephone": "13975825869", "display_x": "112.9553", "display_y": "28.20071", "side": "R", "address": "杜家塘路" }, "geometry": { "type": "Point", "coordinates": [ 112.94982036, 28.20419451 ] } },
{ "type": "Feature", "properties": { "gml_id": "layer_ent_pt.415819", "Name": "天马武道馆", "pyname": "tmwdg", "kind": "6D00", "zipcode": null, "telephone": "15211181764", "display_x": "112.94726", "display_y": "28.16832", "side": "L", "address": "天马路190" }, "geometry": { "type": "Point", "coordinates": [ 112.941801, 28.17181719 ] } },
{ "type": "Feature", "properties": { "gml_id": "layer_ent_pt.415853", "Name": "蔚蓝之星网络会所", "pyname": "wlzxwlhs", "kind": "6E00", "zipcode": null, "telephone": null, "display_x": "112.93284", "display_y": "28.16213", "side": "R", "address": "清水路" }, "geometry": { "type": "Point", "coordinates": [ 112.92741252, 28.16565066 ] } },
{ "type": "Feature", "properties": { "gml_id": "layer_ent_pt.415937", "Name": "盛世年华美容美发美体养生会所", "pyname": "ssnhmrmfmtyshs", "kind": "A080", "zipcode": null, "telephone": "0731-88902667", "display_x": "112.95723", "display_y": "28.21335", "side": "L", "address": "银盆南路297" }, "geometry": { "type": "Point", "coordinates": [ 112.95174618, 28.21683191 ] } },
{ "type": "Feature", "properties": { "gml_id": "layer_ent_pt.415938", "Name": "仙缘网咖", "pyname": "xywk", "kind": "6E00", "zipcode": "410006", "telephone": "13975182886", "display_x": "112.9513", "display_y": "28.1932", "side": "L", "address": "新民路114" }, "geometry": { "type": "Point", "coordinates": [ 112.9458303, 28.19669148 ] } },
{ "type": "Feature", "properties": { "gml_id": "layer_ent_pt.415982", "Name": "湘水佳人美容美发店", "pyname": "xsjrmrmfd", "kind": "A080", "zipcode": null, "telephone": "15973177490", "display_x": "112.95415", "display_y": "28.18962", "side": "R", "address": "爱民路188" }, "geometry": { "type": "Point", "coordinates": [ 112.94867412, 28.19310642 ] } },
{ "type": "Feature", "properties": { "gml_id": "layer_ent_pt.416009", "Name": "顶尖造型专业烫染", "pyname": "djzxzytr", "kind": "A080", "zipcode": null, "telephone": "15580090109", "display_x": "112.95563", "display_y": "28.20609", "side": "R", "address": "望月湖路60" }, "geometry": { "type": "Point", "coordinates": [ 112.95015012, 28.20957458 ] } },
{ "type": "Feature", "properties": { "gml_id": "layer_ent_pt.416013", "Name": "金色·沐歌休闲会所", "pyname": "jsmgxxhs", "kind": "A100", "zipcode": null, "telephone": null, "display_x": "112.9444", "display_y": "28.21582", "side": "R", "address": "岳华路52" }, "geometry": { "type": "Point", "coordinates": [ 112.93894674, 28.21932585 ] } },
{ "type": "Feature", "properties": { "gml_id": "layer_ent_pt.416053", "Name": "美域造型女子精致烫染会所", "pyname": "myzxnzjztrhs", "kind": "A080", "zipcode": null, "telephone": null, "display_x": "112.92826", "display_y": "28.21103", "side": "L", "address": "咸嘉湖路902" }, "geometry": { "type": "Point", "coordinates": [ 112.92283566, 28.21455734 ] } },
{ "type": "Feature", "properties": { "gml_id": "layer_ent_pt.416107", "Name": "湘武跆拳道馆", "pyname": "xwtqdg", "kind": "6D00", "zipcode": null, "telephone": "15874994483", "display_x": "112.9558", "display_y": "28.20172", "side": "R", "address": null }, "geometry": { "type": "Point", "coordinates": [ 112.95031932, 28.20520373 ] } },
{ "type": "Feature", "properties": { "gml_id": "layer_ent_pt.416308", "Name": "波士造型", "pyname": "bszx", "kind": "A080", "zipcode": null, "telephone": "18874211103", "display_x": "112.95479", "display_y": "28.201", "side": "R", "address": "银盆南路217－10" }, "geometry": { "type": "Point", "coordinates": [ 112.94931168, 28.20448548 ] } },
{ "type": "Feature", "properties": { "gml_id": "layer_ent_pt.416514", "Name": "胜湘网络会所", "pyname": "sxwlhs", "kind": "6E00", "zipcode": null, "telephone": null, "display_x": "112.94968", "display_y": "28.15922", "side": "R", "address": null }, "geometry": { "type": "Point", "coordinates": [ 112.9442166, 28.16271288 ] } },
{ "type": "Feature", "properties": { "gml_id": "layer_ent_pt.416605", "Name": "完美SHOW", "pyname": "wms", "kind": "A080", "zipcode": null, "telephone": "13974808430", "display_x": "112.93971", "display_y": "28.15405", "side": "L", "address": "清水路" }, "geometry": { "type": "Point", "coordinates": [ 112.93426836, 28.1575589 ] } },
{ "type": "Feature", "properties": { "gml_id": "layer_ent_pt.416606", "Name": "唯美专业发型设计机构", "pyname": "wmzyfxsjjg", "kind": "A080", "zipcode": null, "telephone": null, "display_x": "112.93813", "display_y": "28.15392", "side": "L", "address": "后湖小区20栋" }, "geometry": { "type": "Point", "coordinates": [ 112.93269174, 28.15743141 ] } },
{ "type": "Feature", "properties": { "gml_id": "layer_ent_pt.416607", "Name": "剪艺空间中南大学店", "pyname": "jykjzndxd", "kind": "A080", "zipcode": null, "telephone": null, "display_x": "112.9382", "display_y": "28.15371", "side": "L", "address": "后湖小区18栋" }, "geometry": { "type": "Point", "coordinates": [ 112.93276158, 28.15722131 ] } },
{ "type": "Feature", "properties": { "gml_id": "layer_ent_pt.416692", "Name": "迪雅台球俱乐部", "pyname": "dytqjlb", "kind": "6D00", "zipcode": null, "telephone": "15580897884", "display_x": "112.92193", "display_y": "28.16418", "side": "R", "address": null }, "geometry": { "type": "Point", "coordinates": [ 112.9165164, 28.16771022 ] } },
{ "type": "Feature", "properties": { "gml_id": "layer_ent_pt.416784", "Name": "缪斯造型", "pyname": "mszx", "kind": "A080", "zipcode": null, "telephone": "0731-82285609", "display_x": "112.93165", "display_y": "28.20969", "side": "R", "address": "咸嘉湖路" }, "geometry": { "type": "Point", "coordinates": [ 112.92622092, 28.21321386 ] } },
{ "type": "Feature", "properties": { "gml_id": "layer_ent_pt.416829", "Name": "亚凡造型", "pyname": "yfzx", "kind": "A080", "zipcode": null, "telephone": null, "display_x": "112.94529", "display_y": "28.17387", "side": "L", "address": "麓山南路" }, "geometry": { "type": "Point", "coordinates": [ 112.93983522, 28.17737105 ] } },
{ "type": "Feature", "properties": { "gml_id": "layer_ent_pt.416897", "Name": "湘雅乒乓球馆", "pyname": "xyppqg", "kind": "6600", "zipcode": "410013", "telephone": "18627585464", "display_x": "112.94", "display_y": "28.21835", "side": "L", "address": "桐梓坡路176" }, "geometry": { "type": "Point", "coordinates": [ 112.93455636, 28.2218634 ] } },
{ "type": "Feature", "properties": { "gml_id": "layer_ent_pt.416898", "Name": "丝域养发馆NO．695", "pyname": "syyfgn695", "kind": "A080", "zipcode": null, "telephone": "13507477415", "display_x": "112.93592", "display_y": "28.21993", "side": "L", "address": null }, "geometry": { "type": "Point", "coordinates": [ 112.93048206, 28.22344763 ] } },
{ "type": "Feature", "properties": { "gml_id": "layer_ent_pt.417068", "Name": "北极雪网络会所", "pyname": "bjxwlhs", "kind": "6E00", "zipcode": null, "telephone": null, "display_x": "112.92515", "display_y": "28.15919", "side": "L", "address": null }, "geometry": { "type": "Point", "coordinates": [ 112.9197339, 28.16271837 ] } },
{ "type": "Feature", "properties": { "gml_id": "layer_ent_pt.417154", "Name": "难忘今宵", "pyname": "nwjx", "kind": "6680", "zipcode": null, "telephone": "13973144076", "display_x": "112.92265", "display_y": "28.21475", "side": "L", "address": null }, "geometry": { "type": "Point", "coordinates": [ 112.91723334, 28.21828316 ] } },
{ "type": "Feature", "properties": { "gml_id": "layer_ent_pt.417155", "Name": "王妃NO．1", "pyname": "wfn1", "kind": "A080", "zipcode": null, "telephone": null, "display_x": "112.92453", "display_y": "28.20894", "side": "L", "address": "枫林二路218号－03" }, "geometry": { "type": "Point", "coordinates": [ 112.91911164, 28.21247172 ] } },
{ "type": "Feature", "properties": { "gml_id": "layer_ent_pt.417243", "Name": "欧莱雅专业沙龙美发形象店", "pyname": "olyzyslmfxxd", "kind": "A080", "zipcode": "410006", "telephone": "0731-85132068", "display_x": "112.95257", "display_y": "28.19544", "side": "L", "address": "枫林一路39号通程商业广场麓山店5层" }, "geometry": { "type": "Point", "coordinates": [ 112.94709714, 28.19892924 ] } },
{ "type": "Feature", "properties": { "gml_id": "layer_ent_pt.417333", "Name": "上水足浴", "pyname": "sszy", "kind": "A100", "zipcode": null, "telephone": null, "display_x": "112.95416", "display_y": "28.19565", "side": "L", "address": "枫林一路19通程麓山大酒店3楼" }, "geometry": { "type": "Point", "coordinates": [ 112.94868348, 28.19913642 ] } },
{ "type": "Feature", "properties": { "gml_id": "layer_ent_pt.417349", "Name": "精英盲人专业按摩足浴", "pyname": "jymrzyamzy", "kind": "A100", "zipcode": null, "telephone": "13297417988", "display_x": "112.94571", "display_y": "28.2171", "side": "L", "address": "英才园2片8栋" }, "geometry": { "type": "Point", "coordinates": [ 112.94025372, 28.22060363 ] } },
{ "type": "Feature", "properties": { "gml_id": "layer_ent_pt.417350", "Name": "郑远元专业修脚房", "pyname": "zyyzyxjf", "kind": "A100", "zipcode": null, "telephone": null, "display_x": "112.93213", "display_y": "28.21578", "side": "R", "address": "裕民巷" }, "geometry": { "type": "Point", "coordinates": [ 112.92669864, 28.21930241 ] } },
{ "type": "Feature", "properties": { "gml_id": "layer_ent_pt.417421", "Name": "艾雅造型", "pyname": "ayzx", "kind": "A080", "zipcode": null, "telephone": null, "display_x": "112.93469", "display_y": "28.16424", "side": "R", "address": "麓山南路" }, "geometry": { "type": "Point", "coordinates": [ 112.92925842, 28.16775779 ] } },
{ "type": "Feature", "properties": { "gml_id": "layer_ent_pt.417431", "Name": "郑远元专业修脚房", "pyname": "zyyzyxjf", "kind": "A100", "zipcode": null, "telephone": null, "display_x": "112.95421", "display_y": "28.19193", "side": "R", "address": "新民路59" }, "geometry": { "type": "Point", "coordinates": [ 112.9487337, 28.19541632 ] } },
{ "type": "Feature", "properties": { "gml_id": "layer_ent_pt.417448", "Name": "新起点美发造型", "pyname": "xqdmfzx", "kind": "A080", "zipcode": null, "telephone": null, "display_x": "112.9166", "display_y": "28.20388", "side": "L", "address": null }, "geometry": { "type": "Point", "coordinates": [ 112.91118966, 28.20741606 ] } },
{ "type": "Feature", "properties": { "gml_id": "layer_ent_pt.417457", "Name": "上机堂网吧连锁龙辉分店", "pyname": "sjtwblslhfd", "kind": "6E00", "zipcode": null, "telephone": null, "display_x": "112.9425", "display_y": "28.16807", "side": "L", "address": "麓山南路" }, "geometry": { "type": "Point", "coordinates": [ 112.93705134, 28.17157514 ] } },
{ "type": "Feature", "properties": { "gml_id": "layer_ent_pt.417523", "Name": "天之道足浴长沙贵宾店", "pyname": "tzdzycsgbd", "kind": "A100", "zipcode": null, "telephone": "13974980807", "display_x": "112.93507", "display_y": "28.22246", "side": "R", "address": "金星中路528－8" }, "geometry": { "type": "Point", "coordinates": [ 112.92963264, 28.2259782 ] } },
{ "type": "Feature", "properties": { "gml_id": "layer_ent_pt.417680", "Name": "碧浪洗浴", "pyname": "blxy", "kind": "A100", "zipcode": null, "telephone": null, "display_x": "112.92173", "display_y": "28.22146", "side": "L", "address": "望岳路049" }, "geometry": { "type": "Point", "coordinates": [ 112.91631426, 28.22499374 ] } },
{ "type": "Feature", "properties": { "gml_id": "layer_ent_pt.417718", "Name": "建新桌球室", "pyname": "jxzqs", "kind": "6D00", "zipcode": null, "telephone": null, "display_x": "112.93754", "display_y": "28.22038", "side": "R", "address": null }, "geometry": { "type": "Point", "coordinates": [ 112.93209954, 28.22389578 ] } },
{ "type": "Feature", "properties": { "gml_id": "layer_ent_pt.417751", "Name": "郁金香靓歌坊KTV", "pyname": "yjxlgfk", "kind": "6680", "zipcode": null, "telephone": "15084954585", "display_x": "112.95068", "display_y": "28.16091", "side": "L", "address": null }, "geometry": { "type": "Point", "coordinates": [ 112.94521434, 28.16440124 ] } },
{ "type": "Feature", "properties": { "gml_id": "layer_ent_pt.417833", "Name": "挥发专业剪烫染发美发沙龙", "pyname": "hfzyjtrfmfsl", "kind": "A080", "zipcode": null, "telephone": null, "display_x": "112.95079", "display_y": "28.19151", "side": "L", "address": "石门楼街" }, "geometry": { "type": "Point", "coordinates": [ 112.94532162, 28.19500241 ] } },
{ "type": "Feature", "properties": { "gml_id": "layer_ent_pt.417834", "Name": "伊风美发作坊", "pyname": "yfmfzf", "kind": "A080", "zipcode": null, "telephone": null, "display_x": "112.95094", "display_y": "28.19145", "side": "L", "address": "石门楼街" }, "geometry": { "type": "Point", "coordinates": [ 112.9454712, 28.19494215 ] } },
{ "type": "Feature", "properties": { "gml_id": "layer_ent_pt.417835", "Name": "咔顿时光廊", "pyname": "kdsgl", "kind": "A080", "zipcode": null, "telephone": "13489436895", "display_x": "112.94849", "display_y": "28.16864", "side": "L", "address": "天马路" }, "geometry": { "type": "Point", "coordinates": [ 112.94302824, 28.17213516 ] } },
{ "type": "Feature", "properties": { "gml_id": "layer_ent_pt.417963", "Name": "迪雅晶日台球会所", "pyname": "dyjrtqhs", "kind": "6D00", "zipcode": null, "telephone": "0731-89600287", "display_x": "112.93934", "display_y": "28.15417", "side": "L", "address": "后湖小区21栋4楼" }, "geometry": { "type": "Point", "coordinates": [ 112.93389918, 28.1576795 ] } },
{ "type": "Feature", "properties": { "gml_id": "layer_ent_pt.417974", "Name": "纤纤手美容美发", "pyname": "xqsmrmf", "kind": "A080", "zipcode": null, "telephone": null, "display_x": "112.93221", "display_y": "28.22188", "side": "L", "address": "银双路431" }, "geometry": { "type": "Point", "coordinates": [ 112.9267773, 28.22540148 ] } },
{ "type": "Feature", "properties": { "gml_id": "layer_ent_pt.417975", "Name": "韩艺ｓｈｏｗ烫染精致旗舰店", "pyname": "hystrjzqjd", "kind": "A080", "zipcode": null, "telephone": null, "display_x": "112.91761", "display_y": "28.21889", "side": "R", "address": "桐梓坡路625" }, "geometry": { "type": "Point", "coordinates": [ 112.91219766, 28.22242554 ] } },
{ "type": "Feature", "properties": { "gml_id": "layer_ent_pt.418167", "Name": "黑8台球", "pyname": "h8tq", "kind": "6D00", "zipcode": null, "telephone": null, "display_x": "112.94451", "display_y": "28.1689", "side": "L", "address": null }, "geometry": { "type": "Point", "coordinates": [ 112.9390569, 28.17240183 ] } },
{ "type": "Feature", "properties": { "gml_id": "layer_ent_pt.418251", "Name": "通程麓山大酒店－棋艺中心", "pyname": "tclsdjd-qyzx", "kind": "6D80", "zipcode": null, "telephone": null, "display_x": "112.95416", "display_y": "28.19565", "side": "L", "address": "枫林一路19通程麓山大酒店11楼" }, "geometry": { "type": "Point", "coordinates": [ 112.94868348, 28.19913642 ] } },
{ "type": "Feature", "properties": { "gml_id": "layer_ent_pt.418252", "Name": "完美造型OBａ烫染连锁财专店", "pyname": "wmzxotrlsczd", "kind": "A080", "zipcode": null, "telephone": null, "display_x": "112.92394", "display_y": "28.20728", "side": "R", "address": null }, "geometry": { "type": "Point", "coordinates": [ 112.91852268, 28.21081226 ] } },
{ "type": "Feature", "properties": { "gml_id": "layer_ent_pt.418424", "Name": "钻石天翼网吧", "pyname": "zstywb", "kind": "6E00", "zipcode": null, "telephone": null, "display_x": "112.92833", "display_y": "28.20074", "side": "L", "address": null }, "geometry": { "type": "Point", "coordinates": [ 112.92290748, 28.20426836 ] } },
{ "type": "Feature", "properties": { "gml_id": "layer_ent_pt.418465", "Name": "中南台球城", "pyname": "zntqc", "kind": "6D00", "zipcode": null, "telephone": "0731-82293418", "display_x": "112.92538", "display_y": "28.17555", "side": "L", "address": null }, "geometry": { "type": "Point", "coordinates": [ 112.91996196, 28.17907862 ] } },
{ "type": "Feature", "properties": { "gml_id": "layer_ent_pt.418500", "Name": "歌谷3D量贩式KTV", "pyname": "gg3dlfsk", "kind": "6680", "zipcode": null, "telephone": "0731-85339898", "display_x": "112.93511", "display_y": "28.21968", "side": "L", "address": "金星中路438号湘腾城市广场2楼" }, "geometry": { "type": "Point", "coordinates": [ 112.92967332, 28.22319855 ] } },
{ "type": "Feature", "properties": { "gml_id": "layer_ent_pt.418501", "Name": "超越时空电玩城", "pyname": "cyskdwc", "kind": "6D00", "zipcode": null, "telephone": null, "display_x": "112.94578", "display_y": "28.21808", "side": "L", "address": "桐梓坡路59" }, "geometry": { "type": "Point", "coordinates": [ 112.94032374, 28.22158364 ] } },
{ "type": "Feature", "properties": { "gml_id": "layer_ent_pt.418511", "Name": "秀域古方减肥美容保健", "pyname": "xygfjfmrbj", "kind": "A080", "zipcode": null, "telephone": "0731-82287905", "display_x": "112.93422", "display_y": "28.21281", "side": "L", "address": "金星中路382" }, "geometry": { "type": "Point", "coordinates": [ 112.92878628, 28.21633056 ] } },
{ "type": "Feature", "properties": { "gml_id": "layer_ent_pt.418543", "Name": "经典创艺风格造型", "pyname": "jdcyfgzx", "kind": "A080", "zipcode": null, "telephone": null, "display_x": "112.94509", "display_y": "28.2164", "side": "R", "address": "英才园路40" }, "geometry": { "type": "Point", "coordinates": [ 112.93963524, 28.21990464 ] } },
{ "type": "Feature", "properties": { "gml_id": "layer_ent_pt.418559", "Name": "章光101", "pyname": "zg101", "kind": "A080", "zipcode": null, "telephone": null, "display_x": "112.95392", "display_y": "28.22157", "side": "R", "address": "银盆南路373－4" }, "geometry": { "type": "Point", "coordinates": [ 112.94844354, 28.22505813 ] } },
{ "type": "Feature", "properties": { "gml_id": "layer_ent_pt.418614", "Name": "乐坊量贩式KTV", "pyname": "yflfsk", "kind": "6680", "zipcode": null, "telephone": "0731-89960898", "display_x": "112.95186", "display_y": "28.17076", "side": "R", "address": "天马路天麓大酒店4楼" }, "geometry": { "type": "Point", "coordinates": [ 112.94639082, 28.17424976 ] } },
{ "type": "Feature", "properties": { "gml_id": "layer_ent_pt.418645", "Name": "旋风动漫电玩城", "pyname": "xfdmdwc", "kind": "6D00", "zipcode": null, "telephone": null, "display_x": "112.93397", "display_y": "28.16398", "side": "R", "address": "麓山南路739号2楼" }, "geometry": { "type": "Point", "coordinates": [ 112.92854004, 28.16749899 ] } },
{ "type": "Feature", "properties": { "gml_id": "layer_ent_pt.419096", "Name": "颐而康", "pyname": "yek", "kind": "A100", "zipcode": null, "telephone": null, "display_x": "112.92128", "display_y": "28.21892", "side": "L", "address": "桐梓坡路A－103－1" }, "geometry": { "type": "Point", "coordinates": [ 112.91586498, 28.22245421 ] } },
{ "type": "Feature", "properties": { "gml_id": "layer_ent_pt.419097", "Name": "润泉洗浴休闲", "pyname": "rqxyxx", "kind": "A100", "zipcode": null, "telephone": null, "display_x": "112.92189", "display_y": "28.22001", "side": "L", "address": "望岳路003" }, "geometry": { "type": "Point", "coordinates": [ 112.91647446, 28.22354384 ] } },
{ "type": "Feature", "properties": { "gml_id": "layer_ent_pt.419181", "Name": "湘泽溜冰场", "pyname": "xzlbc", "kind": "6B00", "zipcode": null, "telephone": "18684690203", "display_x": "112.92446", "display_y": "28.21472", "side": "R", "address": null }, "geometry": { "type": "Point", "coordinates": [ 112.91904036, 28.21825094 ] } },
{ "type": "Feature", "properties": { "gml_id": "layer_ent_pt.419193", "Name": "图澜朵美容会所", "pyname": "tldmrhs", "kind": "A080", "zipcode": null, "telephone": "0731-85679458", "display_x": "112.9338", "display_y": "28.21747", "side": "L", "address": "桐梓坡路1－101" }, "geometry": { "type": "Point", "coordinates": [ 112.9283658, 28.22099031 ] } },
{ "type": "Feature", "properties": { "gml_id": "layer_ent_pt.419194", "Name": "金麦田量贩KTV", "pyname": "jmtlfk", "kind": "6680", "zipcode": null, "telephone": "0731-88796868", "display_x": "112.9359", "display_y": "28.22232", "side": "R", "address": "金星中路528－13" }, "geometry": { "type": "Point", "coordinates": [ 112.93046154, 28.22583731 ] } },
{ "type": "Feature", "properties": { "gml_id": "layer_ent_pt.419195", "Name": "逸龙电玩城", "pyname": "yldwc", "kind": "6D00", "zipcode": null, "telephone": null, "display_x": "112.93226", "display_y": "28.21642", "side": "L", "address": "裕民巷" }, "geometry": { "type": "Point", "coordinates": [ 112.92682842, 28.21994217 ] } },
{ "type": "Feature", "properties": { "gml_id": "layer_ent_pt.419203", "Name": "茉莉花国际酒店－KTV", "pyname": "mlhgjjd-k", "kind": "6680", "zipcode": "410013", "telephone": null, "display_x": "112.93497", "display_y": "28.22324", "side": "R", "address": "金星中路528号茉莉花国际酒店3A层" }, "geometry": { "type": "Point", "coordinates": [ 112.92953274, 28.22675819 ] } },
{ "type": "Feature", "properties": { "gml_id": "layer_ent_pt.419302", "Name": "洛奇造型工作室", "pyname": "lqzxgzs", "kind": "A080", "zipcode": null, "telephone": null, "display_x": "112.9324", "display_y": "28.21408", "side": "L", "address": null }, "geometry": { "type": "Point", "coordinates": [ 112.92696864, 28.21760235 ] } },
{ "type": "Feature", "properties": { "gml_id": "layer_ent_pt.419303", "Name": "头条美发吧", "pyname": "ttmfb", "kind": "A080", "zipcode": null, "telephone": null, "display_x": "112.93786", "display_y": "28.22036", "side": "R", "address": null }, "geometry": { "type": "Point", "coordinates": [ 112.93241904, 28.22387544 ] } },
{ "type": "Feature", "properties": { "gml_id": "layer_ent_pt.419408", "Name": "公主之约美容美体会所咸家新村分店", "pyname": "gzzymrmthsxjxcfd", "kind": "A080", "zipcode": null, "telephone": "13766120011", "display_x": "112.92375", "display_y": "28.22162", "side": "L", "address": "晨风路82" }, "geometry": { "type": "Point", "coordinates": [ 112.91833206, 28.22515223 ] } },
{ "type": "Feature", "properties": { "gml_id": "layer_ent_pt.419568", "Name": "乐康汗蒸养生馆", "pyname": "lkhzysg", "kind": "A100", "zipcode": null, "telephone": "0731-84464003", "display_x": "112.94598", "display_y": "28.21787", "side": "L", "address": "阳光城西座21层2106室" }, "geometry": { "type": "Point", "coordinates": [ 112.94052318, 28.22137326 ] } },
{ "type": "Feature", "properties": { "gml_id": "layer_ent_pt.419597", "Name": "你好时尚", "pyname": "nhss", "kind": "A080", "zipcode": null, "telephone": "13975844517", "display_x": "112.92448", "display_y": "28.20727", "side": "R", "address": null }, "geometry": { "type": "Point", "coordinates": [ 112.91906214, 28.21080195 ] } },
{ "type": "Feature", "properties": { "gml_id": "layer_ent_pt.419598", "Name": "麦颂量贩KTV河西店", "pyname": "mslfkhxd", "kind": "6680", "zipcode": null, "telephone": "0731-88857270", "display_x": "112.92173", "display_y": "28.21854", "side": "R", "address": "桐梓坡路579号" }, "geometry": { "type": "Point", "coordinates": [ 112.91631462, 28.22207405 ] } },
{ "type": "Feature", "properties": { "gml_id": "layer_ent_pt.419599", "Name": "金源休闲会所", "pyname": "jyxxhs", "kind": "A100", "zipcode": null, "telephone": "18674865557", "display_x": "112.92239", "display_y": "28.21664", "side": "L", "address": "望岳南路29号嘉逸名庭5栋" }, "geometry": { "type": "Point", "coordinates": [ 112.91697396, 28.22017361 ] } },
{ "type": "Feature", "properties": { "gml_id": "layer_ent_pt.419607", "Name": "星籁文化广场", "pyname": "xlwhgc", "kind": "7380", "zipcode": null, "telephone": null, "display_x": "112.9379", "display_y": "28.21105", "side": "L", "address": "观湖公寓旁" }, "geometry": { "type": "Point", "coordinates": [ 112.93246134, 28.21456679 ] } },
{ "type": "Feature", "properties": { "gml_id": "layer_ent_pt.419662", "Name": "湘雅羽毛球馆", "pyname": "xyymqg", "kind": "6601", "zipcode": null, "telephone": "15211177700", "display_x": "112.94009", "display_y": "28.21849", "side": "L", "address": "桐梓坡路" }, "geometry": { "type": "Point", "coordinates": [ 112.93464618, 28.22200331 ] } },
{ "type": "Feature", "properties": { "gml_id": "layer_ent_pt.419680", "Name": "启蒙岛儿童乐园", "pyname": "qmdetly", "kind": "6300", "zipcode": null, "telephone": null, "display_x": "112.93016", "display_y": "28.20697", "side": "R", "address": "金星中路" }, "geometry": { "type": "Point", "coordinates": [ 112.92473376, 28.21049586 ] } },
{ "type": "Feature", "properties": { "gml_id": "layer_ent_pt.419681", "Name": "芭芘秀时尚造型", "pyname": "bbxsszx", "kind": "A080", "zipcode": null, "telephone": null, "display_x": "112.9266", "display_y": "28.16741", "side": "L", "address": null }, "geometry": { "type": "Point", "coordinates": [ 112.92118164, 28.17093771 ] } },
{ "type": "Feature", "properties": { "gml_id": "layer_ent_pt.419716", "Name": "金卓美容SPA美发造型中心", "pyname": "jzmrsmfzxzx", "kind": "A080", "zipcode": null, "telephone": "13574174397", "display_x": "112.93515", "display_y": "28.22237", "side": "R", "address": "金星中路528－9" }, "geometry": { "type": "Point", "coordinates": [ 112.92971256, 28.22588811 ] } },
{ "type": "Feature", "properties": { "gml_id": "layer_ent_pt.419717", "Name": "郡源网络会所", "pyname": "jywlhs", "kind": "6E00", "zipcode": null, "telephone": null, "display_x": "112.93624", "display_y": "28.22045", "side": "L", "address": null }, "geometry": { "type": "Point", "coordinates": [ 112.93080138, 28.2239672 ] } },
{ "type": "Feature", "properties": { "gml_id": "layer_ent_pt.419718", "Name": "丝艺造型", "pyname": "syzx", "kind": "A080", "zipcode": null, "telephone": "0731-89727816", "display_x": "112.93186", "display_y": "28.2159", "side": "R", "address": "白鹤咀街" }, "geometry": { "type": "Point", "coordinates": [ 112.92642918, 28.21942269 ] } },
{ "type": "Feature", "properties": { "gml_id": "layer_ent_pt.419719", "Name": "发尚专业烫染连锁机构", "pyname": "fszytrlsjg", "kind": "A080", "zipcode": null, "telephone": null, "display_x": "112.92589", "display_y": "28.21434", "side": "R", "address": null }, "geometry": { "type": "Point", "coordinates": [ 112.9204683, 28.21786943 ] } },
{ "type": "Feature", "properties": { "gml_id": "layer_ent_pt.419749", "Name": "鸣宴茶友会所", "pyname": "mycyhs", "kind": "6680", "zipcode": null, "telephone": "13135318980", "display_x": "112.92359", "display_y": "28.21655", "side": "R", "address": null }, "geometry": { "type": "Point", "coordinates": [ 112.91817186, 28.22008208 ] } },
{ "type": "Feature", "properties": { "gml_id": "layer_ent_pt.419764", "Name": "加州吧", "pyname": "jzb", "kind": "1500", "zipcode": null, "telephone": null, "display_x": "112.95439", "display_y": "28.19224", "side": "L", "address": "新民路" }, "geometry": { "type": "Point", "coordinates": [ 112.94891334, 28.19572601 ] } },
{ "type": "Feature", "properties": { "gml_id": "layer_ent_pt.419791", "Name": "迷宫台球会所天马旗舰店", "pyname": "mgtqhstmqjd", "kind": "6D00", "zipcode": null, "telephone": "0731-88299129", "display_x": "112.95007", "display_y": "28.1607", "side": "R", "address": null }, "geometry": { "type": "Point", "coordinates": [ 112.94460558, 28.16419221 ] } },
{ "type": "Feature", "properties": { "gml_id": "layer_ent_pt.419792", "Name": "致青春清吧", "pyname": "zqcqb", "kind": "1500", "zipcode": null, "telephone": null, "display_x": "112.94973", "display_y": "28.16362", "side": "L", "address": "麻园路" }, "geometry": { "type": "Point", "coordinates": [ 112.94426574, 28.16711267 ] } },
{ "type": "Feature", "properties": { "gml_id": "layer_ent_pt.419799", "Name": "安美人减肥美容会所", "pyname": "amrjfmrhs", "kind": "A080", "zipcode": null, "telephone": "0731-88942786", "display_x": "112.93221", "display_y": "28.2172", "side": "L", "address": "沁园春·御院底商2－132" }, "geometry": { "type": "Point", "coordinates": [ 112.9267782, 28.22072211 ] } },
{ "type": "Feature", "properties": { "gml_id": "layer_ent_pt.419835", "Name": "天之道健康会咸嘉湖店", "pyname": "tzdjkhxjhd", "kind": "A100", "zipcode": null, "telephone": "13975203003", "display_x": "112.9258", "display_y": "28.21354", "side": "L", "address": "咸嘉湖西路润泽园1栋3楼" }, "geometry": { "type": "Point", "coordinates": [ 112.92037866, 28.21706969 ] } },
{ "type": "Feature", "properties": { "gml_id": "layer_ent_pt.419859", "Name": "麦尚KTV量贩", "pyname": "msklf", "kind": "6680", "zipcode": null, "telephone": "0731-89855123", "display_x": "112.94395", "display_y": "28.21725", "side": "L", "address": "桐梓坡路雄海雅苑14栋123号" }, "geometry": { "type": "Point", "coordinates": [ 112.93849782, 28.22075681 ] } },
{ "type": "Feature", "properties": { "gml_id": "layer_ent_pt.419876", "Name": "天籁之音", "pyname": "tlzy", "kind": "6680", "zipcode": null, "telephone": "13787199889", "display_x": "112.92139", "display_y": "28.22362", "side": "L", "address": "望岳路平旺批发部楼上" }, "geometry": { "type": "Point", "coordinates": [ 112.91597424, 28.2271536 ] } },
{ "type": "Feature", "properties": { "gml_id": "layer_ent_pt.420090", "Name": "和氏修脚堂长沙公园里店", "pyname": "hsxjtcsgyld", "kind": "A100", "zipcode": null, "telephone": "13142288680", "display_x": "112.93207", "display_y": "28.21538", "side": "R", "address": "裕民巷" }, "geometry": { "type": "Point", "coordinates": [ 112.92663888, 28.21890254 ] } },
{ "type": "Feature", "properties": { "gml_id": "layer_ent_pt.420202", "Name": "发源地美容美发烫染会所", "pyname": "fydmrmftrhs", "kind": "A080", "zipcode": null, "telephone": null, "display_x": "112.9384", "display_y": "28.15388", "side": "L", "address": "后湖小区20栋" }, "geometry": { "type": "Point", "coordinates": [ 112.93296102, 28.157391 ] } },
{ "type": "Feature", "properties": { "gml_id": "layer_ent_pt.420209", "Name": "简约造型", "pyname": "jyzx", "kind": "A080", "zipcode": null, "telephone": "18670079080", "display_x": "112.94697", "display_y": "28.16643", "side": "L", "address": "阜埠河路" }, "geometry": { "type": "Point", "coordinates": [ 112.94151156, 28.16992746 ] } },
{ "type": "Feature", "properties": { "gml_id": "layer_ent_pt.420212", "Name": "名轩烫染工作室", "pyname": "mxtrgzs", "kind": "A080", "zipcode": null, "telephone": null, "display_x": "112.9329", "display_y": "28.21556", "side": "L", "address": null }, "geometry": { "type": "Point", "coordinates": [ 112.9274676, 28.21908159 ] } },
{ "type": "Feature", "properties": { "gml_id": "layer_ent_pt.420235", "Name": "湖南商学院－体育馆", "pyname": "hnsxy-tyg", "kind": "6600", "zipcode": null, "telephone": null, "display_x": "112.91939", "display_y": "28.22197", "side": "L", "address": "岳麓大道569商学院" }, "geometry": { "type": "Point", "coordinates": [ 112.91397606, 28.22550453 ] } },
{ "type": "Feature", "properties": { "gml_id": "layer_ent_pt.420264", "Name": "JS发型工作室", "pyname": "jfxgzs", "kind": "A080", "zipcode": null, "telephone": "18684967095", "display_x": "112.93979", "display_y": "28.16636", "side": "L", "address": "麓山南路" }, "geometry": { "type": "Point", "coordinates": [ 112.9343472, 28.1698695 ] } },
{ "type": "Feature", "properties": { "gml_id": "layer_ent_pt.420368", "Name": "红运麻将馆", "pyname": "hymjg", "kind": "6D80", "zipcode": null, "telephone": "15111430749", "display_x": "112.95275", "display_y": "28.22474", "side": "R", "address": "兰卡威国际公寓27层2707房" }, "geometry": { "type": "Point", "coordinates": [ 112.94727606, 28.22823027 ] } },
{ "type": "Feature", "properties": { "gml_id": "layer_ent_pt.420387", "Name": "唐人街时尚造型", "pyname": "trjsszx", "kind": "A080", "zipcode": null, "telephone": "18627589858", "display_x": "112.91643", "display_y": "28.21887", "side": "R", "address": "桐梓坡路671" }, "geometry": { "type": "Point", "coordinates": [ 112.91101866, 28.22240597 ] } },
{ "type": "Feature", "properties": { "gml_id": "layer_ent_pt.420390", "Name": "金阳光网络会所", "pyname": "jygwlhs", "kind": "6E00", "zipcode": null, "telephone": null, "display_x": "112.93469", "display_y": "28.16384", "side": "L", "address": null }, "geometry": { "type": "Point", "coordinates": [ 112.92925842, 28.16735774 ] } }
]
}
