{
"type": "FeatureCollection",
"name": "ResearchEducation",
"crs": { "type": "name", "properties": { "name": "urn:ogc:def:crs:OGC:1.3:CRS84" } },
"features": [
{ "type": "Feature", "properties": { "gml_id": "layer_scientific_pt.239658", "Name": "湖南师范大学医学院北门", "pyname": "hnsfdxyxybm", "kind": "A700", "zipcode": null, "telephone": "0731-88912400", "display_x": "112.93611", "display_y": "28.2175", "side": "N", "address": "桐梓坡路371" }, "geometry": { "type": "Point", "coordinates": [ 112.93067232, 28.22101781 ] } },
{ "type": "Feature", "properties": { "gml_id": "layer_scientific_pt.239838", "Name": "湖南省中医药研究院", "pyname": "hnszyyyjy", "kind": "A880", "zipcode": "410006", "telephone": null, "display_x": "112.95115", "display_y": "28.19479", "side": "N", "address": "麓山路58" }, "geometry": { "type": "Point", "coordinates": [ 112.94568036, 28.19828174 ] } },
{ "type": "Feature", "properties": { "gml_id": "layer_scientific_pt.239916", "Name": "湖南省艺术学校", "pyname": "hnsysxx", "kind": "A709", "zipcode": null, "telephone": null, "display_x": "112.93709", "display_y": "28.16703", "side": "L", "address": "麓山南路152号湖南艺术职业学院" }, "geometry": { "type": "Point", "coordinates": [ 112.93165314, 28.1705441 ] } },
{ "type": "Feature", "properties": { "gml_id": "layer_scientific_pt.239917", "Name": "长沙雅博培训学校", "pyname": "csybpxxx", "kind": "A709", "zipcode": "410006", "telephone": "0731-88835100", "display_x": "112.95097", "display_y": "28.19555", "side": "R", "address": "麓山路12" }, "geometry": { "type": "Point", "coordinates": [ 112.94550072, 28.19904206 ] } },
{ "type": "Feature", "properties": { "gml_id": "layer_scientific_pt.240257", "Name": "长沙市岳麓区樟树门小学", "pyname": "cssylqzsmxx", "kind": "A702", "zipcode": null, "telephone": null, "display_x": "112.92136", "display_y": "28.16311", "side": "L", "address": null }, "geometry": { "type": "Point", "coordinates": [ 112.9159467, 28.16664035 ] } },
{ "type": "Feature", "properties": { "gml_id": "layer_scientific_pt.240409", "Name": "中南大学附属实验中学", "pyname": "zndxfssyzx", "kind": "A703", "zipcode": null, "telephone": "0731-88876565", "display_x": "112.92841", "display_y": "28.16809", "side": "R", "address": "校本部体育馆旁" }, "geometry": { "type": "Point", "coordinates": [ 112.92298992, 28.17161672 ] } },
{ "type": "Feature", "properties": { "gml_id": "layer_scientific_pt.240414", "Name": "长沙建设机械研究院", "pyname": "csjsjxyjy", "kind": "A880", "zipcode": "410013", "telephone": null, "display_x": "112.94761", "display_y": "28.21885", "side": "R", "address": "桐梓坡路88" }, "geometry": { "type": "Point", "coordinates": [ 112.94214948, 28.22235044 ] } },
{ "type": "Feature", "properties": { "gml_id": "layer_scientific_pt.240415", "Name": "长沙市岳麓区桐梓坡小学", "pyname": "cssylqtzpxx", "kind": "A702", "zipcode": "410013", "telephone": null, "display_x": "112.95", "display_y": "28.21668", "side": "L", "address": "桐中巷17" }, "geometry": { "type": "Point", "coordinates": [ 112.94453376, 28.2201759 ] } },
{ "type": "Feature", "properties": { "gml_id": "layer_scientific_pt.240602", "Name": "湖南大学子弟小学", "pyname": "hndxzdxx", "kind": "A702", "zipcode": null, "telephone": null, "display_x": "112.94129", "display_y": "28.17772", "side": "L", "address": "登高路55" }, "geometry": { "type": "Point", "coordinates": [ 112.9358439, 28.18122818 ] } },
{ "type": "Feature", "properties": { "gml_id": "layer_scientific_pt.240649", "Name": "麓音琴行", "pyname": "lyqh", "kind": "A709", "zipcode": null, "telephone": null, "display_x": "112.95037", "display_y": "28.19128", "side": "R", "address": "麓山路" }, "geometry": { "type": "Point", "coordinates": [ 112.94490258, 28.19477313 ] } },
{ "type": "Feature", "properties": { "gml_id": "layer_scientific_pt.240740", "Name": "湖南佛学院", "pyname": "hnfxy", "kind": "A709", "zipcode": null, "telephone": null, "display_x": "112.9348", "display_y": "28.18006", "side": "L", "address": "麓山路82号岳麓山风景名胜区" }, "geometry": { "type": "Point", "coordinates": [ 112.92936804, 28.18357929 ] } },
{ "type": "Feature", "properties": { "gml_id": "layer_scientific_pt.240767", "Name": "迪爱宝贝科艺双语幼儿园", "pyname": "dabbkysyyey", "kind": "A701", "zipcode": null, "telephone": "0731-88617599", "display_x": "112.92958", "display_y": "28.20834", "side": "L", "address": "金星中路187恩瑞·麓山名园" }, "geometry": { "type": "Point", "coordinates": [ 112.92415434, 28.21186629 ] } },
{ "type": "Feature", "properties": { "gml_id": "layer_scientific_pt.240819", "Name": "湖南师范大学幼儿园", "pyname": "hnsfdxyey", "kind": "A701", "zipcode": null, "telephone": null, "display_x": "112.94647", "display_y": "28.18571", "side": "R", "address": "至善路" }, "geometry": { "type": "Point", "coordinates": [ 112.94101224, 28.1892101 ] } },
{ "type": "Feature", "properties": { "gml_id": "layer_scientific_pt.240820", "Name": "湖南师大计算机应用技术研究中心", "pyname": "hnsdjsjyyjsyjzx", "kind": "A880", "zipcode": null, "telephone": null, "display_x": "112.94598", "display_y": "28.18661", "side": "R", "address": "桂花路" }, "geometry": { "type": "Point", "coordinates": [ 112.94052318, 28.19011095 ] } },
{ "type": "Feature", "properties": { "gml_id": "layer_scientific_pt.240821", "Name": "湖南大学建筑安全与节能教育部重点", "pyname": "hndxjzaqyjnjybzdsys", "kind": "A880", "zipcode": null, "telephone": null, "display_x": "112.94668", "display_y": "28.17743", "side": "R", "address": null }, "geometry": { "type": "Point", "coordinates": [ 112.94122212, 28.18092911 ] } },
{ "type": "Feature", "properties": { "gml_id": "layer_scientific_pt.240822", "Name": "湖南大学－中国烟草机械集团联合研", "pyname": "hndx-zgycjxjtlhyjzx", "kind": "A880", "zipcode": null, "telephone": null, "display_x": "112.94685", "display_y": "28.17802", "side": "R", "address": null }, "geometry": { "type": "Point", "coordinates": [ 112.94139168, 28.18151888 ] } },
{ "type": "Feature", "properties": { "gml_id": "layer_scientific_pt.240823", "Name": "安徽华菱－湖南大学商用汽车研发中", "pyname": "ahhl-hndxsyqcyfzx", "kind": "A880", "zipcode": null, "telephone": null, "display_x": "112.94685", "display_y": "28.17802", "side": "R", "address": null }, "geometry": { "type": "Point", "coordinates": [ 112.94139168, 28.18151888 ] } },
{ "type": "Feature", "properties": { "gml_id": "layer_scientific_pt.240824", "Name": "湖南大学－BECKHOFF烟草自动化实验室", "pyname": "hndx-byczdhsys", "kind": "A880", "zipcode": null, "telephone": null, "display_x": "112.94685", "display_y": "28.17802", "side": "R", "address": null }, "geometry": { "type": "Point", "coordinates": [ 112.94139168, 28.18151888 ] } },
{ "type": "Feature", "properties": { "gml_id": "layer_scientific_pt.240825", "Name": "智艺幼儿园", "pyname": "zyyey", "kind": "A701", "zipcode": null, "telephone": "0731-88713057", "display_x": "112.91781", "display_y": "28.17211", "side": "L", "address": null }, "geometry": { "type": "Point", "coordinates": [ 112.91239944, 28.17564278 ] } },
{ "type": "Feature", "properties": { "gml_id": "layer_scientific_pt.240947", "Name": "湖南大学汽车车身先进设计制造国家", "pyname": "hndxqccsxjsjzzgjzdsys", "kind": "A880", "zipcode": null, "telephone": null, "display_x": "112.94686", "display_y": "28.17849", "side": "R", "address": null }, "geometry": { "type": "Point", "coordinates": [ 112.94140176, 28.18198895 ] } },
{ "type": "Feature", "properties": { "gml_id": "layer_scientific_pt.240988", "Name": "中南大学西门", "pyname": "zndxxm", "kind": "A700", "zipcode": null, "telephone": "0731-88876834", "display_x": "112.92286", "display_y": "28.16967", "side": "N", "address": "中环路" }, "geometry": { "type": "Point", "coordinates": [ 112.91744502, 28.17319991 ] } },
{ "type": "Feature", "properties": { "gml_id": "layer_scientific_pt.241083", "Name": "天使宝贝幼儿园", "pyname": "tsbbyey", "kind": "A701", "zipcode": null, "telephone": "18975103240", "display_x": "112.92313", "display_y": "28.16236", "side": "R", "address": null }, "geometry": { "type": "Point", "coordinates": [ 112.91771538, 28.16588957 ] } },
{ "type": "Feature", "properties": { "gml_id": "layer_scientific_pt.241139", "Name": "嗨·C艺术培训中心", "pyname": "hcyspxzx", "kind": "A709", "zipcode": null, "telephone": null, "display_x": "112.9244", "display_y": "28.17676", "side": "L", "address": null }, "geometry": { "type": "Point", "coordinates": [ 112.91898276, 28.18028921 ] } },
{ "type": "Feature", "properties": { "gml_id": "layer_scientific_pt.241140", "Name": "长沙联诚驾校", "pyname": "cslcjx", "kind": "A706", "zipcode": null, "telephone": "0731-88820228", "display_x": "112.91922", "display_y": "28.17076", "side": "R", "address": "藕塘路" }, "geometry": { "type": "Point", "coordinates": [ 112.9138083, 28.17429206 ] } },
{ "type": "Feature", "properties": { "gml_id": "layer_scientific_pt.241141", "Name": "卓越高考艺术培训学校", "pyname": "zygkyspxxx", "kind": "A709", "zipcode": null, "telephone": null, "display_x": "112.92177", "display_y": "28.17246", "side": "R", "address": "西二环" }, "geometry": { "type": "Point", "coordinates": [ 112.91635584, 28.17599063 ] } },
{ "type": "Feature", "properties": { "gml_id": "layer_scientific_pt.241225", "Name": "中南大学南校区", "pyname": "zndxnxq", "kind": "A700", "zipcode": "410012", "telephone": null, "display_x": "112.93749", "display_y": "28.16188", "side": "L", "address": "麓山南路605" }, "geometry": { "type": "Point", "coordinates": [ 112.93205238, 28.16539286 ] } },
{ "type": "Feature", "properties": { "gml_id": "layer_scientific_pt.241243", "Name": "湖南省高等学校师资培训中心", "pyname": "hnsgdxxszpxzx", "kind": "7480", "zipcode": "410006", "telephone": null, "display_x": "112.95519", "display_y": "28.18875", "side": "R", "address": "潇湘中路122" }, "geometry": { "type": "Point", "coordinates": [ 112.949712, 28.19223459 ] } },
{ "type": "Feature", "properties": { "gml_id": "layer_scientific_pt.241268", "Name": "望岳中心小学", "pyname": "wyzxxx", "kind": "A702", "zipcode": null, "telephone": null, "display_x": "112.91964", "display_y": "28.21273", "side": "R", "address": null }, "geometry": { "type": "Point", "coordinates": [ 112.91422698, 28.21626549 ] } },
{ "type": "Feature", "properties": { "gml_id": "layer_scientific_pt.241270", "Name": "湖南省乐成艺术培训中心", "pyname": "hnslcyspxzx", "kind": "A709", "zipcode": null, "telephone": null, "display_x": "112.92325", "display_y": "28.18145", "side": "R", "address": null }, "geometry": { "type": "Point", "coordinates": [ 112.91783346, 28.18497996 ] } },
{ "type": "Feature", "properties": { "gml_id": "layer_scientific_pt.241280", "Name": "湖南师范大学树达学院", "pyname": "hnsfdxsdxy", "kind": "A700", "zipcode": null, "telephone": "0731-88826677", "display_x": "112.9243", "display_y": "28.16752", "side": "R", "address": "溁左路16" }, "geometry": { "type": "Point", "coordinates": [ 112.91888376, 28.17104904 ] } },
{ "type": "Feature", "properties": { "gml_id": "layer_scientific_pt.241290", "Name": "岳麓区石佳冲小学", "pyname": "ylqsjcxx", "kind": "A702", "zipcode": null, "telephone": null, "display_x": "112.93298", "display_y": "28.19312", "side": "R", "address": null }, "geometry": { "type": "Point", "coordinates": [ 112.92755184, 28.19664374 ] } },
{ "type": "Feature", "properties": { "gml_id": "layer_scientific_pt.241320", "Name": "岳麓区桃花中心幼稚园", "pyname": "ylqthzxyzy", "kind": "A701", "zipcode": null, "telephone": "0731-82281948", "display_x": "112.91847", "display_y": "28.16549", "side": "L", "address": "藕塘路" }, "geometry": { "type": "Point", "coordinates": [ 112.91305896, 28.16902175 ] } },
{ "type": "Feature", "properties": { "gml_id": "layer_scientific_pt.241340", "Name": "中南大学－轻合金研究院", "pyname": "zndx-qhjyjy", "kind": "A880", "zipcode": null, "telephone": null, "display_x": "112.92939", "display_y": "28.16786", "side": "R", "address": "麓山南路中南大学" }, "geometry": { "type": "Point", "coordinates": [ 112.92396894, 28.17138614 ] } },
{ "type": "Feature", "properties": { "gml_id": "layer_scientific_pt.241373", "Name": "湖南师范大学附属中学", "pyname": "hnsfdxfszx", "kind": "A703", "zipcode": null, "telephone": null, "display_x": "112.95132", "display_y": "28.18397", "side": "R", "address": "桃子湖路48" }, "geometry": { "type": "Point", "coordinates": [ 112.94585136, 28.18746149 ] } },
{ "type": "Feature", "properties": { "gml_id": "layer_scientific_pt.241502", "Name": "新东方教育科技集团－长沙新东方学", "pyname": "xdfjykjjt-csxdfxx-tmjxq", "kind": "A709", "zipcode": null, "telephone": "0731-82559952|0731-84885588", "display_x": "112.94685", "display_y": "28.16653", "side": "L", "address": "阜埠河路175号大学科技港5层" }, "geometry": { "type": "Point", "coordinates": [ 112.94139186, 28.17002768 ] } },
{ "type": "Feature", "properties": { "gml_id": "layer_scientific_pt.241503", "Name": "湖湘新航道学校天马校区", "pyname": "hxxhdxxtmxq", "kind": "A709", "zipcode": null, "telephone": "0731-88680868", "display_x": "112.94685", "display_y": "28.16653", "side": "L", "address": "阜埠河路175号大学科技港7层" }, "geometry": { "type": "Point", "coordinates": [ 112.94139186, 28.17002768 ] } },
{ "type": "Feature", "properties": { "gml_id": "layer_scientific_pt.241603", "Name": "湖南师范大学美术学院", "pyname": "hnsfdxmsxy", "kind": "A700", "zipcode": "410012", "telephone": "0731-88838502", "display_x": "112.93789", "display_y": "28.16597", "side": "L", "address": "麓山南路" }, "geometry": { "type": "Point", "coordinates": [ 112.93245144, 28.16948264 ] } },
{ "type": "Feature", "properties": { "gml_id": "layer_scientific_pt.241647", "Name": "国家金属采矿工程技术研究中心", "pyname": "gjjsckgcjsyjzx", "kind": "A880", "zipcode": "410012", "telephone": null, "display_x": "112.94266", "display_y": "28.16749", "side": "L", "address": "麓山南路343" }, "geometry": { "type": "Point", "coordinates": [ 112.937211, 28.17099482 ] } },
{ "type": "Feature", "properties": { "gml_id": "layer_scientific_pt.241648", "Name": "金属非金属矿山安全工程技术研究中", "pyname": "jsfjsksaqgcjsyjzx", "kind": "A880", "zipcode": "410012", "telephone": null, "display_x": "112.94266", "display_y": "28.16749", "side": "L", "address": "麓山南路343" }, "geometry": { "type": "Point", "coordinates": [ 112.937211, 28.17099482 ] } },
{ "type": "Feature", "properties": { "gml_id": "layer_scientific_pt.242248", "Name": "湖南大学北校区", "pyname": "hndxbxq", "kind": "A700", "zipcode": "410012", "telephone": "0731-88834440", "display_x": "112.93158", "display_y": "28.19878", "side": "L", "address": "石佳冲路109" }, "geometry": { "type": "Point", "coordinates": [ 112.9261536, 28.20230555 ] } },
{ "type": "Feature", "properties": { "gml_id": "layer_scientific_pt.242325", "Name": "长沙奥帅培训学校", "pyname": "csaspxxx", "kind": "A709", "zipcode": "410006", "telephone": "0731-88886620", "display_x": "112.95007", "display_y": "28.19225", "side": "R", "address": "麓山路130" }, "geometry": { "type": "Point", "coordinates": [ 112.94460324, 28.19574369 ] } },
{ "type": "Feature", "properties": { "gml_id": "layer_scientific_pt.242505", "Name": "邬体书法望月湖分院", "pyname": "wtsfwyhfy", "kind": "A709", "zipcode": null, "telephone": "13087311711", "display_x": "112.95548", "display_y": "28.20255", "side": "L", "address": "月桂街" }, "geometry": { "type": "Point", "coordinates": [ 112.95000018, 28.20603443 ] } },
{ "type": "Feature", "properties": { "gml_id": "layer_scientific_pt.242506", "Name": "中国湖南省委党校（东区）－北门", "pyname": "zghnswdx(dq)-bm", "kind": "A700", "zipcode": null, "telephone": null, "display_x": "112.93838", "display_y": "28.19714", "side": "N", "address": null }, "geometry": { "type": "Point", "coordinates": [ 112.93293924, 28.20065441 ] } },
{ "type": "Feature", "properties": { "gml_id": "layer_scientific_pt.242512", "Name": "湖南大学科技经济与社会发展研究所", "pyname": "hndxkjjjyshfzyjs", "kind": "A880", "zipcode": null, "telephone": null, "display_x": "112.94527", "display_y": "28.18184", "side": "L", "address": "麓山南路湖南大学" }, "geometry": { "type": "Point", "coordinates": [ 112.93981506, 28.18534194 ] } },
{ "type": "Feature", "properties": { "gml_id": "layer_scientific_pt.242552", "Name": "国家高效磨剂工程技术研究中心", "pyname": "gjgxmjgcjsyjzx", "kind": "A880", "zipcode": null, "telephone": null, "display_x": "112.94685", "display_y": "28.17802", "side": "R", "address": null }, "geometry": { "type": "Point", "coordinates": [ 112.94139168, 28.18151888 ] } },
{ "type": "Feature", "properties": { "gml_id": "layer_scientific_pt.242553", "Name": "湖南大学汽车实验室", "pyname": "hndxqcsys", "kind": "A880", "zipcode": null, "telephone": null, "display_x": "112.94685", "display_y": "28.17802", "side": "R", "address": "麓山路327号附近" }, "geometry": { "type": "Point", "coordinates": [ 112.94139168, 28.18151888 ] } },
{ "type": "Feature", "properties": { "gml_id": "layer_scientific_pt.242568", "Name": "湖南财政经济学院南门", "pyname": "hnczjjxynm", "kind": "A700", "zipcode": null, "telephone": "0731-88811100", "display_x": "112.9237", "display_y": "28.20103", "side": "N", "address": "金星中路" }, "geometry": { "type": "Point", "coordinates": [ 112.9182822, 28.20456122 ] } },
{ "type": "Feature", "properties": { "gml_id": "layer_scientific_pt.242604", "Name": "宝宝家第二幼儿园", "pyname": "bbjdeyey", "kind": "A701", "zipcode": null, "telephone": "0731-88904586", "display_x": "112.92666", "display_y": "28.20041", "side": "L", "address": "望新路29号附近" }, "geometry": { "type": "Point", "coordinates": [ 112.92123924, 28.20393927 ] } },
{ "type": "Feature", "properties": { "gml_id": "layer_scientific_pt.242616", "Name": "天问数学", "pyname": "twsx", "kind": "A709", "zipcode": null, "telephone": null, "display_x": "112.95667", "display_y": "28.21453", "side": "L", "address": "银盆南路307" }, "geometry": { "type": "Point", "coordinates": [ 112.95118746, 28.21801302 ] } },
{ "type": "Feature", "properties": { "gml_id": "layer_scientific_pt.242617", "Name": "湖南行政学院（东区）", "pyname": "hnxzxy(dq)", "kind": "A700", "zipcode": null, "telephone": null, "display_x": "112.93743", "display_y": "28.1937", "side": "L", "address": "白云路99" }, "geometry": { "type": "Point", "coordinates": [ 112.9319919, 28.19721609 ] } },
{ "type": "Feature", "properties": { "gml_id": "layer_scientific_pt.242642", "Name": "湖南大学南校区幼儿园", "pyname": "hndxnxqyey", "kind": "A701", "zipcode": null, "telephone": null, "display_x": "112.94257", "display_y": "28.17959", "side": "L", "address": "麓山南路湖南大学" }, "geometry": { "type": "Point", "coordinates": [ 112.937121, 28.18309622 ] } },
{ "type": "Feature", "properties": { "gml_id": "layer_scientific_pt.242673", "Name": "中艺传媒培训学校", "pyname": "zycmpxxx", "kind": "A709", "zipcode": null, "telephone": null, "display_x": "112.91627", "display_y": "28.21303", "side": "R", "address": "望新路334" }, "geometry": { "type": "Point", "coordinates": [ 112.91085954, 28.21656668 ] } },
{ "type": "Feature", "properties": { "gml_id": "layer_scientific_pt.242721", "Name": "湖南大学药物研究所", "pyname": "hndxywyjs", "kind": "A880", "zipcode": null, "telephone": null, "display_x": "112.94376", "display_y": "28.18077", "side": "L", "address": null }, "geometry": { "type": "Point", "coordinates": [ 112.93830846, 28.18427436 ] } },
{ "type": "Feature", "properties": { "gml_id": "layer_scientific_pt.242754", "Name": "岳麓区艺林幼儿园", "pyname": "ylqylyey", "kind": "A701", "zipcode": null, "telephone": null, "display_x": "112.94847", "display_y": "28.20411", "side": "L", "address": "白沙液街269" }, "geometry": { "type": "Point", "coordinates": [ 112.94300646, 28.20760713 ] } },
{ "type": "Feature", "properties": { "gml_id": "layer_scientific_pt.242774", "Name": "省委党校湖南行政学院幼儿园", "pyname": "swdxhnxzxyyey", "kind": "A701", "zipcode": null, "telephone": null, "display_x": "112.93406", "display_y": "28.19704", "side": "R", "address": "白云路386号湖南省行政学院" }, "geometry": { "type": "Point", "coordinates": [ 112.92862932, 28.20056216 ] } },
{ "type": "Feature", "properties": { "gml_id": "layer_scientific_pt.242846", "Name": "咸嘉新村小太阳艺术幼稚园", "pyname": "xjxcxtyysyzy", "kind": "A701", "zipcode": null, "telephone": "0731-82357828", "display_x": "112.92981", "display_y": "28.22024", "side": "L", "address": "晨风路1" }, "geometry": { "type": "Point", "coordinates": [ 112.92438132, 28.22376443 ] } },
{ "type": "Feature", "properties": { "gml_id": "layer_scientific_pt.242858", "Name": "麓山国际实验学校", "pyname": "lsgjsyxx", "kind": "A703", "zipcode": null, "telephone": null, "display_x": "112.95241", "display_y": "28.20581", "side": "R", "address": "月华街59" }, "geometry": { "type": "Point", "coordinates": [ 112.94693748, 28.2093003 ] } },
{ "type": "Feature", "properties": { "gml_id": "layer_scientific_pt.242898", "Name": "湖南财政经济学院北门", "pyname": "hnczjjxybm", "kind": "A700", "zipcode": "410012", "telephone": "0731-88811100", "display_x": "112.92776", "display_y": "28.20607", "side": "N", "address": "枫林二路139" }, "geometry": { "type": "Point", "coordinates": [ 112.9223376, 28.20959865 ] } },
{ "type": "Feature", "properties": { "gml_id": "layer_scientific_pt.242936", "Name": "岳麓区杜家塘小学", "pyname": "ylqdjtxx", "kind": "A702", "zipcode": null, "telephone": null, "display_x": "112.94129", "display_y": "28.16474", "side": "R", "address": "矿山路" }, "geometry": { "type": "Point", "coordinates": [ 112.93584408, 28.1682468 ] } },
{ "type": "Feature", "properties": { "gml_id": "layer_scientific_pt.242954", "Name": "岳麓区福娃艺术幼稚园", "pyname": "ylqfwysyzy", "kind": "A701", "zipcode": null, "telephone": "18075124085", "display_x": "112.92471", "display_y": "28.21043", "side": "L", "address": "咸嘉湖路1006号附近" }, "geometry": { "type": "Point", "coordinates": [ 112.9192911, 28.21396131 ] } },
{ "type": "Feature", "properties": { "gml_id": "layer_scientific_pt.242977", "Name": "长沙市岳麓区英才艺术培训学校", "pyname": "cssylqycyspxxx", "kind": "A709", "zipcode": null, "telephone": "0731-88915798", "display_x": "112.9573", "display_y": "28.21319", "side": "L", "address": "银盆南路285号金荣科技园M1组团B座7层" }, "geometry": { "type": "Point", "coordinates": [ 112.95181602, 28.2166718 ] } },
{ "type": "Feature", "properties": { "gml_id": "layer_scientific_pt.243058", "Name": "恒星幼儿园", "pyname": "hxyey", "kind": "A701", "zipcode": null, "telephone": "0731-88654329", "display_x": "112.92477", "display_y": "28.15903", "side": "L", "address": null }, "geometry": { "type": "Point", "coordinates": [ 112.91935428, 28.16255853 ] } },
{ "type": "Feature", "properties": { "gml_id": "layer_scientific_pt.243100", "Name": "中澳国际轻金属研究中心", "pyname": "zagjqjsyjzx", "kind": "A880", "zipcode": null, "telephone": null, "display_x": "112.92922", "display_y": "28.16842", "side": "L", "address": null }, "geometry": { "type": "Point", "coordinates": [ 112.92379902, 28.17194625 ] } },
{ "type": "Feature", "properties": { "gml_id": "layer_scientific_pt.243101", "Name": "才子教育岳麓校", "pyname": "czjyylx", "kind": "A709", "zipcode": null, "telephone": "0731-85666656", "display_x": "112.94451", "display_y": "28.20082", "side": "R", "address": "枫林一路425" }, "geometry": { "type": "Point", "coordinates": [ 112.93905546, 28.20432384 ] } },
{ "type": "Feature", "properties": { "gml_id": "layer_scientific_pt.243102", "Name": "众和·桐梓坡幼智园", "pyname": "zhtzpyzy", "kind": "A701", "zipcode": null, "telephone": "0731-84446416", "display_x": "112.95001", "display_y": "28.21609", "side": "L", "address": "桐中巷" }, "geometry": { "type": "Point", "coordinates": [ 112.94454384, 28.21958582 ] } },
{ "type": "Feature", "properties": { "gml_id": "layer_scientific_pt.243103", "Name": "鹏程教育培训学校", "pyname": "pcjypxxx", "kind": "A709", "zipcode": null, "telephone": "0731-88648288", "display_x": "112.95574", "display_y": "28.19976", "side": "L", "address": "银盆南路52－2" }, "geometry": { "type": "Point", "coordinates": [ 112.95025938, 28.20324362 ] } },
{ "type": "Feature", "properties": { "gml_id": "layer_scientific_pt.243212", "Name": "燕舟学校", "pyname": "yzxx", "kind": "A709", "zipcode": null, "telephone": null, "display_x": "112.92608", "display_y": "28.15941", "side": "R", "address": null }, "geometry": { "type": "Point", "coordinates": [ 112.92066306, 28.16293784 ] } },
{ "type": "Feature", "properties": { "gml_id": "layer_scientific_pt.243582", "Name": "长沙市博闻培训学校", "pyname": "cssbwpxxx", "kind": "A709", "zipcode": null, "telephone": "0731-88838018", "display_x": "112.94726", "display_y": "28.16832", "side": "L", "address": "天马路190" }, "geometry": { "type": "Point", "coordinates": [ 112.941801, 28.17181719 ] } },
{ "type": "Feature", "properties": { "gml_id": "layer_scientific_pt.243638", "Name": "湖南省红十字会备灾培训中心", "pyname": "hnshszhbzpxzx", "kind": "7480", "zipcode": null, "telephone": null, "display_x": "112.93028", "display_y": "28.22234", "side": "R", "address": "银双路412－2" }, "geometry": { "type": "Point", "coordinates": [ 112.92485058, 28.22586399 ] } },
{ "type": "Feature", "properties": { "gml_id": "layer_scientific_pt.243639", "Name": "福娃·馨雅国学幼儿园", "pyname": "fwxygxyey", "kind": "A701", "zipcode": null, "telephone": "0731-89743689", "display_x": "112.91896", "display_y": "28.21417", "side": "L", "address": "咸嘉湖西路" }, "geometry": { "type": "Point", "coordinates": [ 112.9135473, 28.21770558 ] } },
{ "type": "Feature", "properties": { "gml_id": "layer_scientific_pt.243663", "Name": "湖南公共关系学院", "pyname": "hngggxxy", "kind": "A700", "zipcode": null, "telephone": null, "display_x": "112.92949", "display_y": "28.20191", "side": "L", "address": null }, "geometry": { "type": "Point", "coordinates": [ 112.92406596, 28.20543737 ] } },
{ "type": "Feature", "properties": { "gml_id": "layer_scientific_pt.243758", "Name": "东方之星中英文幼稚园", "pyname": "dfzxzywyzy", "kind": "A701", "zipcode": null, "telephone": "0731-82357929", "display_x": "112.92436", "display_y": "28.21577", "side": "L", "address": null }, "geometry": { "type": "Point", "coordinates": [ 112.91894046, 28.21930106 ] } },
{ "type": "Feature", "properties": { "gml_id": "layer_scientific_pt.243773", "Name": "湖南商学院", "pyname": "hnsxy", "kind": "A700", "zipcode": "410205", "telephone": "0731-88689016", "display_x": "112.91939", "display_y": "28.22053", "side": "R", "address": "岳麓大道569" }, "geometry": { "type": "Point", "coordinates": [ 112.91397624, 28.22406471 ] } },
{ "type": "Feature", "properties": { "gml_id": "layer_scientific_pt.243894", "Name": "湖南财政经济学院", "pyname": "hnczjjxy", "kind": "A700", "zipcode": "410012", "telephone": "0731-88811100", "display_x": "112.92553", "display_y": "28.20432", "side": "R", "address": "枫林二路139" }, "geometry": { "type": "Point", "coordinates": [ 112.92011064, 28.20785072 ] } },
{ "type": "Feature", "properties": { "gml_id": "layer_scientific_pt.244030", "Name": "长沙矿山研究院", "pyname": "csksyjy", "kind": "A880", "zipcode": "410012", "telephone": null, "display_x": "112.94266", "display_y": "28.16749", "side": "L", "address": "麓山南路343" }, "geometry": { "type": "Point", "coordinates": [ 112.937211, 28.17099482 ] } },
{ "type": "Feature", "properties": { "gml_id": "layer_scientific_pt.244055", "Name": "湖南商学院幼儿园", "pyname": "hnsxyyey", "kind": "A701", "zipcode": null, "telephone": null, "display_x": "112.91755", "display_y": "28.21879", "side": "L", "address": "岳麓大道569湖南商学院" }, "geometry": { "type": "Point", "coordinates": [ 112.91213772, 28.2223256 ] } },
{ "type": "Feature", "properties": { "gml_id": "layer_scientific_pt.244078", "Name": "望月湖幼儿园", "pyname": "wyhyey", "kind": "A701", "zipcode": null, "telephone": "0731-88884403", "display_x": "112.95506", "display_y": "28.20288", "side": "L", "address": "月宫街37" }, "geometry": { "type": "Point", "coordinates": [ 112.94958114, 28.20636518 ] } },
{ "type": "Feature", "properties": { "gml_id": "layer_scientific_pt.244079", "Name": "望月湖第二小学", "pyname": "wyhdexx", "kind": "A702", "zipcode": null, "telephone": null, "display_x": "112.95475", "display_y": "28.20252", "side": "L", "address": "月宫街35" }, "geometry": { "type": "Point", "coordinates": [ 112.9492719, 28.20600572 ] } },
{ "type": "Feature", "properties": { "gml_id": "layer_scientific_pt.244081", "Name": "长沙市岳麓区博美幼儿园", "pyname": "cssylqbmyey", "kind": "A701", "zipcode": null, "telephone": "0731-85212828", "display_x": "112.94623", "display_y": "28.21583", "side": "R", "address": null }, "geometry": { "type": "Point", "coordinates": [ 112.94077248, 28.21933256 ] } },
{ "type": "Feature", "properties": { "gml_id": "layer_scientific_pt.244173", "Name": "新东方泡泡少儿教育英语沁园春教学", "pyname": "xdfppsejyyyqycjxq", "kind": "A709", "zipcode": null, "telephone": "0731-84885588", "display_x": "112.95668", "display_y": "28.2145", "side": "L", "address": "银盆南路307" }, "geometry": { "type": "Point", "coordinates": [ 112.95119754, 28.21798301 ] } },
{ "type": "Feature", "properties": { "gml_id": "layer_scientific_pt.244313", "Name": "湖南省肿瘤防治研究所", "pyname": "hnszlfzyjs", "kind": "A880", "zipcode": "410013", "telephone": null, "display_x": "112.93925", "display_y": "28.21201", "side": "L", "address": "咸嘉湖路582" }, "geometry": { "type": "Point", "coordinates": [ 112.93380828, 28.21552461 ] } },
{ "type": "Feature", "properties": { "gml_id": "layer_scientific_pt.244392", "Name": "狮王教育", "pyname": "swjy", "kind": "A709", "zipcode": null, "telephone": null, "display_x": "112.93253", "display_y": "28.20265", "side": "L", "address": "枫林一路725" }, "geometry": { "type": "Point", "coordinates": [ 112.9271013, 28.20617393 ] } },
{ "type": "Feature", "properties": { "gml_id": "layer_scientific_pt.244406", "Name": "湖南大学纪实文学研究所", "pyname": "hndxjswxyjs", "kind": "A880", "zipcode": null, "telephone": null, "display_x": "112.94527", "display_y": "28.18184", "side": "L", "address": "麓山南路湖南大学" }, "geometry": { "type": "Point", "coordinates": [ 112.93981506, 28.18534194 ] } },
{ "type": "Feature", "properties": { "gml_id": "layer_scientific_pt.244425", "Name": "米兰音乐学校", "pyname": "mlyyxx", "kind": "A709", "zipcode": null, "telephone": null, "display_x": "112.91822", "display_y": "28.17266", "side": "R", "address": null }, "geometry": { "type": "Point", "coordinates": [ 112.91280912, 28.17619268 ] } },
{ "type": "Feature", "properties": { "gml_id": "layer_scientific_pt.244695", "Name": "长沙矿冶研究院", "pyname": "cskyyjy", "kind": "A880", "zipcode": null, "telephone": null, "display_x": "112.93124", "display_y": "28.16345", "side": "N", "address": "麓山南路966" }, "geometry": { "type": "Point", "coordinates": [ 112.92581592, 28.16697348 ] } },
{ "type": "Feature", "properties": { "gml_id": "layer_scientific_pt.244952", "Name": "长沙市岳麓区银盆岭小学", "pyname": "cssylqyplxx", "kind": "A702", "zipcode": null, "telephone": null, "display_x": "112.96002", "display_y": "28.22027", "side": "L", "address": "狮子街69" }, "geometry": { "type": "Point", "coordinates": [ 112.95452394, 28.22374242 ] } },
{ "type": "Feature", "properties": { "gml_id": "layer_scientific_pt.244954", "Name": "长沙市岳麓区新星幼儿园", "pyname": "cssylqxxyey", "kind": "A701", "zipcode": null, "telephone": null, "display_x": "112.95376", "display_y": "28.20595", "side": "L", "address": "月华街65" }, "geometry": { "type": "Point", "coordinates": [ 112.94828442, 28.20943791 ] } },
{ "type": "Feature", "properties": { "gml_id": "layer_scientific_pt.244959", "Name": "湘麓驾驶员培训公司", "pyname": "xljsypxgs", "kind": "A706", "zipcode": null, "telephone": null, "display_x": "112.92486", "display_y": "28.22474", "side": "L", "address": "岳麓大道403" }, "geometry": { "type": "Point", "coordinates": [ 112.91944032, 28.22827104 ] } },
{ "type": "Feature", "properties": { "gml_id": "layer_scientific_pt.244968", "Name": "科教新村康乐宝贝幼稚园", "pyname": "kjxcklbbyzy", "kind": "A701", "zipcode": null, "telephone": null, "display_x": "112.95", "display_y": "28.16599", "side": "L", "address": "天马路109岳麓科教新村" }, "geometry": { "type": "Point", "coordinates": [ 112.94453502, 28.16948237 ] } },
{ "type": "Feature", "properties": { "gml_id": "layer_scientific_pt.245064", "Name": "岳麓外国语实验中学", "pyname": "ylwgysyzx", "kind": "A703", "zipcode": null, "telephone": null, "display_x": "112.95048", "display_y": "28.1995", "side": "L", "address": "溁湾路266" }, "geometry": { "type": "Point", "coordinates": [ 112.94501148, 28.20299301 ] } },
{ "type": "Feature", "properties": { "gml_id": "layer_scientific_pt.245113", "Name": "湖东幼儿园", "pyname": "hdyey", "kind": "A701", "zipcode": null, "telephone": null, "display_x": "112.95706", "display_y": "28.20456", "side": "L", "address": "望月湖小区二片第11栋附近" }, "geometry": { "type": "Point", "coordinates": [ 112.95157662, 28.20804183 ] } },
{ "type": "Feature", "properties": { "gml_id": "layer_scientific_pt.245216", "Name": "湖南大学－大学物理实验中心", "pyname": "hndx-dxwlsyzx", "kind": "A880", "zipcode": null, "telephone": null, "display_x": "112.94322", "display_y": "28.18176", "side": "L", "address": "麓山南路湖南大学" }, "geometry": { "type": "Point", "coordinates": [ 112.93776954, 28.18526535 ] } },
{ "type": "Feature", "properties": { "gml_id": "layer_scientific_pt.245217", "Name": "湖南大学高分子研究所", "pyname": "hndxgfzyjs", "kind": "A880", "zipcode": null, "telephone": null, "display_x": "112.94451", "display_y": "28.18078", "side": "L", "address": "麓山南路湖南大学" }, "geometry": { "type": "Point", "coordinates": [ 112.93905672, 28.18428309 ] } },
{ "type": "Feature", "properties": { "gml_id": "layer_scientific_pt.245305", "Name": "阳光外语智慧星幼儿园", "pyname": "ygwyzhxyey", "kind": "A701", "zipcode": null, "telephone": "0731-88629666", "display_x": "112.93098", "display_y": "28.22331", "side": "L", "address": "银双路406湘卫花苑" }, "geometry": { "type": "Point", "coordinates": [ 112.92554952, 28.22683316 ] } },
{ "type": "Feature", "properties": { "gml_id": "layer_scientific_pt.245528", "Name": "喜乐仔艺术幼儿园", "pyname": "xlzysyey", "kind": "A701", "zipcode": null, "telephone": "0731-88711189", "display_x": "112.9264", "display_y": "28.15911", "side": "R", "address": null }, "geometry": { "type": "Point", "coordinates": [ 112.92098274, 28.16263764 ] } },
{ "type": "Feature", "properties": { "gml_id": "layer_scientific_pt.245551", "Name": "湖南大学环境保护研究所", "pyname": "hndxhjbhyjs", "kind": "A880", "zipcode": null, "telephone": null, "display_x": "112.94384", "display_y": "28.1782", "side": "L", "address": "麓山南路8" }, "geometry": { "type": "Point", "coordinates": [ 112.93838838, 28.18170396 ] } },
{ "type": "Feature", "properties": { "gml_id": "layer_scientific_pt.245552", "Name": "湖南大学风工程与桥梁工程湖南省重", "pyname": "hndxfgcyqlgchnszdsys", "kind": "A880", "zipcode": null, "telephone": null, "display_x": "112.94668", "display_y": "28.17743", "side": "R", "address": "麓山南路湖南大学" }, "geometry": { "type": "Point", "coordinates": [ 112.94122212, 28.18092911 ] } },
{ "type": "Feature", "properties": { "gml_id": "layer_scientific_pt.245623", "Name": "米塔尔金属工业研究院", "pyname": "mtejsgyyjy", "kind": "A880", "zipcode": null, "telephone": null, "display_x": "112.92581", "display_y": "28.17007", "side": "R", "address": "麓山南路中南大学" }, "geometry": { "type": "Point", "coordinates": [ 112.92039216, 28.17359825 ] } },
{ "type": "Feature", "properties": { "gml_id": "layer_scientific_pt.245853", "Name": "湖南师范大学", "pyname": "hnsfdx", "kind": "A700", "zipcode": "410005", "telephone": "0731-88872070", "display_x": "112.95009", "display_y": "28.18502", "side": "R", "address": "麓山路36号" }, "geometry": { "type": "Point", "coordinates": [ 112.94462394, 28.18851368 ] } },
{ "type": "Feature", "properties": { "gml_id": "layer_scientific_pt.245948", "Name": "言众言教育", "pyname": "yzyjy", "kind": "A709", "zipcode": null, "telephone": null, "display_x": "112.94685", "display_y": "28.16653", "side": "L", "address": "阜埠河路175号大学科技港6层" }, "geometry": { "type": "Point", "coordinates": [ 112.94139186, 28.17002768 ] } },
{ "type": "Feature", "properties": { "gml_id": "layer_scientific_pt.245993", "Name": "长沙市岳麓区岳南路小学", "pyname": "cssylqynlxx", "kind": "A702", "zipcode": "410012", "telephone": null, "display_x": "112.94073", "display_y": "28.16671", "side": "L", "address": "麓山南路570" }, "geometry": { "type": "Point", "coordinates": [ 112.93528518, 28.17021794 ] } },
{ "type": "Feature", "properties": { "gml_id": "layer_scientific_pt.246028", "Name": "长沙吉安驾校桐梓坡校区", "pyname": "csjajxtzpxq", "kind": "A706", "zipcode": "410013", "telephone": "0731-85060111", "display_x": "112.93945", "display_y": "28.21802", "side": "R", "address": "桐梓坡路178" }, "geometry": { "type": "Point", "coordinates": [ 112.93400736, 28.22153405 ] } },
{ "type": "Feature", "properties": { "gml_id": "layer_scientific_pt.246221", "Name": "七彩未来幼儿园", "pyname": "qcwlyey", "kind": "A701", "zipcode": null, "telephone": null, "display_x": "112.91735", "display_y": "28.21181", "side": "R", "address": null }, "geometry": { "type": "Point", "coordinates": [ 112.91193882, 28.21534637 ] } },
{ "type": "Feature", "properties": { "gml_id": "layer_scientific_pt.246331", "Name": "诺贝尔摇篮幼稚园", "pyname": "nbeylyzy", "kind": "A701", "zipcode": null, "telephone": "0731-88630995", "display_x": "112.92553", "display_y": "28.22087", "side": "L", "address": "晨风路" }, "geometry": { "type": "Point", "coordinates": [ 112.92010884, 28.22439992 ] } },
{ "type": "Feature", "properties": { "gml_id": "layer_scientific_pt.246332", "Name": "米拉艺术培训中心", "pyname": "mlyspxzx", "kind": "A709", "zipcode": null, "telephone": null, "display_x": "112.95546", "display_y": "28.21329", "side": "R", "address": "景秀路" }, "geometry": { "type": "Point", "coordinates": [ 112.94998092, 28.2167757 ] } },
{ "type": "Feature", "properties": { "gml_id": "layer_scientific_pt.246464", "Name": "湖南大学低碳经济与社会发展研究所", "pyname": "hndxdtjjyshfzyjs", "kind": "A880", "zipcode": null, "telephone": null, "display_x": "112.94527", "display_y": "28.18184", "side": "L", "address": "麓山南路湖南大学" }, "geometry": { "type": "Point", "coordinates": [ 112.93981506, 28.18534194 ] } },
{ "type": "Feature", "properties": { "gml_id": "layer_scientific_pt.246584", "Name": "湖南大学－威胜集团联合研发中心", "pyname": "hndx-wsjtlhyfzx", "kind": "A880", "zipcode": null, "telephone": null, "display_x": "112.94535", "display_y": "28.18139", "side": "R", "address": null }, "geometry": { "type": "Point", "coordinates": [ 112.93989498, 28.18489176 ] } },
{ "type": "Feature", "properties": { "gml_id": "layer_scientific_pt.246585", "Name": "法治湖南与区域治理研究院", "pyname": "fzhnyqyzlyjy", "kind": "A880", "zipcode": null, "telephone": null, "display_x": "112.9473", "display_y": "28.17912", "side": "L", "address": "牌楼路" }, "geometry": { "type": "Point", "coordinates": [ 112.94184078, 28.18261827 ] } },
{ "type": "Feature", "properties": { "gml_id": "layer_scientific_pt.246586", "Name": "湖南大学－湖南运达机电汽车底盘系", "pyname": "hndx-hnydjdqcdpxtyfzx", "kind": "A880", "zipcode": null, "telephone": null, "display_x": "112.94685", "display_y": "28.17802", "side": "R", "address": null }, "geometry": { "type": "Point", "coordinates": [ 112.94139168, 28.18151888 ] } },
{ "type": "Feature", "properties": { "gml_id": "layer_scientific_pt.246587", "Name": "湖南师大农业部鲤鲫鱼遗传育种中心", "pyname": "hnsdnybljyycyzzx", "kind": "A880", "zipcode": null, "telephone": null, "display_x": "112.95354", "display_y": "28.18475", "side": "L", "address": "爱民路127号" }, "geometry": { "type": "Point", "coordinates": [ 112.94806608, 28.18823756 ] } },
{ "type": "Feature", "properties": { "gml_id": "layer_scientific_pt.246590", "Name": "湖南师范大学医学院", "pyname": "hnsfdxyxy", "kind": "A700", "zipcode": "410012", "telephone": "0731-88912400", "display_x": "112.93553", "display_y": "28.21415", "side": "R", "address": "桐梓坡路371" }, "geometry": { "type": "Point", "coordinates": [ 112.93009398, 28.21766891 ] } },
{ "type": "Feature", "properties": { "gml_id": "layer_scientific_pt.246623", "Name": "湖南师范大学继续教育学院", "pyname": "hnsfdxjxjyxy", "kind": "A709", "zipcode": "410013", "telephone": null, "display_x": "112.93356", "display_y": "28.21029", "side": "L", "address": "咸嘉湖路800" }, "geometry": { "type": "Point", "coordinates": [ 112.92812784, 28.21381164 ] } },
{ "type": "Feature", "properties": { "gml_id": "layer_scientific_pt.246707", "Name": "阳光英才幼儿园", "pyname": "ygycyey", "kind": "A701", "zipcode": null, "telephone": "0731-82352288", "display_x": "112.94628", "display_y": "28.21476", "side": "L", "address": "英才园路45" }, "geometry": { "type": "Point", "coordinates": [ 112.94082234, 28.21826232 ] } },
{ "type": "Feature", "properties": { "gml_id": "layer_scientific_pt.246731", "Name": "中国科学院广州地球化学研究所长沙", "pyname": "zgkxygzdqhxyjscskczykcz", "kind": "A880", "zipcode": "410013", "telephone": null, "display_x": "112.94738", "display_y": "28.21882", "side": "R", "address": "桐梓坡路96" }, "geometry": { "type": "Point", "coordinates": [ 112.94191998, 28.22232083 ] } },
{ "type": "Feature", "properties": { "gml_id": "layer_scientific_pt.246759", "Name": "湖南省中小企业研究中心", "pyname": "hnszxqyyjzx", "kind": "A880", "zipcode": null, "telephone": null, "display_x": "112.93026", "display_y": "28.16795", "side": "R", "address": null }, "geometry": { "type": "Point", "coordinates": [ 112.92483798, 28.1714756 ] } },
{ "type": "Feature", "properties": { "gml_id": "layer_scientific_pt.246795", "Name": "湖南师大附属艺术中学", "pyname": "hnsdfsyszx", "kind": "A703", "zipcode": null, "telephone": "0731-83869965", "display_x": "112.9414", "display_y": "28.16704", "side": "L", "address": "麓山南路554" }, "geometry": { "type": "Point", "coordinates": [ 112.9359537, 28.17054684 ] } },
{ "type": "Feature", "properties": { "gml_id": "layer_scientific_pt.246925", "Name": "岳麓区望月湖第一小学", "pyname": "ylqwyhdyxx", "kind": "A702", "zipcode": null, "telephone": null, "display_x": "112.95624", "display_y": "28.20732", "side": "L", "address": "月宫街309" }, "geometry": { "type": "Point", "coordinates": [ 112.9507587, 28.21080362 ] } },
{ "type": "Feature", "properties": { "gml_id": "layer_scientific_pt.246971", "Name": "中南大学湘雅医学院", "pyname": "zndxxyyxy", "kind": "A700", "zipcode": "410013", "telephone": "0731-88853055", "display_x": "112.94279", "display_y": "28.21987", "side": "R", "address": "桐梓坡路172" }, "geometry": { "type": "Point", "coordinates": [ 112.93734078, 28.22337918 ] } },
{ "type": "Feature", "properties": { "gml_id": "layer_scientific_pt.247073", "Name": "长沙市第二十八中学", "pyname": "cssdesbzx", "kind": "A703", "zipcode": null, "telephone": null, "display_x": "112.95048", "display_y": "28.1995", "side": "L", "address": "溁湾路266" }, "geometry": { "type": "Point", "coordinates": [ 112.94501148, 28.20299301 ] } },
{ "type": "Feature", "properties": { "gml_id": "layer_scientific_pt.247151", "Name": "长沙英达外国语学校", "pyname": "csydwgyxx", "kind": "A709", "zipcode": null, "telephone": "0731-88907681", "display_x": "112.9543", "display_y": "28.22197", "side": "L", "address": "银盆南路298银盆大厦6层" }, "geometry": { "type": "Point", "coordinates": [ 112.94882226, 28.22545701 ] } },
{ "type": "Feature", "properties": { "gml_id": "layer_scientific_pt.247196", "Name": "金穗双语幼稚园", "pyname": "jssyyzy", "kind": "A701", "zipcode": null, "telephone": "0731-88988767", "display_x": "112.92701", "display_y": "28.21408", "side": "L", "address": null }, "geometry": { "type": "Point", "coordinates": [ 112.92158682, 28.21760825 ] } },
{ "type": "Feature", "properties": { "gml_id": "layer_scientific_pt.247197", "Name": "九春教育集团", "pyname": "jcjyjt", "kind": "A709", "zipcode": null, "telephone": null, "display_x": "112.95243", "display_y": "28.22355", "side": "L", "address": "彩虹路" }, "geometry": { "type": "Point", "coordinates": [ 112.94695764, 28.22704146 ] } },
{ "type": "Feature", "properties": { "gml_id": "layer_scientific_pt.247209", "Name": "小君翔艺术幼稚园", "pyname": "xjxysyzy", "kind": "A701", "zipcode": null, "telephone": "0731-82490165", "display_x": "112.9223", "display_y": "28.22383", "side": "L", "address": "窑塘新村一片130号附近" }, "geometry": { "type": "Point", "coordinates": [ 112.9168836, 28.22736326 ] } },
{ "type": "Feature", "properties": { "gml_id": "layer_scientific_pt.247320", "Name": "高新博才学校", "pyname": "gxbcxx", "kind": "A702", "zipcode": "410013", "telephone": null, "display_x": "112.94605", "display_y": "28.21343", "side": "L", "address": "咸嘉湖路222" }, "geometry": { "type": "Point", "coordinates": [ 112.94059266, 28.21693257 ] } },
{ "type": "Feature", "properties": { "gml_id": "layer_scientific_pt.247510", "Name": "卡洛斯少儿英语岳麓校区", "pyname": "klsseyyylxq", "kind": "A709", "zipcode": null, "telephone": "0731-84628088", "display_x": "112.9573", "display_y": "28.21319", "side": "L", "address": "银盆南路285号金荣科技园M1组团B座3层" }, "geometry": { "type": "Point", "coordinates": [ 112.95181602, 28.2166718 ] } },
{ "type": "Feature", "properties": { "gml_id": "layer_scientific_pt.247862", "Name": "岳麓区教育局幼儿园", "pyname": "ylqjyjyey", "kind": "A701", "zipcode": null, "telephone": "0731-88882888", "display_x": "112.95568", "display_y": "28.20654", "side": "L", "address": null }, "geometry": { "type": "Point", "coordinates": [ 112.95019998, 28.21002453 ] } },
{ "type": "Feature", "properties": { "gml_id": "layer_scientific_pt.248009", "Name": "博才咸嘉学校", "pyname": "bcxjxx", "kind": "A702", "zipcode": null, "telephone": null, "display_x": "112.92696", "display_y": "28.22277", "side": "R", "address": "桐梓坡路328咸嘉新村" }, "geometry": { "type": "Point", "coordinates": [ 112.92153642, 28.22629824 ] } },
{ "type": "Feature", "properties": { "gml_id": "layer_scientific_pt.248062", "Name": "岳麓区伶英幼儿园", "pyname": "ylqlyyey", "kind": "A701", "zipcode": null, "telephone": "0731-82452096", "display_x": "112.95168", "display_y": "28.16142", "side": "R", "address": "阜埠河路天马安置小区" }, "geometry": { "type": "Point", "coordinates": [ 112.94621208, 28.1649096 ] } },
{ "type": "Feature", "properties": { "gml_id": "layer_scientific_pt.248072", "Name": "铁马驾校", "pyname": "tmjx", "kind": "A706", "zipcode": null, "telephone": "0731-84431978", "display_x": "112.95044", "display_y": "28.20327", "side": "L", "address": "白沙液街204" }, "geometry": { "type": "Point", "coordinates": [ 112.94497188, 28.20676352 ] } },
{ "type": "Feature", "properties": { "gml_id": "layer_scientific_pt.248128", "Name": "长沙科技职业中专学校", "pyname": "cskjzyzzxx", "kind": "A708", "zipcode": null, "telephone": null, "display_x": "112.92159", "display_y": "28.16905", "side": "R", "address": "西二环" }, "geometry": { "type": "Point", "coordinates": [ 112.9161762, 28.17258066 ] } },
{ "type": "Feature", "properties": { "gml_id": "layer_scientific_pt.248138", "Name": "溁湾路小学", "pyname": "ywlxx", "kind": "A702", "zipcode": null, "telephone": null, "display_x": "112.95319", "display_y": "28.20008", "side": "R", "address": "溁湾横街57" }, "geometry": { "type": "Point", "coordinates": [ 112.94771526, 28.2035682 ] } },
{ "type": "Feature", "properties": { "gml_id": "layer_scientific_pt.248223", "Name": "天鹰驾校", "pyname": "tyjx", "kind": "A706", "zipcode": null, "telephone": null, "display_x": "112.92076", "display_y": "28.1996", "side": "R", "address": "金星南路" }, "geometry": { "type": "Point", "coordinates": [ 112.91534496, 28.20313269 ] } },
{ "type": "Feature", "properties": { "gml_id": "layer_scientific_pt.248277", "Name": "翰林幼儿园", "pyname": "hlyey", "kind": "A701", "zipcode": null, "telephone": "0731-85683456", "display_x": "112.92295", "display_y": "28.22323", "side": "L", "address": "窑塘新村127号" }, "geometry": { "type": "Point", "coordinates": [ 112.91753322, 28.22676309 ] } },
{ "type": "Feature", "properties": { "gml_id": "layer_scientific_pt.248510", "Name": "咪咪幼儿园", "pyname": "mmyey", "kind": "A701", "zipcode": null, "telephone": "13787078364", "display_x": "112.91996", "display_y": "28.20612", "side": "R", "address": "望新路199" }, "geometry": { "type": "Point", "coordinates": [ 112.91454648, 28.20965445 ] } },
{ "type": "Feature", "properties": { "gml_id": "layer_scientific_pt.248704", "Name": "湖南大学化学化工有机化学研究室", "pyname": "hndxhxhgyjhxyjs", "kind": "A880", "zipcode": "410006", "telephone": null, "display_x": "112.94655", "display_y": "28.18163", "side": "L", "address": "麓山路372" }, "geometry": { "type": "Point", "coordinates": [ 112.94109234, 28.18512977 ] } },
{ "type": "Feature", "properties": { "gml_id": "layer_scientific_pt.248707", "Name": "长沙教育学院分校区", "pyname": "csjyxyfxq", "kind": "A700", "zipcode": null, "telephone": null, "display_x": "112.95374", "display_y": "28.2027", "side": "R", "address": "杜家塘路8" }, "geometry": { "type": "Point", "coordinates": [ 112.94826426, 28.20618756 ] } },
{ "type": "Feature", "properties": { "gml_id": "layer_scientific_pt.248866", "Name": "岳麓区教育局三幼儿园", "pyname": "ylqjyjsyey", "kind": "A701", "zipcode": null, "telephone": "0731-85824478", "display_x": "112.92971", "display_y": "28.21336", "side": "L", "address": null }, "geometry": { "type": "Point", "coordinates": [ 112.92428286, 28.21688541 ] } },
{ "type": "Feature", "properties": { "gml_id": "layer_scientific_pt.248899", "Name": "湖南商学院岭南校区", "pyname": "hnsxylnxq", "kind": "A700", "zipcode": null, "telephone": null, "display_x": "112.92109", "display_y": "28.21485", "side": "R", "address": "明德路" }, "geometry": { "type": "Point", "coordinates": [ 112.91567562, 28.21838472 ] } },
{ "type": "Feature", "properties": { "gml_id": "layer_scientific_pt.248900", "Name": "湖南省中医药研究院文献信息研究所", "pyname": "hnszyyyjywxxxyjs", "kind": "A880", "zipcode": null, "telephone": null, "display_x": "112.94929", "display_y": "28.19519", "side": "L", "address": null }, "geometry": { "type": "Point", "coordinates": [ 112.94382456, 28.19868507 ] } },
{ "type": "Feature", "properties": { "gml_id": "layer_scientific_pt.249198", "Name": "南北艺术学校", "pyname": "nbysxx", "kind": "A709", "zipcode": null, "telephone": "0731-88632119", "display_x": "112.94197", "display_y": "28.16126", "side": "R", "address": null }, "geometry": { "type": "Point", "coordinates": [ 112.9365225, 28.16476529 ] } },
{ "type": "Feature", "properties": { "gml_id": "layer_scientific_pt.249279", "Name": "湖南大学工程结构损伤诊断湖南省重", "pyname": "hndxgcjgsszdhnszdsys", "kind": "A880", "zipcode": null, "telephone": null, "display_x": "112.94668", "display_y": "28.17743", "side": "R", "address": null }, "geometry": { "type": "Point", "coordinates": [ 112.94122212, 28.18092911 ] } },
{ "type": "Feature", "properties": { "gml_id": "layer_scientific_pt.249348", "Name": "莱恩幼稚园", "pyname": "leyzy", "kind": "A701", "zipcode": null, "telephone": null, "display_x": "112.93102", "display_y": "28.21643", "side": "R", "address": null }, "geometry": { "type": "Point", "coordinates": [ 112.9255902, 28.21995351 ] } },
{ "type": "Feature", "properties": { "gml_id": "layer_scientific_pt.249372", "Name": "爱心幼稚园", "pyname": "axyzy", "kind": "A701", "zipcode": null, "telephone": null, "display_x": "112.95202", "display_y": "28.2182", "side": "L", "address": "桐兴巷11" }, "geometry": { "type": "Point", "coordinates": [ 112.94654922, 28.22169245 ] } },
{ "type": "Feature", "properties": { "gml_id": "layer_scientific_pt.249460", "Name": "小海豚艺术幼儿园", "pyname": "xhtysyey", "kind": "A701", "zipcode": null, "telephone": "0731-88851303", "display_x": "112.95327", "display_y": "28.20034", "side": "R", "address": "溁湾横街69号附近" }, "geometry": { "type": "Point", "coordinates": [ 112.947795, 28.20382812 ] } },
{ "type": "Feature", "properties": { "gml_id": "layer_scientific_pt.249572", "Name": "教育部全国高级教师网络培训湖南省", "pyname": "jybqggjjswlpxhnsfzx", "kind": "7480", "zipcode": "410006", "telephone": null, "display_x": "112.95519", "display_y": "28.18875", "side": "R", "address": "潇湘中路122" }, "geometry": { "type": "Point", "coordinates": [ 112.949712, 28.19223459 ] } },
{ "type": "Feature", "properties": { "gml_id": "layer_scientific_pt.249573", "Name": "启航教育长沙教学点", "pyname": "qhjycsjxd", "kind": "A709", "zipcode": null, "telephone": "0731-88677779", "display_x": "112.95114", "display_y": "28.19011", "side": "L", "address": "湖南师范大学社区服务中心1－3层" }, "geometry": { "type": "Point", "coordinates": [ 112.945671, 28.19360178 ] } },
{ "type": "Feature", "properties": { "gml_id": "layer_scientific_pt.249690", "Name": "湖南省食用菌研究所", "pyname": "hnssyjyjs", "kind": "A880", "zipcode": null, "telephone": null, "display_x": "112.93862", "display_y": "28.22255", "side": "L", "address": "双塘路107" }, "geometry": { "type": "Point", "coordinates": [ 112.93317738, 28.22606429 ] } },
{ "type": "Feature", "properties": { "gml_id": "layer_scientific_pt.250104", "Name": "湖南师范大学附属小学", "pyname": "hnsfdxfsxx", "kind": "A702", "zipcode": null, "telephone": null, "display_x": "112.95141", "display_y": "28.18879", "side": "N", "address": "麓山路36号湖南师范大学" }, "geometry": { "type": "Point", "coordinates": [ 112.94594046, 28.1922813 ] } },
{ "type": "Feature", "properties": { "gml_id": "layer_scientific_pt.250121", "Name": "天马武道馆", "pyname": "tmwdg", "kind": "A709", "zipcode": null, "telephone": "15211181764", "display_x": "112.9468", "display_y": "28.16849", "side": "R", "address": "师大天马公寓食堂3楼" }, "geometry": { "type": "Point", "coordinates": [ 112.941342, 28.17198797 ] } },
{ "type": "Feature", "properties": { "gml_id": "layer_scientific_pt.250223", "Name": "心连心幼儿园", "pyname": "xlxyey", "kind": "A701", "zipcode": null, "telephone": "0731-84865688", "display_x": "112.92442", "display_y": "28.21628", "side": "L", "address": null }, "geometry": { "type": "Point", "coordinates": [ 112.9190004, 28.219811 ] } },
{ "type": "Feature", "properties": { "gml_id": "layer_scientific_pt.250405", "Name": "湖南大学", "pyname": "hndx", "kind": "A700", "zipcode": "410012", "telephone": "0731-88822745", "display_x": "112.94388", "display_y": "28.17951", "side": "R", "address": "麓山南路" }, "geometry": { "type": "Point", "coordinates": [ 112.93842816, 28.18301405 ] } },
{ "type": "Feature", "properties": { "gml_id": "layer_scientific_pt.250452", "Name": "教育部有色冶金自动化工程研究中心", "pyname": "jybysyjzdhgcyjzx", "kind": "A880", "zipcode": null, "telephone": null, "display_x": "112.93049", "display_y": "28.17054", "side": "R", "address": "升华路" }, "geometry": { "type": "Point", "coordinates": [ 112.92506748, 28.17406548 ] } },
{ "type": "Feature", "properties": { "gml_id": "layer_scientific_pt.250464", "Name": "中南大学南门", "pyname": "zndxnm", "kind": "A700", "zipcode": "410012", "telephone": "0731-88877110", "display_x": "112.9323", "display_y": "28.16405", "side": "N", "address": "麓山南路" }, "geometry": { "type": "Point", "coordinates": [ 112.9268736, 28.1675718 ] } },
{ "type": "Feature", "properties": { "gml_id": "layer_scientific_pt.250514", "Name": "岳麓幼儿教育集团第二幼儿园", "pyname": "ylyejyjtdeyey", "kind": "A701", "zipcode": null, "telephone": "0731-82350769", "display_x": "112.94955", "display_y": "28.21747", "side": "R", "address": "桐文巷36" }, "geometry": { "type": "Point", "coordinates": [ 112.94408502, 28.22096678 ] } },
{ "type": "Feature", "properties": { "gml_id": "layer_scientific_pt.250576", "Name": "湘财导博培训学校", "pyname": "xcdbpxxx", "kind": "A709", "zipcode": "410006", "telephone": "0731-88852116", "display_x": "112.95499", "display_y": "28.19215", "side": "L", "address": "爱民路67" }, "geometry": { "type": "Point", "coordinates": [ 112.94951202, 28.19563493 ] } },
{ "type": "Feature", "properties": { "gml_id": "layer_scientific_pt.250604", "Name": "东方国际教育交流中心湖南联络处", "pyname": "dfgjjyjlzxhnllc", "kind": "A709", "zipcode": "410006", "telephone": null, "display_x": "112.95416", "display_y": "28.19565", "side": "L", "address": "枫林一路19号通程麓山大酒店8层" }, "geometry": { "type": "Point", "coordinates": [ 112.94868348, 28.19913642 ] } },
{ "type": "Feature", "properties": { "gml_id": "layer_scientific_pt.250605", "Name": "湖南大学组合化学与新材料研究所", "pyname": "hndxzhhxyxclyjs", "kind": "A880", "zipcode": null, "telephone": null, "display_x": "112.94376", "display_y": "28.18077", "side": "L", "address": null }, "geometry": { "type": "Point", "coordinates": [ 112.93830846, 28.18427436 ] } },
{ "type": "Feature", "properties": { "gml_id": "layer_scientific_pt.250606", "Name": "长沙小飞侠音乐学校", "pyname": "csxfxyyxx", "kind": "A709", "zipcode": "410013", "telephone": "0731-85059708", "display_x": "112.95574", "display_y": "28.19976", "side": "L", "address": "银盆南路52－2" }, "geometry": { "type": "Point", "coordinates": [ 112.95025938, 28.20324362 ] } },
{ "type": "Feature", "properties": { "gml_id": "layer_scientific_pt.250636", "Name": "长沙市岳麓区滨江小学", "pyname": "cssylqbjxx", "kind": "A702", "zipcode": null, "telephone": null, "display_x": "112.95762", "display_y": "28.22152", "side": "R", "address": "湘岳北路" }, "geometry": { "type": "Point", "coordinates": [ 112.95213138, 28.22499837 ] } },
{ "type": "Feature", "properties": { "gml_id": "layer_scientific_pt.250637", "Name": "长雅优绩教育", "pyname": "cyyjjy", "kind": "A709", "zipcode": null, "telephone": "0731-85217490", "display_x": "112.92606", "display_y": "28.21858", "side": "L", "address": "高鑫麓城1栋1701" }, "geometry": { "type": "Point", "coordinates": [ 112.92063768, 28.2221091 ] } },
{ "type": "Feature", "properties": { "gml_id": "layer_scientific_pt.250638", "Name": "天之骄双语幼儿园", "pyname": "tzjsyyey", "kind": "A701", "zipcode": null, "telephone": "0731-83298081", "display_x": "112.93273", "display_y": "28.21496", "side": "L", "address": null }, "geometry": { "type": "Point", "coordinates": [ 112.92729804, 28.21848188 ] } },
{ "type": "Feature", "properties": { "gml_id": "layer_scientific_pt.250666", "Name": "湖南大学互联网信息服务研究中心", "pyname": "hndxhlwxxfwyjzx", "kind": "A880", "zipcode": null, "telephone": null, "display_x": "112.94321", "display_y": "28.17939", "side": "L", "address": null }, "geometry": { "type": "Point", "coordinates": [ 112.93775964, 28.18289516 ] } },
{ "type": "Feature", "properties": { "gml_id": "layer_scientific_pt.250667", "Name": "湖南大学工程力学实验中心", "pyname": "hndxgclxsyzx", "kind": "A880", "zipcode": null, "telephone": null, "display_x": "112.94238", "display_y": "28.18119", "side": "L", "address": null }, "geometry": { "type": "Point", "coordinates": [ 112.93693146, 28.18469673 ] } },
{ "type": "Feature", "properties": { "gml_id": "layer_scientific_pt.250668", "Name": "湖南大学先进通信技术湖南省高校重", "pyname": "hndxxjtxjshnsgxzdsys", "kind": "A880", "zipcode": null, "telephone": null, "display_x": "112.94653", "display_y": "28.17858", "side": "L", "address": null }, "geometry": { "type": "Point", "coordinates": [ 112.94107236, 28.18207949 ] } },
{ "type": "Feature", "properties": { "gml_id": "layer_scientific_pt.250744", "Name": "湖南大学幼儿园（北）", "pyname": "hndxyey(b)", "kind": "A701", "zipcode": null, "telephone": null, "display_x": "112.92904", "display_y": "28.19751", "side": "R", "address": "石佳冲路109湖南大学北校区" }, "geometry": { "type": "Point", "coordinates": [ 112.9236165, 28.20103727 ] } },
{ "type": "Feature", "properties": { "gml_id": "layer_scientific_pt.250845", "Name": "中国移动通信澧西指定专营店", "pyname": "zgydtxlxzdzyd", "kind": "A703", "zipcode": null, "telephone": null, "display_x": "112.94129", "display_y": "28.17772", "side": "L", "address": "登高路55" }, "geometry": { "type": "Point", "coordinates": [ 112.9358439, 28.18122818 ] } },
{ "type": "Feature", "properties": { "gml_id": "layer_scientific_pt.250853", "Name": "湖南艺术学校", "pyname": "hnysxx", "kind": "A709", "zipcode": "410013", "telephone": null, "display_x": "112.92235", "display_y": "28.21115", "side": "R", "address": "望岳南路086" }, "geometry": { "type": "Point", "coordinates": [ 112.91693436, 28.21468379 ] } },
{ "type": "Feature", "properties": { "gml_id": "layer_scientific_pt.250882", "Name": "聪伶幼儿园", "pyname": "clyey", "kind": "A701", "zipcode": null, "telephone": "0731-88860983", "display_x": "112.93868", "display_y": "28.19897", "side": "R", "address": "白云路108" }, "geometry": { "type": "Point", "coordinates": [ 112.93323876, 28.20248411 ] } },
{ "type": "Feature", "properties": { "gml_id": "layer_scientific_pt.250978", "Name": "承萌美术学校", "pyname": "cmmsxx", "kind": "A709", "zipcode": null, "telephone": null, "display_x": "112.92065", "display_y": "28.16083", "side": "R", "address": "含浦大道" }, "geometry": { "type": "Point", "coordinates": [ 112.91523732, 28.16436033 ] } },
{ "type": "Feature", "properties": { "gml_id": "layer_scientific_pt.251161", "Name": "湖南省数字卡通动画工程技术研究中", "pyname": "hnsszktdhgcjsyjzx", "kind": "A880", "zipcode": null, "telephone": null, "display_x": "112.94243", "display_y": "28.22487", "side": "R", "address": "岳麓大道湖南科技大厦22层" }, "geometry": { "type": "Point", "coordinates": [ 112.93698114, 28.22837976 ] } },
{ "type": "Feature", "properties": { "gml_id": "layer_scientific_pt.251321", "Name": "湘龙幼儿园", "pyname": "xlyey", "kind": "A701", "zipcode": null, "telephone": null, "display_x": "112.94013", "display_y": "28.15546", "side": "L", "address": "后湖小区27栋" }, "geometry": { "type": "Point", "coordinates": [ 112.93468722, 28.15896816 ] } },
{ "type": "Feature", "properties": { "gml_id": "layer_scientific_pt.251385", "Name": "国家超级计算长沙中心", "pyname": "gjcjjscszx", "kind": "A880", "zipcode": null, "telephone": null, "display_x": "112.94491", "display_y": "28.17256", "side": "L", "address": "麓山南路" }, "geometry": { "type": "Point", "coordinates": [ 112.93945596, 28.17606155 ] } },
{ "type": "Feature", "properties": { "gml_id": "layer_scientific_pt.251392", "Name": "湘雅艺术培训", "pyname": "xyyspx", "kind": "A709", "zipcode": "410013", "telephone": "15116288543", "display_x": "112.94246", "display_y": "28.21776", "side": "R", "address": "桐梓坡路159" }, "geometry": { "type": "Point", "coordinates": [ 112.93701138, 28.22126954 ] } },
{ "type": "Feature", "properties": { "gml_id": "layer_scientific_pt.251452", "Name": "中南大学", "pyname": "zndx", "kind": "A700", "zipcode": "410012", "telephone": "0731-88877110", "display_x": "112.93162", "display_y": "28.16799", "side": "R", "address": "麓山南路" }, "geometry": { "type": "Point", "coordinates": [ 112.926195, 28.17151335 ] } },
{ "type": "Feature", "properties": { "gml_id": "layer_scientific_pt.251506", "Name": "湖南省交通科技职业中专", "pyname": "hnsjtkjzyzz", "kind": "A708", "zipcode": null, "telephone": null, "display_x": "112.91627", "display_y": "28.21303", "side": "R", "address": "望新路334" }, "geometry": { "type": "Point", "coordinates": [ 112.91085954, 28.21656668 ] } },
{ "type": "Feature", "properties": { "gml_id": "layer_scientific_pt.251521", "Name": "小马乐途", "pyname": "xmlt", "kind": "A709", "zipcode": null, "telephone": null, "display_x": "112.93659", "display_y": "28.22082", "side": "L", "address": null }, "geometry": { "type": "Point", "coordinates": [ 112.93115094, 28.22433678 ] } },
{ "type": "Feature", "properties": { "gml_id": "layer_scientific_pt.251545", "Name": "湖南省研究生思想政治教育研究会", "pyname": "hnsyjssxzzjyyjh", "kind": "A880", "zipcode": null, "telephone": null, "display_x": "112.93124", "display_y": "28.17158", "side": "R", "address": "麓山南路中南大学" }, "geometry": { "type": "Point", "coordinates": [ 112.92581592, 28.17510435 ] } },
{ "type": "Feature", "properties": { "gml_id": "layer_scientific_pt.251547", "Name": "湖南大学教育科学研究院", "pyname": "hndxjykxyjy", "kind": "A880", "zipcode": null, "telephone": null, "display_x": "112.94787", "display_y": "28.17953", "side": "R", "address": "麓山南路湖南大学" }, "geometry": { "type": "Point", "coordinates": [ 112.9424094, 28.18302737 ] } },
{ "type": "Feature", "properties": { "gml_id": "layer_scientific_pt.251597", "Name": "多芬艺术学校", "pyname": "dfysxx", "kind": "A709", "zipcode": null, "telephone": null, "display_x": "112.92249", "display_y": "28.17492", "side": "R", "address": "西二环" }, "geometry": { "type": "Point", "coordinates": [ 112.91707476, 28.17845024 ] } },
{ "type": "Feature", "properties": { "gml_id": "layer_scientific_pt.251598", "Name": "中南大学南校区北门", "pyname": "zndxnxqbm", "kind": "A700", "zipcode": null, "telephone": null, "display_x": "112.9364", "display_y": "28.16492", "side": "N", "address": "麓山南路605" }, "geometry": { "type": "Point", "coordinates": [ 112.93096464, 28.16843499 ] } },
{ "type": "Feature", "properties": { "gml_id": "layer_scientific_pt.251621", "Name": "长沙矿山研究院幼儿园", "pyname": "csksyjyyey", "kind": "A701", "zipcode": null, "telephone": null, "display_x": "112.94205", "display_y": "28.16593", "side": "R", "address": null }, "geometry": { "type": "Point", "coordinates": [ 112.93660242, 28.16943566 ] } },
{ "type": "Feature", "properties": { "gml_id": "layer_scientific_pt.251652", "Name": "湖南大学慧鱼工程训练中心", "pyname": "hndxhygcxlzx", "kind": "A709", "zipcode": null, "telephone": null, "display_x": "112.94685", "display_y": "28.17802", "side": "R", "address": null }, "geometry": { "type": "Point", "coordinates": [ 112.94139168, 28.18151888 ] } },
{ "type": "Feature", "properties": { "gml_id": "layer_scientific_pt.251653", "Name": "湖南大学邓小平理论和三个代表重要", "pyname": "hndxdxpllhsgdbzysxyjzx", "kind": "A880", "zipcode": null, "telephone": null, "display_x": "112.94527", "display_y": "28.18184", "side": "L", "address": null }, "geometry": { "type": "Point", "coordinates": [ 112.93981506, 28.18534194 ] } },
{ "type": "Feature", "properties": { "gml_id": "layer_scientific_pt.251690", "Name": "童画工厂美术教育", "pyname": "thgcmsjy", "kind": "A709", "zipcode": null, "telephone": "0731-84146081", "display_x": "112.94598", "display_y": "28.21787", "side": "L", "address": "阳光城西座7层701室" }, "geometry": { "type": "Point", "coordinates": [ 112.94052318, 28.22137326 ] } },
{ "type": "Feature", "properties": { "gml_id": "layer_scientific_pt.251940", "Name": "中南大学超微结构与超快过程研究所", "pyname": "zndxcwjgyckgcyjs", "kind": "A880", "zipcode": null, "telephone": null, "display_x": "112.93763", "display_y": "28.16246", "side": "R", "address": null }, "geometry": { "type": "Point", "coordinates": [ 112.93219206, 28.16597268 ] } },
{ "type": "Feature", "properties": { "gml_id": "layer_scientific_pt.251981", "Name": "马思特培训学校", "pyname": "mstpxxx", "kind": "A709", "zipcode": "410006", "telephone": null, "display_x": "112.95394", "display_y": "28.19235", "side": "L", "address": "新民路52湘财证券大厦3层" }, "geometry": { "type": "Point", "coordinates": [ 112.94846424, 28.1958368 ] } },
{ "type": "Feature", "properties": { "gml_id": "layer_scientific_pt.252004", "Name": "湖南省中医药研究院北院", "pyname": "hnszyyyjyby", "kind": "A880", "zipcode": null, "telephone": null, "display_x": "112.94633", "display_y": "28.22116", "side": "R", "address": "岳华路" }, "geometry": { "type": "Point", "coordinates": [ 112.94087274, 28.22466299 ] } },
{ "type": "Feature", "properties": { "gml_id": "layer_scientific_pt.252045", "Name": "长沙市岳麓厨师学校", "pyname": "cssylcsxx", "kind": "A709", "zipcode": null, "telephone": "0731-88819768", "display_x": "112.91627", "display_y": "28.21303", "side": "R", "address": "望新路334" }, "geometry": { "type": "Point", "coordinates": [ 112.91085954, 28.21656668 ] } },
{ "type": "Feature", "properties": { "gml_id": "layer_scientific_pt.252136", "Name": "湖南商学院北门", "pyname": "hnsxybm", "kind": "A700", "zipcode": "410013", "telephone": null, "display_x": "112.92016", "display_y": "28.21887", "side": "N", "address": "桐梓坡路589" }, "geometry": { "type": "Point", "coordinates": [ 112.91474574, 28.22240462 ] } },
{ "type": "Feature", "properties": { "gml_id": "layer_scientific_pt.252262", "Name": "岳麓区少年宫神龙跆拳道馆", "pyname": "ylqsngsltqdg", "kind": "A709", "zipcode": null, "telephone": "0731-88803798", "display_x": "112.94", "display_y": "28.21835", "side": "L", "address": "桐梓坡路176" }, "geometry": { "type": "Point", "coordinates": [ 112.93455636, 28.2218634 ] } },
{ "type": "Feature", "properties": { "gml_id": "layer_scientific_pt.252301", "Name": "咸嘉湖中心小学", "pyname": "xjhzxxx", "kind": "A702", "zipcode": "410013", "telephone": null, "display_x": "112.93319", "display_y": "28.20958", "side": "R", "address": "咸嘉湖路535" }, "geometry": { "type": "Point", "coordinates": [ 112.92775866, 28.21310217 ] } },
{ "type": "Feature", "properties": { "gml_id": "layer_scientific_pt.252355", "Name": "湖南大学长沙春秋进修大学自学考试", "pyname": "hndxcscqjxdxzxkszxz", "kind": "A709", "zipcode": null, "telephone": null, "display_x": "112.93164", "display_y": "28.19648", "side": "R", "address": "校区路" }, "geometry": { "type": "Point", "coordinates": [ 112.92621372, 28.20000551 ] } },
{ "type": "Feature", "properties": { "gml_id": "layer_scientific_pt.252362", "Name": "湖南新文卓教育培训中心", "pyname": "hnxwzjypxzx", "kind": "A709", "zipcode": null, "telephone": "0731-88872648", "display_x": "112.95102", "display_y": "28.184", "side": "R", "address": "桃子湖路56" }, "geometry": { "type": "Point", "coordinates": [ 112.94555202, 28.187492 ] } },
{ "type": "Feature", "properties": { "gml_id": "layer_scientific_pt.252525", "Name": "科培学校", "pyname": "kpxx", "kind": "A709", "zipcode": null, "telephone": "0731-84512001", "display_x": "112.95488", "display_y": "28.19144", "side": "L", "address": "爱民路71" }, "geometry": { "type": "Point", "coordinates": [ 112.94940222, 28.19492514 ] } },
{ "type": "Feature", "properties": { "gml_id": "layer_scientific_pt.252526", "Name": "岳麓区梯优特培训学校", "pyname": "ylqtytpxxx", "kind": "A709", "zipcode": null, "telephone": null, "display_x": "112.95594", "display_y": "28.21608", "side": "L", "address": "银盆南路319－6号长平大厦3层" }, "geometry": { "type": "Point", "coordinates": [ 112.95045918, 28.21956449 ] } },
{ "type": "Feature", "properties": { "gml_id": "layer_scientific_pt.252572", "Name": "湖南行政学院", "pyname": "hnxzxy", "kind": "A700", "zipcode": "410006", "telephone": "0731-82780015", "display_x": "112.93442", "display_y": "28.19575", "side": "R", "address": "白云路386号" }, "geometry": { "type": "Point", "coordinates": [ 112.92898842, 28.19927147 ] } },
{ "type": "Feature", "properties": { "gml_id": "layer_scientific_pt.252594", "Name": "岳麓区天马幼儿园", "pyname": "ylqtmyey", "kind": "A701", "zipcode": null, "telephone": "0731-88625066", "display_x": "112.95059", "display_y": "28.15947", "side": "L", "address": null }, "geometry": { "type": "Point", "coordinates": [ 112.9451247, 28.16296142 ] } },
{ "type": "Feature", "properties": { "gml_id": "layer_scientific_pt.252718", "Name": "中国湖南省委党校（东区）", "pyname": "zghnswdx(dq)", "kind": "A700", "zipcode": null, "telephone": null, "display_x": "112.93743", "display_y": "28.1937", "side": "L", "address": "白云路99" }, "geometry": { "type": "Point", "coordinates": [ 112.9319919, 28.19721609 ] } },
{ "type": "Feature", "properties": { "gml_id": "layer_scientific_pt.252796", "Name": "湖南大学视觉控制技术与应用教育部", "pyname": "hndxsjkzjsyyyjybgcyjzx", "kind": "A880", "zipcode": null, "telephone": null, "display_x": "112.94535", "display_y": "28.18139", "side": "R", "address": "麓山南路湖南大学" }, "geometry": { "type": "Point", "coordinates": [ 112.93989498, 28.18489176 ] } },
{ "type": "Feature", "properties": { "gml_id": "layer_scientific_pt.252797", "Name": "湖南大学教育部输变电新技术工程研", "pyname": "hndxjybsbdxjsgcyjzx", "kind": "A880", "zipcode": null, "telephone": null, "display_x": "112.94535", "display_y": "28.18139", "side": "R", "address": "麓山南路湖南大学" }, "geometry": { "type": "Point", "coordinates": [ 112.93989498, 28.18489176 ] } },
{ "type": "Feature", "properties": { "gml_id": "layer_scientific_pt.252816", "Name": "岳麓区山竹艺术培训学校", "pyname": "ylqszyspxxx", "kind": "A709", "zipcode": null, "telephone": null, "display_x": "112.92159", "display_y": "28.16905", "side": "R", "address": "西二环" }, "geometry": { "type": "Point", "coordinates": [ 112.9161762, 28.17258066 ] } },
{ "type": "Feature", "properties": { "gml_id": "layer_scientific_pt.253015", "Name": "中南大学粉末冶金研究院", "pyname": "zndxfmyjyjy", "kind": "A880", "zipcode": null, "telephone": null, "display_x": "112.92427", "display_y": "28.1703", "side": "L", "address": null }, "geometry": { "type": "Point", "coordinates": [ 112.91885352, 28.17382914 ] } },
{ "type": "Feature", "properties": { "gml_id": "layer_scientific_pt.253081", "Name": "金属矿山安全技术国家重点实验室", "pyname": "jsksaqjsgjzdsys", "kind": "A880", "zipcode": "410012", "telephone": null, "display_x": "112.94266", "display_y": "28.16749", "side": "L", "address": "麓山南路343" }, "geometry": { "type": "Point", "coordinates": [ 112.937211, 28.17099482 ] } },
{ "type": "Feature", "properties": { "gml_id": "layer_scientific_pt.253082", "Name": "韦博国际英语长沙河西英语培训学校", "pyname": "wbgjyycshxyypxxx", "kind": "A709", "zipcode": null, "telephone": null, "display_x": "112.9402", "display_y": "28.16653", "side": "L", "address": "麓山南路588号南麓大厦2层" }, "geometry": { "type": "Point", "coordinates": [ 112.93475634, 28.17003884 ] } },
{ "type": "Feature", "properties": { "gml_id": "layer_scientific_pt.253196", "Name": "阿里巴巴淘宝网长沙网商辅导中心", "pyname": "albbtbwcswsfdzx", "kind": "A709", "zipcode": null, "telephone": null, "display_x": "112.95555", "display_y": "28.2149", "side": "L", "address": "麓源路" }, "geometry": { "type": "Point", "coordinates": [ 112.95007092, 28.21838576 ] } },
{ "type": "Feature", "properties": { "gml_id": "layer_scientific_pt.253197", "Name": "爱贝国际少儿英语", "pyname": "abgjseyy", "kind": "A709", "zipcode": null, "telephone": "0731-82694558", "display_x": "112.93529", "display_y": "28.2196", "side": "L", "address": "湘腾城市广场3栋9层" }, "geometry": { "type": "Point", "coordinates": [ 112.92985314, 28.22311836 ] } },
{ "type": "Feature", "properties": { "gml_id": "layer_scientific_pt.253198", "Name": "中德环境技术中心（湖南）", "pyname": "zdhjjszx(hn)", "kind": "A880", "zipcode": null, "telephone": null, "display_x": "112.94384", "display_y": "28.1782", "side": "L", "address": "麓山南路8" }, "geometry": { "type": "Point", "coordinates": [ 112.93838838, 28.18170396 ] } },
{ "type": "Feature", "properties": { "gml_id": "layer_scientific_pt.253202", "Name": "妙其童画创意馆", "pyname": "mqthcyg", "kind": "A709", "zipcode": null, "telephone": "0731-88575617", "display_x": "112.93587", "display_y": "28.22046", "side": "L", "address": "金星中路郡原广场2－102门面2楼" }, "geometry": { "type": "Point", "coordinates": [ 112.93043202, 28.22397759 ] } },
{ "type": "Feature", "properties": { "gml_id": "layer_scientific_pt.253203", "Name": "LINA纤腰舞馆", "pyname": "lxywg", "kind": "A709", "zipcode": null, "telephone": null, "display_x": "112.94578", "display_y": "28.21808", "side": "L", "address": "桐梓坡路59" }, "geometry": { "type": "Point", "coordinates": [ 112.94032374, 28.22158364 ] } },
{ "type": "Feature", "properties": { "gml_id": "layer_scientific_pt.253382", "Name": "思齐培训学校", "pyname": "sqpxxx", "kind": "A709", "zipcode": null, "telephone": null, "display_x": "112.95679", "display_y": "28.2143", "side": "L", "address": "银盆南路305－1号金荣科技园B座6层" }, "geometry": { "type": "Point", "coordinates": [ 112.95130716, 28.2177828 ] } },
{ "type": "Feature", "properties": { "gml_id": "layer_scientific_pt.253393", "Name": "星辰舞蹈艺术培训中心", "pyname": "xcwdyspxzx", "kind": "A709", "zipcode": null, "telephone": "15874086211", "display_x": "112.95097", "display_y": "28.19555", "side": "R", "address": "麓山路12" }, "geometry": { "type": "Point", "coordinates": [ 112.94550072, 28.19904206 ] } },
{ "type": "Feature", "properties": { "gml_id": "layer_scientific_pt.253394", "Name": "中南大学湘雅医学院北门", "pyname": "zndxxyyxybm", "kind": "A700", "zipcode": null, "telephone": null, "display_x": "112.94302", "display_y": "28.22199", "side": "L", "address": "银双路169" }, "geometry": { "type": "Point", "coordinates": [ 112.93757046, 28.22549904 ] } },
{ "type": "Feature", "properties": { "gml_id": "layer_scientific_pt.253428", "Name": "先进电池材料教育部工程研究中心", "pyname": "xjdccljybgcyjzx", "kind": "A880", "zipcode": null, "telephone": null, "display_x": "112.92971", "display_y": "28.16904", "side": "L", "address": null }, "geometry": { "type": "Point", "coordinates": [ 112.92428844, 28.17256595 ] } },
{ "type": "Feature", "properties": { "gml_id": "layer_scientific_pt.253464", "Name": "英高特国际教育", "pyname": "ygtgjjy", "kind": "A709", "zipcode": "410013", "telephone": null, "display_x": "112.95639", "display_y": "28.20077", "side": "L", "address": "银盆南路72" }, "geometry": { "type": "Point", "coordinates": [ 112.95090792, 28.20425256 ] } },
{ "type": "Feature", "properties": { "gml_id": "layer_scientific_pt.253534", "Name": "湖南公共关系进修学院社会教育培训", "pyname": "hngggxjxxyshjypxjd", "kind": "A709", "zipcode": null, "telephone": null, "display_x": "112.94739", "display_y": "28.18237", "side": "L", "address": "麓山路303" }, "geometry": { "type": "Point", "coordinates": [ 112.94193042, 28.18586844 ] } },
{ "type": "Feature", "properties": { "gml_id": "layer_scientific_pt.253535", "Name": "湖南大学老年大学", "pyname": "hndxlndx", "kind": "A709", "zipcode": null, "telephone": null, "display_x": "112.94185", "display_y": "28.17778", "side": "L", "address": "登高路" }, "geometry": { "type": "Point", "coordinates": [ 112.93640262, 28.18128726 ] } },
{ "type": "Feature", "properties": { "gml_id": "layer_scientific_pt.253642", "Name": "长沙市岳麓区新民小学", "pyname": "cssylqxmxx", "kind": "A702", "zipcode": null, "telephone": null, "display_x": "112.95285", "display_y": "28.19312", "side": "L", "address": "周家巷23" }, "geometry": { "type": "Point", "coordinates": [ 112.94737668, 28.19660873 ] } },
{ "type": "Feature", "properties": { "gml_id": "layer_scientific_pt.253685", "Name": "湖南大学池田大作研究中心", "pyname": "hndxctdzyjzx", "kind": "A880", "zipcode": null, "telephone": null, "display_x": "112.94527", "display_y": "28.18184", "side": "L", "address": null }, "geometry": { "type": "Point", "coordinates": [ 112.93981506, 28.18534194 ] } },
{ "type": "Feature", "properties": { "gml_id": "layer_scientific_pt.253700", "Name": "湖南行政学院（东区）－北门", "pyname": "hnxzxy(dq)-bm", "kind": "A700", "zipcode": null, "telephone": null, "display_x": "112.93838", "display_y": "28.19714", "side": "N", "address": null }, "geometry": { "type": "Point", "coordinates": [ 112.93293924, 28.20065441 ] } },
{ "type": "Feature", "properties": { "gml_id": "layer_scientific_pt.253701", "Name": "中南大学－有色金属先进结构材料与", "pyname": "zndx-ysjsxjjgclyzzxtcxz", "kind": "A880", "zipcode": null, "telephone": null, "display_x": "112.92939", "display_y": "28.16786", "side": "R", "address": null }, "geometry": { "type": "Point", "coordinates": [ 112.92396894, 28.17138614 ] } },
{ "type": "Feature", "properties": { "gml_id": "layer_scientific_pt.253702", "Name": "湖南师范大学湖南文化资源开发研究", "pyname": "hnsfdxhnwhzykfyjzx", "kind": "A880", "zipcode": null, "telephone": null, "display_x": "112.94765", "display_y": "28.18848", "side": "L", "address": null }, "geometry": { "type": "Point", "coordinates": [ 112.94218908, 28.191978 ] } },
{ "type": "Feature", "properties": { "gml_id": "layer_scientific_pt.253703", "Name": "麓山钢琴艺术教室", "pyname": "lsgqysjs", "kind": "A709", "zipcode": null, "telephone": "0731-82098109", "display_x": "112.95261", "display_y": "28.20248", "side": "R", "address": "杜家塘路" }, "geometry": { "type": "Point", "coordinates": [ 112.94713674, 28.20596954 ] } },
{ "type": "Feature", "properties": { "gml_id": "layer_scientific_pt.253707", "Name": "湖南师范大学音乐学院", "pyname": "hnsfdxyyxy", "kind": "A700", "zipcode": "410012", "telephone": "0731-88631859", "display_x": "112.9389", "display_y": "28.16611", "side": "L", "address": "麓山南路638" }, "geometry": { "type": "Point", "coordinates": [ 112.93345926, 28.16962097 ] } },
{ "type": "Feature", "properties": { "gml_id": "layer_scientific_pt.253762", "Name": "3Q幼儿园", "pyname": "3qyey", "kind": "A701", "zipcode": null, "telephone": null, "display_x": "112.92035", "display_y": "28.16705", "side": "L", "address": null }, "geometry": { "type": "Point", "coordinates": [ 112.91493762, 28.17058118 ] } },
{ "type": "Feature", "properties": { "gml_id": "layer_scientific_pt.253776", "Name": "长沙市第十九中学", "pyname": "cssdsjzx", "kind": "A703", "zipcode": "410012", "telephone": null, "display_x": "112.9414", "display_y": "28.16704", "side": "L", "address": "麓山南路554" }, "geometry": { "type": "Point", "coordinates": [ 112.9359537, 28.17054684 ] } },
{ "type": "Feature", "properties": { "gml_id": "layer_scientific_pt.253842", "Name": "岳麓区湘麓培训学校", "pyname": "ylqxlpxxx", "kind": "A709", "zipcode": null, "telephone": null, "display_x": "112.95694", "display_y": "28.21355", "side": "R", "address": "景秀路1" }, "geometry": { "type": "Point", "coordinates": [ 112.9514571, 28.21703261 ] } },
{ "type": "Feature", "properties": { "gml_id": "layer_scientific_pt.253843", "Name": "拓维教育", "pyname": "twjy", "kind": "A709", "zipcode": null, "telephone": null, "display_x": "112.95667", "display_y": "28.21453", "side": "L", "address": "银盆南路307" }, "geometry": { "type": "Point", "coordinates": [ 112.95118746, 28.21801302 ] } },
{ "type": "Feature", "properties": { "gml_id": "layer_scientific_pt.253844", "Name": "长沙市岳麓区思齐培训学校", "pyname": "cssylqsqpxxx", "kind": "A709", "zipcode": null, "telephone": "0731-85114747", "display_x": "112.9565", "display_y": "28.21488", "side": "L", "address": "银盆南路317－1" }, "geometry": { "type": "Point", "coordinates": [ 112.9510179, 28.21836339 ] } },
{ "type": "Feature", "properties": { "gml_id": "layer_scientific_pt.253914", "Name": "新概念国际（中国）行为心理研究所", "pyname": "xgngj(zg)hwxlyjs(fsfy)", "kind": "A880", "zipcode": null, "telephone": null, "display_x": "112.94598", "display_y": "28.21787", "side": "L", "address": "阳光城西座25层" }, "geometry": { "type": "Point", "coordinates": [ 112.94052318, 28.22137326 ] } },
{ "type": "Feature", "properties": { "gml_id": "layer_scientific_pt.253969", "Name": "长沙飞迅教育集团", "pyname": "csfxjyjt", "kind": "A709", "zipcode": null, "telephone": "0731-88397666", "display_x": "112.91627", "display_y": "28.21303", "side": "R", "address": "望新路334" }, "geometry": { "type": "Point", "coordinates": [ 112.91085954, 28.21656668 ] } },
{ "type": "Feature", "properties": { "gml_id": "layer_scientific_pt.253970", "Name": "智阳教育", "pyname": "zyjy", "kind": "A709", "zipcode": null, "telephone": "0731-82496869", "display_x": "112.95286", "display_y": "28.2228", "side": "R", "address": "彩虹路" }, "geometry": { "type": "Point", "coordinates": [ 112.94738658, 28.22629055 ] } },
{ "type": "Feature", "properties": { "gml_id": "layer_scientific_pt.253985", "Name": "新航道学校河西校区", "pyname": "xhdxxhxxq", "kind": "A709", "zipcode": null, "telephone": "0731-82782800", "display_x": "112.94724", "display_y": "28.1662", "side": "L", "address": "阜埠河路157" }, "geometry": { "type": "Point", "coordinates": [ 112.94178102, 28.16969697 ] } },
{ "type": "Feature", "properties": { "gml_id": "layer_scientific_pt.254073", "Name": "湖南大学－中加能源环境生态中心", "pyname": "hndx-zjnyhjstzx", "kind": "A880", "zipcode": null, "telephone": null, "display_x": "112.94384", "display_y": "28.1782", "side": "R", "address": "麓山南路8" }, "geometry": { "type": "Point", "coordinates": [ 112.93838838, 28.18170396 ] } },
{ "type": "Feature", "properties": { "gml_id": "layer_scientific_pt.254158", "Name": "贝特学科英语多思动漫数学", "pyname": "btxkyydsdmsx", "kind": "A709", "zipcode": null, "telephone": "0731-84286545", "display_x": "112.94624", "display_y": "28.21787", "side": "L", "address": "阳光城东座23层2309室" }, "geometry": { "type": "Point", "coordinates": [ 112.94078256, 28.22137277 ] } },
{ "type": "Feature", "properties": { "gml_id": "layer_scientific_pt.254160", "Name": "中国特色社会主义道德文化协同创新", "pyname": "zgtsshzyddwhxtcxzx", "kind": "A880", "zipcode": null, "telephone": null, "display_x": "112.94675", "display_y": "28.1896", "side": "L", "address": null }, "geometry": { "type": "Point", "coordinates": [ 112.94129106, 28.19309958 ] } },
{ "type": "Feature", "properties": { "gml_id": "layer_scientific_pt.254163", "Name": "湖南师范大学法语区研究中心", "pyname": "hnsfdxfyqyjzx", "kind": "A880", "zipcode": null, "telephone": null, "display_x": "112.94765", "display_y": "28.18848", "side": "L", "address": null }, "geometry": { "type": "Point", "coordinates": [ 112.94218908, 28.191978 ] } },
{ "type": "Feature", "properties": { "gml_id": "layer_scientific_pt.254172", "Name": "中南大学知识产权研究院", "pyname": "zndxzscqyjy", "kind": "A880", "zipcode": null, "telephone": null, "display_x": "112.93695", "display_y": "28.16109", "side": "L", "address": null }, "geometry": { "type": "Point", "coordinates": [ 112.93151346, 28.16460369 ] } },
{ "type": "Feature", "properties": { "gml_id": "layer_scientific_pt.254235", "Name": "湖南工商培训中心", "pyname": "hngspxzx", "kind": "7480", "zipcode": null, "telephone": null, "display_x": "112.95506", "display_y": "28.19551", "side": "R", "address": "枫林一路9" }, "geometry": { "type": "Point", "coordinates": [ 112.94958132, 28.19899481 ] } },
{ "type": "Feature", "properties": { "gml_id": "layer_scientific_pt.254236", "Name": "湖南师大伦理学研究所", "pyname": "hnsdllxyjs", "kind": "A880", "zipcode": null, "telephone": null, "display_x": "112.94675", "display_y": "28.1896", "side": "L", "address": "麓山路36号湖南师范大学" }, "geometry": { "type": "Point", "coordinates": [ 112.94129106, 28.19309958 ] } },
{ "type": "Feature", "properties": { "gml_id": "layer_scientific_pt.254237", "Name": "湖南大学工业与应用数学实验室", "pyname": "hndxgyyyysxsys", "kind": "A880", "zipcode": null, "telephone": null, "display_x": "112.94273", "display_y": "28.18072", "side": "R", "address": "麓山南路湖南大学" }, "geometry": { "type": "Point", "coordinates": [ 112.93728066, 28.18422608 ] } },
{ "type": "Feature", "properties": { "gml_id": "layer_scientific_pt.254238", "Name": "湖南大学嵌入式系统与网络实验室", "pyname": "hndxqrsxtywlsys", "kind": "A880", "zipcode": null, "telephone": null, "display_x": "112.94273", "display_y": "28.18072", "side": "R", "address": "麓山南路湖南大学" }, "geometry": { "type": "Point", "coordinates": [ 112.93728066, 28.18422608 ] } },
{ "type": "Feature", "properties": { "gml_id": "layer_scientific_pt.254239", "Name": "湖南大学－英特尔多核技术实验室", "pyname": "hndx-ytedhjssys", "kind": "A880", "zipcode": null, "telephone": null, "display_x": "112.94273", "display_y": "28.18072", "side": "R", "address": "麓山南路湖南大学" }, "geometry": { "type": "Point", "coordinates": [ 112.93728066, 28.18422608 ] } },
{ "type": "Feature", "properties": { "gml_id": "layer_scientific_pt.254259", "Name": "中大驾校", "pyname": "zdjx", "kind": "A706", "zipcode": null, "telephone": "0731-84871588", "display_x": "112.94361", "display_y": "28.15371", "side": "R", "address": null }, "geometry": { "type": "Point", "coordinates": [ 112.93816032, 28.15721271 ] } },
{ "type": "Feature", "properties": { "gml_id": "layer_scientific_pt.254321", "Name": "湖南艺术职业学校少儿培训中心", "pyname": "hnyszyxxsepxzx", "kind": "A709", "zipcode": null, "telephone": "0731-88882155", "display_x": "112.93718", "display_y": "28.16652", "side": "L", "address": null }, "geometry": { "type": "Point", "coordinates": [ 112.93174296, 28.17003389 ] } },
{ "type": "Feature", "properties": { "gml_id": "layer_scientific_pt.254338", "Name": "岳麓区金太阳艺术幼儿园", "pyname": "ylqjtyysyey", "kind": "A701", "zipcode": null, "telephone": "13507416780", "display_x": "112.94751", "display_y": "28.22267", "side": "R", "address": "银双路" }, "geometry": { "type": "Point", "coordinates": [ 112.94205012, 28.22617107 ] } },
{ "type": "Feature", "properties": { "gml_id": "layer_scientific_pt.254351", "Name": "七度爵士鼓培训中心", "pyname": "qdjsgpxzx", "kind": "A709", "zipcode": null, "telephone": "18684805710", "display_x": "112.95136", "display_y": "28.16399", "side": "R", "address": null }, "geometry": { "type": "Point", "coordinates": [ 112.94589222, 28.16748005 ] } },
{ "type": "Feature", "properties": { "gml_id": "layer_scientific_pt.254376", "Name": "金和幼儿园", "pyname": "jhyey", "kind": "A701", "zipcode": null, "telephone": null, "display_x": "112.93451", "display_y": "28.16307", "side": "R", "address": null }, "geometry": { "type": "Point", "coordinates": [ 112.92907878, 28.16658797 ] } },
{ "type": "Feature", "properties": { "gml_id": "layer_scientific_pt.254398", "Name": "香港服装学院", "pyname": "xgfzxy", "kind": "A709", "zipcode": null, "telephone": "0731-88882898", "display_x": "112.93586", "display_y": "28.16459", "side": "R", "address": "麓山美庐7楼" }, "geometry": { "type": "Point", "coordinates": [ 112.9304259, 28.16810586 ] } },
{ "type": "Feature", "properties": { "gml_id": "layer_scientific_pt.254411", "Name": "湖南省司法鉴定人培训中心", "pyname": "hnssfjdrpxzx", "kind": "7480", "zipcode": null, "telephone": null, "display_x": "112.9428", "display_y": "28.22142", "side": "L", "address": null }, "geometry": { "type": "Point", "coordinates": [ 112.93735086, 28.22492934 ] } },
{ "type": "Feature", "properties": { "gml_id": "layer_scientific_pt.254498", "Name": "耳树琴行", "pyname": "esqh", "kind": "A709", "zipcode": null, "telephone": "13973193944", "display_x": "112.93797", "display_y": "28.16583", "side": "L", "address": "麓山南路658" }, "geometry": { "type": "Point", "coordinates": [ 112.93253118, 28.16934246 ] } },
{ "type": "Feature", "properties": { "gml_id": "layer_scientific_pt.254545", "Name": "湖南财政经济学院会计系工商管理系", "pyname": "hnczjjxykjxgsglxqrzzkzx", "kind": "A709", "zipcode": null, "telephone": null, "display_x": "112.93164", "display_y": "28.19648", "side": "R", "address": "校区路" }, "geometry": { "type": "Point", "coordinates": [ 112.92621372, 28.20000551 ] } },
{ "type": "Feature", "properties": { "gml_id": "layer_scientific_pt.254574", "Name": "微力量艺术培训学校", "pyname": "wllyspxxx", "kind": "A709", "zipcode": null, "telephone": "0731-88829139", "display_x": "112.92268", "display_y": "28.17001", "side": "R", "address": "中南大学主校区西大门" }, "geometry": { "type": "Point", "coordinates": [ 112.9172652, 28.17354002 ] } },
{ "type": "Feature", "properties": { "gml_id": "layer_scientific_pt.254673", "Name": "金星幼儿园", "pyname": "jxyey", "kind": "A701", "zipcode": null, "telephone": "0731-82306908", "display_x": "112.92219", "display_y": "28.22357", "side": "R", "address": null }, "geometry": { "type": "Point", "coordinates": [ 112.91677362, 28.22710334 ] } },
{ "type": "Feature", "properties": { "gml_id": "layer_scientific_pt.254686", "Name": "长沙非凡培训学校", "pyname": "csffpxxx", "kind": "A709", "zipcode": null, "telephone": "0731-88821529", "display_x": "112.94872", "display_y": "28.16647", "side": "R", "address": null }, "geometry": { "type": "Point", "coordinates": [ 112.94325774, 28.16996454 ] } },
{ "type": "Feature", "properties": { "gml_id": "layer_scientific_pt.254749", "Name": "中国科学院湖南技术转移中心", "pyname": "zgkxyhnjszyzx", "kind": "A880", "zipcode": null, "telephone": null, "display_x": "112.94243", "display_y": "28.22487", "side": "R", "address": "岳麓大道233湖南科技大厦21层" }, "geometry": { "type": "Point", "coordinates": [ 112.93698114, 28.22837976 ] } },
{ "type": "Feature", "properties": { "gml_id": "layer_scientific_pt.254959", "Name": "乐成艺术培训学校", "pyname": "lcyspxxx", "kind": "A709", "zipcode": null, "telephone": null, "display_x": "112.92363", "display_y": "28.17536", "side": "L", "address": null }, "geometry": { "type": "Point", "coordinates": [ 112.91821362, 28.17888962 ] } },
{ "type": "Feature", "properties": { "gml_id": "layer_scientific_pt.254973", "Name": "萌达·蒙特梭利早教学校", "pyname": "mdmtslzjxx", "kind": "A709", "zipcode": null, "telephone": "0731-84462299", "display_x": "112.93665", "display_y": "28.22248", "side": "L", "address": "金星中路528号（市质监局左侧）" }, "geometry": { "type": "Point", "coordinates": [ 112.93121034, 28.22599647 ] } },
{ "type": "Feature", "properties": { "gml_id": "layer_scientific_pt.255026", "Name": "湖南大学－湘潭电机集团联合研发中", "pyname": "hndx-xtdjjtlhyfzx", "kind": "A880", "zipcode": null, "telephone": null, "display_x": "112.94535", "display_y": "28.18139", "side": "R", "address": null }, "geometry": { "type": "Point", "coordinates": [ 112.93989498, 28.18489176 ] } },
{ "type": "Feature", "properties": { "gml_id": "layer_scientific_pt.255027", "Name": "长沙市岳麓区学道培训学校", "pyname": "cssylqxdpxxx", "kind": "A709", "zipcode": null, "telephone": null, "display_x": "112.95694", "display_y": "28.21355", "side": "R", "address": "景秀路1" }, "geometry": { "type": "Point", "coordinates": [ 112.9514571, 28.21703261 ] } },
{ "type": "Feature", "properties": { "gml_id": "layer_scientific_pt.255059", "Name": "红缨金桥幼儿园", "pyname": "hyjqyey", "kind": "A701", "zipcode": null, "telephone": "0731-83579696", "display_x": "112.91598", "display_y": "28.21082", "side": "L", "address": "枫林二路542" }, "geometry": { "type": "Point", "coordinates": [ 112.91056992, 28.21435682 ] } },
{ "type": "Feature", "properties": { "gml_id": "layer_scientific_pt.255123", "Name": "湖南大学国际问题研究所", "pyname": "hndxgjwtyjs", "kind": "A880", "zipcode": null, "telephone": null, "display_x": "112.94527", "display_y": "28.18184", "side": "L", "address": null }, "geometry": { "type": "Point", "coordinates": [ 112.93981506, 28.18534194 ] } },
{ "type": "Feature", "properties": { "gml_id": "layer_scientific_pt.255124", "Name": "湖南大学公务员教育培训中心", "pyname": "hndxgwyjypxzx", "kind": "A709", "zipcode": null, "telephone": null, "display_x": "112.94527", "display_y": "28.18184", "side": "L", "address": null }, "geometry": { "type": "Point", "coordinates": [ 112.93981506, 28.18534194 ] } },
{ "type": "Feature", "properties": { "gml_id": "layer_scientific_pt.255125", "Name": "湖南大学电工电子基础实验中心", "pyname": "hndxdgdzjcsyzx", "kind": "A880", "zipcode": null, "telephone": null, "display_x": "112.94535", "display_y": "28.18139", "side": "R", "address": null }, "geometry": { "type": "Point", "coordinates": [ 112.93989498, 28.18489176 ] } },
{ "type": "Feature", "properties": { "gml_id": "layer_scientific_pt.255139", "Name": "六艺舞坊艺术会所", "pyname": "lywfyshs", "kind": "A709", "zipcode": null, "telephone": "0731-83593312", "display_x": "112.93211", "display_y": "28.21803", "side": "L", "address": "桐梓坡路白鸽咀车站旁（毗邻光大银" }, "geometry": { "type": "Point", "coordinates": [ 112.92667812, 28.22155209 ] } },
{ "type": "Feature", "properties": { "gml_id": "layer_scientific_pt.255142", "Name": "湖南大学材料科学与工程学院炭素材", "pyname": "hndxclkxygcxytsclsys", "kind": "A880", "zipcode": null, "telephone": null, "display_x": "112.94866", "display_y": "28.17848", "side": "R", "address": null }, "geometry": { "type": "Point", "coordinates": [ 112.9431978, 28.1819759 ] } },
{ "type": "Feature", "properties": { "gml_id": "layer_scientific_pt.255144", "Name": "湖南师范大学化学生物学与中药分析", "pyname": "hnsfdxhxswxyzyfxjybzdsy", "kind": "A880", "zipcode": null, "telephone": null, "display_x": "112.9484", "display_y": "28.18768", "side": "R", "address": "麓山路" }, "geometry": { "type": "Point", "coordinates": [ 112.94293752, 28.19117664 ] } },
{ "type": "Feature", "properties": { "gml_id": "layer_scientific_pt.255188", "Name": "岳麓区云麓培训学校", "pyname": "ylqylpxxx", "kind": "A709", "zipcode": null, "telephone": "0731-88881866", "display_x": "112.95102", "display_y": "28.184", "side": "R", "address": "桃子湖路56" }, "geometry": { "type": "Point", "coordinates": [ 112.94555202, 28.187492 ] } },
{ "type": "Feature", "properties": { "gml_id": "layer_scientific_pt.255189", "Name": "湖南财政经济学院－会计实验中心", "pyname": "hnczjjxy-kjsyzx", "kind": "A880", "zipcode": null, "telephone": null, "display_x": "112.9246", "display_y": "28.20459", "side": "L", "address": "财智路" }, "geometry": { "type": "Point", "coordinates": [ 112.91918166, 28.20812135 ] } },
{ "type": "Feature", "properties": { "gml_id": "layer_scientific_pt.255226", "Name": "长沙市体操学校岳麓分校", "pyname": "csstcxxylfx", "kind": "A709", "zipcode": null, "telephone": null, "display_x": "112.95624", "display_y": "28.20732", "side": "L", "address": "月宫街309" }, "geometry": { "type": "Point", "coordinates": [ 112.9507587, 28.21080362 ] } },
{ "type": "Feature", "properties": { "gml_id": "layer_scientific_pt.255227", "Name": "领动机器人科教中心河西校区", "pyname": "ldjqrkjzxhxxq", "kind": "A709", "zipcode": null, "telephone": "0731-84127005", "display_x": "112.9366", "display_y": "28.2207", "side": "L", "address": "金星大道郡原广场3栋107门店" }, "geometry": { "type": "Point", "coordinates": [ 112.93116084, 28.22421677 ] } },
{ "type": "Feature", "properties": { "gml_id": "layer_scientific_pt.255286", "Name": "两型社会改革建设协同创新中心", "pyname": "lxshggjsxtcxzx", "kind": "A880", "zipcode": null, "telephone": null, "display_x": "112.93026", "display_y": "28.16795", "side": "R", "address": null }, "geometry": { "type": "Point", "coordinates": [ 112.92483798, 28.1714756 ] } },
{ "type": "Feature", "properties": { "gml_id": "layer_scientific_pt.255287", "Name": "湖南经济问题研究中心", "pyname": "hnjjwtyjzx", "kind": "A880", "zipcode": null, "telephone": null, "display_x": "112.93026", "display_y": "28.16795", "side": "R", "address": null }, "geometry": { "type": "Point", "coordinates": [ 112.92483798, 28.1714756 ] } },
{ "type": "Feature", "properties": { "gml_id": "layer_scientific_pt.255349", "Name": "十字医院", "pyname": "szyy", "kind": "A709", "zipcode": null, "telephone": null, "display_x": "112.91914", "display_y": "28.21953", "side": "L", "address": "十字乡" }, "geometry": { "type": "Point", "coordinates": [ 112.9137264, 28.2230649 ] } },
{ "type": "Feature", "properties": { "gml_id": "layer_scientific_pt.255360", "Name": "智博美术学校", "pyname": "zbmsxx", "kind": "A709", "zipcode": null, "telephone": null, "display_x": "112.92299", "display_y": "28.16305", "side": "R", "address": null }, "geometry": { "type": "Point", "coordinates": [ 112.91757552, 28.16657969 ] } },
{ "type": "Feature", "properties": { "gml_id": "layer_scientific_pt.255380", "Name": "湖南师大附中分校", "pyname": "hnsdfzfx", "kind": "A703", "zipcode": null, "telephone": null, "display_x": "112.95048", "display_y": "28.1995", "side": "L", "address": "溁湾路266" }, "geometry": { "type": "Point", "coordinates": [ 112.94501148, 28.20299301 ] } },
{ "type": "Feature", "properties": { "gml_id": "layer_scientific_pt.255399", "Name": "湖南省中医药研究院中医基础研究所", "pyname": "hnszyyyjyzyjcyjs", "kind": "A880", "zipcode": null, "telephone": null, "display_x": "112.94633", "display_y": "28.22116", "side": "R", "address": "岳华路" }, "geometry": { "type": "Point", "coordinates": [ 112.94087274, 28.22466299 ] } },
{ "type": "Feature", "properties": { "gml_id": "layer_scientific_pt.255400", "Name": "万婴润泽府国际幼儿园", "pyname": "wyrzfgjyey", "kind": "A701", "zipcode": null, "telephone": "0731-84152421", "display_x": "112.94525", "display_y": "28.22321", "side": "L", "address": null }, "geometry": { "type": "Point", "coordinates": [ 112.93979526, 28.22671517 ] } },
{ "type": "Feature", "properties": { "gml_id": "layer_scientific_pt.255401", "Name": "尖果儿艺术培训中心", "pyname": "jgeyspxzx", "kind": "A709", "zipcode": null, "telephone": "13808496416", "display_x": "112.92499", "display_y": "28.21536", "side": "R", "address": null }, "geometry": { "type": "Point", "coordinates": [ 112.91956938, 28.2188903 ] } },
{ "type": "Feature", "properties": { "gml_id": "layer_scientific_pt.255428", "Name": "湖南大学工业企业电气节能工程技术", "pyname": "hndxgyqydqjngcjsyjzx", "kind": "A880", "zipcode": null, "telephone": null, "display_x": "112.94535", "display_y": "28.18139", "side": "R", "address": null }, "geometry": { "type": "Point", "coordinates": [ 112.93989498, 28.18489176 ] } },
{ "type": "Feature", "properties": { "gml_id": "layer_scientific_pt.255486", "Name": "湖南师范大学企业文化研究中心", "pyname": "hnsfdxqywhyjzx", "kind": "A880", "zipcode": null, "telephone": null, "display_x": "112.94765", "display_y": "28.18848", "side": "L", "address": null }, "geometry": { "type": "Point", "coordinates": [ 112.94218908, 28.191978 ] } },
{ "type": "Feature", "properties": { "gml_id": "layer_scientific_pt.255487", "Name": "湖南行政学院－东门", "pyname": "hnxzxy-dm", "kind": "A700", "zipcode": null, "telephone": null, "display_x": "112.93591", "display_y": "28.19485", "side": "N", "address": "白云路" }, "geometry": { "type": "Point", "coordinates": [ 112.93047522, 28.19836881 ] } },
{ "type": "Feature", "properties": { "gml_id": "layer_scientific_pt.255560", "Name": "湖南艺术职业学院影视系潇湘电影制", "pyname": "hnyszyxyysxxxdyzpcyypxz", "kind": "A709", "zipcode": "410013", "telephone": null, "display_x": "112.92235", "display_y": "28.21115", "side": "R", "address": "望岳南路086" }, "geometry": { "type": "Point", "coordinates": [ 112.91693436, 28.21468379 ] } },
{ "type": "Feature", "properties": { "gml_id": "layer_scientific_pt.255573", "Name": "湖南大学二氧化碳捕获与封存国际合", "pyname": "hndxeyhtbhyfcgjhzzx", "kind": "A880", "zipcode": null, "telephone": null, "display_x": "112.94451", "display_y": "28.18078", "side": "L", "address": null }, "geometry": { "type": "Point", "coordinates": [ 112.93905672, 28.18428309 ] } },
{ "type": "Feature", "properties": { "gml_id": "layer_scientific_pt.255576", "Name": "国家环境保护有色金属工业污染控制", "pyname": "gjhjbhysjsgywrkzgcjszx", "kind": "A880", "zipcode": null, "telephone": null, "display_x": "112.92971", "display_y": "28.16904", "side": "L", "address": null }, "geometry": { "type": "Point", "coordinates": [ 112.92428844, 28.17256595 ] } },
{ "type": "Feature", "properties": { "gml_id": "layer_scientific_pt.255577", "Name": "岛津合作实验室", "pyname": "djhzsys", "kind": "A880", "zipcode": null, "telephone": null, "display_x": "112.9484", "display_y": "28.18768", "side": "R", "address": "麓山路" }, "geometry": { "type": "Point", "coordinates": [ 112.94293752, 28.19117664 ] } },
{ "type": "Feature", "properties": { "gml_id": "layer_scientific_pt.255578", "Name": "长沙市芙蓉区新东方培训学校沁园春", "pyname": "cssfrqxdfpxxxqycynzxjxq", "kind": "A709", "zipcode": null, "telephone": "0731-82559958|0731-82559977", "display_x": "112.9573", "display_y": "28.21319", "side": "L", "address": "银盆南路285号金荣科技园M1组团B座5层" }, "geometry": { "type": "Point", "coordinates": [ 112.95181602, 28.2166718 ] } },
{ "type": "Feature", "properties": { "gml_id": "layer_scientific_pt.255579", "Name": "中南大学安全培训中心", "pyname": "zndxaqpxzx", "kind": "7480", "zipcode": null, "telephone": null, "display_x": "112.92976", "display_y": "28.16677", "side": "R", "address": null }, "geometry": { "type": "Point", "coordinates": [ 112.92433866, 28.17029588 ] } },