{
"type": "FeatureCollection",
"name": "ShoppingMall",
"crs": { "type": "name", "properties": { "name": "urn:ogc:def:crs:OGC:1.3:CRS84" } },
"features": [
{ "type": "Feature", "properties": { "gml_id": "layer_shopping_plaza_pt.77329", "Name": "中南·麓南商业广场", "pyname": "znlnsygc", "kind": "2200", "zipcode": null, "telephone": "0731-82971111", "display_x": "112.93278", "display_y": "28.16256", "side": "R", "address": "麓山南路与清水路交汇处" }, "geometry": { "type": "Point", "coordinates": [ 112.92735258, 28.16608082 ] } },
{ "type": "Feature", "properties": { "gml_id": "layer_shopping_plaza_pt.77332", "Name": "渔湾码头", "pyname": "ywmt", "kind": "2200", "zipcode": null, "telephone": null, "display_x": "112.94411", "display_y": "28.16908", "side": "R", "address": "麓山南路与阜埠河路交汇处" }, "geometry": { "type": "Point", "coordinates": [ 112.93865784, 28.17258255 ] } },
{ "type": "Feature", "properties": { "gml_id": "layer_shopping_plaza_pt.77341", "Name": "步步高广场长沙店", "pyname": "bbggccsd", "kind": "2200", "zipcode": null, "telephone": "0731-85301900|0731-8", "display_x": "112.93537", "display_y": "28.21832", "side": "R", "address": "金星中路428" }, "geometry": { "type": "Point", "coordinates": [ 112.92993324, 28.22183847 ] } },
{ "type": "Feature", "properties": { "gml_id": "layer_shopping_plaza_pt.77624", "Name": "通程商业广场麓山店", "pyname": "tcsygclsd", "kind": "2200", "zipcode": "410006", "telephone": "0731-88867701", "display_x": "112.95257", "display_y": "28.19544", "side": "L", "address": "枫林一路39" }, "geometry": { "type": "Point", "coordinates": [ 112.94709714, 28.19892924 ] } },
{ "type": "Feature", "properties": { "gml_id": "layer_shopping_plaza_pt.77864", "Name": "西大门商场", "pyname": "xdmsc", "kind": "2200", "zipcode": "410205", "telephone": null, "display_x": "112.92351", "display_y": "28.20936", "side": "L", "address": "枫林二路240" }, "geometry": { "type": "Point", "coordinates": [ 112.9180932, 28.21289279 ] } },
{ "type": "Feature", "properties": { "gml_id": "layer_shopping_plaza_pt.78012", "Name": "天马大学城商场", "pyname": "tmdxcsc", "kind": "2200", "zipcode": null, "telephone": null, "display_x": "112.94602", "display_y": "28.16729", "side": "L", "address": "阜埠河路" }, "geometry": { "type": "Point", "coordinates": [ 112.94056368, 28.17078917 ] } },
{ "type": "Feature", "properties": { "gml_id": "layer_shopping_plaza_pt.78076", "Name": "湖南指南针商业广场", "pyname": "hnznzsygc", "kind": "2200", "zipcode": "410006", "telephone": null, "display_x": "112.95005", "display_y": "28.19796", "side": "R", "address": "枫林路185" }, "geometry": { "type": "Point", "coordinates": [ 112.94458254, 28.2014537 ] } },
{ "type": "Feature", "properties": { "gml_id": "layer_shopping_plaza_pt.78077", "Name": "新外滩（江岸景苑）商业中心广场", "pyname": "xwt(jajy)syzxgc", "kind": "2200", "zipcode": "410013", "telephone": null, "display_x": "112.95548", "display_y": "28.19948", "side": "R", "address": "银盆南路26号" }, "geometry": { "type": "Point", "coordinates": [ 112.95, 28.20296408 ] } },
{ "type": "Feature", "properties": { "gml_id": "layer_shopping_plaza_pt.78424", "Name": "奥克斯广场", "pyname": "aksgc", "kind": "2200", "zipcode": null, "telephone": "0731-85998777", "display_x": "112.95451", "display_y": "28.22297", "side": "R", "address": "岳麓大道57号" }, "geometry": { "type": "Point", "coordinates": [ 112.94903106, 28.22645615 ] } },
{ "type": "Feature", "properties": { "gml_id": "layer_shopping_plaza_pt.78498", "Name": "步步高生活广场王家湾店", "pyname": "bbgshgcwjwd", "kind": "2200", "zipcode": null, "telephone": null, "display_x": "112.92597", "display_y": "28.16066", "side": "R", "address": null }, "geometry": { "type": "Point", "coordinates": [ 112.9205529, 28.16418794 ] } },
{ "type": "Feature", "properties": { "gml_id": "layer_shopping_plaza_pt.78550", "Name": "惠民商业广场", "pyname": "hmsygc", "kind": "2200", "zipcode": null, "telephone": null, "display_x": "112.95587", "display_y": "28.2013", "side": "L", "address": "银盆南路227" }, "geometry": { "type": "Point", "coordinates": [ 112.95038916, 28.20478356 ] } },
{ "type": "Feature", "properties": { "gml_id": "layer_shopping_plaza_pt.78558", "Name": "悦购广场", "pyname": "yggc", "kind": "2200", "zipcode": "410012", "telephone": "0731-89747333", "display_x": "112.9351", "display_y": "28.16432", "side": "R", "address": "麓山南路697" }, "geometry": { "type": "Point", "coordinates": [ 112.92966756, 28.16783712 ] } },
{ "type": "Feature", "properties": { "gml_id": "layer_shopping_plaza_pt.78832", "Name": "乐活汇时尚街区南门", "pyname": "lhhssjqnm", "kind": "2200", "zipcode": null, "telephone": "0731-88330255", "display_x": "112.94465", "display_y": "28.16836", "side": "R", "address": "渔湾市天马学生公寓旁渔湾码头富1楼" }, "geometry": { "type": "Point", "coordinates": [ 112.93919658, 28.17186156 ] } },
{ "type": "Feature", "properties": { "gml_id": "layer_shopping_plaza_pt.78881", "Name": "奥克斯广场1门", "pyname": "aksgc1m", "kind": "2200", "zipcode": null, "telephone": null, "display_x": "112.95411", "display_y": "28.22452", "side": "L", "address": "银盆南路" }, "geometry": { "type": "Point", "coordinates": [ 112.94863182, 28.22800671 ] } },
{ "type": "Feature", "properties": { "gml_id": "layer_shopping_plaza_pt.78943", "Name": "步步高广场长沙店东南门", "pyname": "bbggccsddnm", "kind": "2200", "zipcode": null, "telephone": null, "display_x": "112.9363", "display_y": "28.21834", "side": "R", "address": null }, "geometry": { "type": "Point", "coordinates": [ 112.93086186, 28.22185746 ] } },
{ "type": "Feature", "properties": { "gml_id": "layer_shopping_plaza_pt.79022", "Name": "平和堂奥克斯广场店", "pyname": "phtaksgcd", "kind": "2200", "zipcode": null, "telephone": "0731-89738800", "display_x": "112.95431", "display_y": "28.22377", "side": "L", "address": "岳麓大道57号" }, "geometry": { "type": "Point", "coordinates": [ 112.94883144, 28.22725643 ] } },
{ "type": "Feature", "properties": { "gml_id": "layer_shopping_plaza_pt.79232", "Name": "乐活汇时尚街区", "pyname": "lhhssjq", "kind": "2200", "zipcode": null, "telephone": "0731-88330255", "display_x": "112.94426", "display_y": "28.16891", "side": "R", "address": "渔湾市天马学生公寓旁渔湾码头富1楼" }, "geometry": { "type": "Point", "coordinates": [ 112.93880742, 28.17241227 ] } },
{ "type": "Feature", "properties": { "gml_id": "layer_shopping_plaza_pt.79267", "Name": "步步高广场长沙店西北门", "pyname": "bbggccsdxbm", "kind": "2200", "zipcode": null, "telephone": null, "display_x": "112.93521", "display_y": "28.21863", "side": "R", "address": null }, "geometry": { "type": "Point", "coordinates": [ 112.9297734, 28.22214861 ] } },
{ "type": "Feature", "properties": { "gml_id": "layer_shopping_plaza_pt.79268", "Name": "步步高广场长沙店北门2", "pyname": "bbggccsdbm2", "kind": "2200", "zipcode": null, "telephone": null, "display_x": "112.93583", "display_y": "28.21871", "side": "R", "address": null }, "geometry": { "type": "Point", "coordinates": [ 112.93039242, 28.2222279 ] } },
{ "type": "Feature", "properties": { "gml_id": "layer_shopping_plaza_pt.79269", "Name": "步步高广场长沙店北门1", "pyname": "bbggccsdbm1", "kind": "2200", "zipcode": null, "telephone": null, "display_x": "112.93523", "display_y": "28.21868", "side": "R", "address": null }, "geometry": { "type": "Point", "coordinates": [ 112.92979338, 28.22219856 ] } },
{ "type": "Feature", "properties": { "gml_id": "layer_shopping_plaza_pt.79323", "Name": "世茂广场", "pyname": "smgc", "kind": "2200", "zipcode": null, "telephone": "0731-89798888", "display_x": "112.95856", "display_y": "28.2264", "side": "L", "address": "岳麓大道" }, "geometry": { "type": "Point", "coordinates": [ 112.9530663, 28.22987439 ] } }
]
}
