{
"type": "FeatureCollection",
"name": "Tourism",
"crs": { "type": "name", "properties": { "name": "urn:ogc:def:crs:OGC:1.3:CRS84" } },
"features": [
{ "type": "Feature", "properties": { "gml_id": "layer_travel_pt.25149", "Name": "辛亥援鄂汉阳阵亡将士公墓", "pyname": "xhyehyzwjsgm", "kind": "9080", "zipcode": null, "telephone": null, "display_x": "112.93716", "display_y": "28.17832", "side": "L", "address": "麓山路82岳麓山风景名胜区" }, "geometry": { "type": "Point", "coordinates": [ 112.9317228, 28.18183514 ] } },
{ "type": "Feature", "properties": { "gml_id": "layer_travel_pt.25167", "Name": "观光索道", "pyname": "ggsd", "kind": "9080", "zipcode": null, "telephone": null, "display_x": "112.93723", "display_y": "28.18736", "side": "L", "address": "麓山路82岳麓山风景名胜区" }, "geometry": { "type": "Point", "coordinates": [ 112.93179264, 28.190876 ] } },
{ "type": "Feature", "properties": { "gml_id": "layer_travel_pt.25176", "Name": "古麓山寺", "pyname": "glss", "kind": "9180", "zipcode": null, "telephone": null, "display_x": "112.9348", "display_y": "28.18006", "side": "L", "address": "麓山路82号岳麓山风景名胜区" }, "geometry": { "type": "Point", "coordinates": [ 112.92936804, 28.18357929 ] } },
{ "type": "Feature", "properties": { "gml_id": "layer_travel_pt.25178", "Name": "岳麓书院北门", "pyname": "ylsybm", "kind": "9080", "zipcode": null, "telephone": null, "display_x": "112.93922", "display_y": "28.18052", "side": "R", "address": "登高路58号" }, "geometry": { "type": "Point", "coordinates": [ 112.9337784, 28.18403195 ] } },
{ "type": "Feature", "properties": { "gml_id": "layer_travel_pt.25217", "Name": "黄兴墓", "pyname": "hxm", "kind": "9080", "zipcode": null, "telephone": null, "display_x": "112.9319", "display_y": "28.18046", "side": "R", "address": "麓山路82岳麓山风景名胜区" }, "geometry": { "type": "Point", "coordinates": [ 112.92647436, 28.1839842 ] } },
{ "type": "Feature", "properties": { "gml_id": "layer_travel_pt.25232", "Name": "响鼓岭", "pyname": "xgl", "kind": "9080", "zipcode": null, "telephone": null, "display_x": "112.93185", "display_y": "28.17773", "side": "R", "address": "麓山路82岳麓山风景名胜区" }, "geometry": { "type": "Point", "coordinates": [ 112.9264245, 28.18125396 ] } },
{ "type": "Feature", "properties": { "gml_id": "layer_travel_pt.25233", "Name": "印心石屋", "pyname": "yxsw", "kind": "9080", "zipcode": null, "telephone": null, "display_x": "112.93185", "display_y": "28.17784", "side": "R", "address": "麓山路82岳麓山风景名胜区" }, "geometry": { "type": "Point", "coordinates": [ 112.9264245, 28.18136399 ] } },
{ "type": "Feature", "properties": { "gml_id": "layer_travel_pt.25253", "Name": "云麓宫", "pyname": "ylg", "kind": "9180", "zipcode": null, "telephone": null, "display_x": "112.93326", "display_y": "28.17736", "side": "L", "address": "麓山路82岳麓山风景名胜区" }, "geometry": { "type": "Point", "coordinates": [ 112.92783138, 28.18088159 ] } },
{ "type": "Feature", "properties": { "gml_id": "layer_travel_pt.25254", "Name": "长沙会战碑", "pyname": "cshzb", "kind": "9080", "zipcode": null, "telephone": null, "display_x": "112.93214", "display_y": "28.17745", "side": "L", "address": null }, "geometry": { "type": "Point", "coordinates": [ 112.92671376, 28.18097348 ] } },
{ "type": "Feature", "properties": { "gml_id": "layer_travel_pt.25255", "Name": "胡子靖墓", "pyname": "hzjm", "kind": "9080", "zipcode": null, "telephone": null, "display_x": "112.93281", "display_y": "28.17662", "side": "R", "address": "麓山路82岳麓山风景名胜区" }, "geometry": { "type": "Point", "coordinates": [ 112.92738246, 28.18014224 ] } },
{ "type": "Feature", "properties": { "gml_id": "layer_travel_pt.25310", "Name": "江神庙", "pyname": "jsm", "kind": "9180", "zipcode": null, "telephone": null, "display_x": "112.96311", "display_y": "28.19876", "side": "L", "address": null }, "geometry": { "type": "Point", "coordinates": [ 112.95761202, 28.20223004 ] } },
{ "type": "Feature", "properties": { "gml_id": "layer_travel_pt.25311", "Name": "揽岳亭", "pyname": "lyt", "kind": "9080", "zipcode": null, "telephone": null, "display_x": "112.95937", "display_y": "28.1691", "side": "R", "address": "橘洲路橘子洲大桥南" }, "geometry": { "type": "Point", "coordinates": [ 112.95388476, 28.17257715 ] } },
{ "type": "Feature", "properties": { "gml_id": "layer_travel_pt.25312", "Name": "清风峡", "pyname": "qfx", "kind": "9080", "zipcode": null, "telephone": null, "display_x": "112.93722", "display_y": "28.18047", "side": "L", "address": "登高路58号" }, "geometry": { "type": "Point", "coordinates": [ 112.93178274, 28.18398528 ] } },
{ "type": "Feature", "properties": { "gml_id": "layer_travel_pt.25313", "Name": "岳麓山索道", "pyname": "ylssd", "kind": "9080", "zipcode": null, "telephone": "0731-88852111", "display_x": "112.94744", "display_y": "28.19419", "side": "R", "address": "麓山路82号岳麓山风景名胜区" }, "geometry": { "type": "Point", "coordinates": [ 112.94197902, 28.19768832 ] } },
{ "type": "Feature", "properties": { "gml_id": "layer_travel_pt.25339", "Name": "广电发射塔旋转观光厅", "pyname": "gdfstxzggt", "kind": "9080", "zipcode": null, "telephone": null, "display_x": "112.93671", "display_y": "28.18697", "side": "R", "address": "麓山路82号岳麓山风景名胜区" }, "geometry": { "type": "Point", "coordinates": [ 112.9312737, 28.19048684 ] } },
{ "type": "Feature", "properties": { "gml_id": "layer_travel_pt.25366", "Name": "岳麓书院购票处", "pyname": "ylsygpc", "kind": "9081", "zipcode": null, "telephone": null, "display_x": "112.93922", "display_y": "28.18052", "side": "R", "address": "麓山路82岳麓山风景名胜区" }, "geometry": { "type": "Point", "coordinates": [ 112.9337784, 28.18403195 ] } },
{ "type": "Feature", "properties": { "gml_id": "layer_travel_pt.25370", "Name": "二南石刻", "pyname": "ensk", "kind": "9080", "zipcode": null, "telephone": null, "display_x": "112.93754", "display_y": "28.18009", "side": "L", "address": "登高路58号" }, "geometry": { "type": "Point", "coordinates": [ 112.93210206, 28.18360472 ] } },
{ "type": "Feature", "properties": { "gml_id": "layer_travel_pt.25374", "Name": "长沙鸟语林售票处", "pyname": "csnylspc", "kind": "9081", "zipcode": null, "telephone": null, "display_x": "112.93166", "display_y": "28.17797", "side": "R", "address": "麓山路82岳麓山风景名胜区" }, "geometry": { "type": "Point", "coordinates": [ 112.92623496, 28.18149431 ] } },
{ "type": "Feature", "properties": { "gml_id": "layer_travel_pt.25375", "Name": "长沙鸟语林", "pyname": "csnyl", "kind": "9080", "zipcode": null, "telephone": "0731-88711000", "display_x": "112.93179", "display_y": "28.17802", "side": "R", "address": "麓山路82岳麓山风景名胜区" }, "geometry": { "type": "Point", "coordinates": [ 112.92636456, 28.18154412 ] } },
{ "type": "Feature", "properties": { "gml_id": "layer_travel_pt.25397", "Name": "中山纪念林碑", "pyname": "zsjnlb", "kind": "9080", "zipcode": null, "telephone": null, "display_x": "112.93592", "display_y": "28.17546", "side": "R", "address": "麓山路82岳麓山风景名胜区" }, "geometry": { "type": "Point", "coordinates": [ 112.93048566, 28.17897692 ] } },
{ "type": "Feature", "properties": { "gml_id": "layer_travel_pt.25399", "Name": "白鹤泉", "pyname": "bhq", "kind": "9080", "zipcode": null, "telephone": null, "display_x": "112.93362", "display_y": "28.17996", "side": "L", "address": "麓山路82岳麓山风景名胜区" }, "geometry": { "type": "Point", "coordinates": [ 112.92819066, 28.18348124 ] } },
{ "type": "Feature", "properties": { "gml_id": "layer_travel_pt.25400", "Name": "穿石坡湖", "pyname": "csph", "kind": "9080", "zipcode": null, "telephone": null, "display_x": "112.93634", "display_y": "28.17606", "side": "R", "address": "麓山路82岳麓山风景名胜区" }, "geometry": { "type": "Point", "coordinates": [ 112.9309047, 28.17957627 ] } },
{ "type": "Feature", "properties": { "gml_id": "layer_travel_pt.25415", "Name": "刘道一墓", "pyname": "ldym", "kind": "9080", "zipcode": null, "telephone": null, "display_x": "112.93634", "display_y": "28.18003", "side": "L", "address": "登高路58号" }, "geometry": { "type": "Point", "coordinates": [ 112.9309047, 28.18354671 ] } },
{ "type": "Feature", "properties": { "gml_id": "layer_travel_pt.25526", "Name": "古麓山寺", "pyname": "glss", "kind": "9080", "zipcode": null, "telephone": null, "display_x": "112.9348", "display_y": "28.18006", "side": "L", "address": "麓山路82号岳麓山风景名胜区" }, "geometry": { "type": "Point", "coordinates": [ 112.92936804, 28.18357929 ] } },
{ "type": "Feature", "properties": { "gml_id": "layer_travel_pt.25561", "Name": "蔡和森故居", "pyname": "chsgj", "kind": "9080", "zipcode": "410006", "telephone": "0731-88883401", "display_x": "112.95256", "display_y": "28.19312", "side": "R", "address": "周家巷2" }, "geometry": { "type": "Point", "coordinates": [ 112.94708742, 28.19660927 ] } },
{ "type": "Feature", "properties": { "gml_id": "layer_travel_pt.25565", "Name": "长沙王陵公园北门", "pyname": "cswlgybm", "kind": "9080", "zipcode": "410013", "telephone": null, "display_x": "112.95082", "display_y": "28.21351", "side": "L", "address": "咸嘉湖路8" }, "geometry": { "type": "Point", "coordinates": [ 112.94535168, 28.21700403 ] } },
{ "type": "Feature", "properties": { "gml_id": "layer_travel_pt.25566", "Name": "长沙王陵公园南门", "pyname": "cswlgynm", "kind": "9080", "zipcode": "410013", "telephone": "0731-88803122", "display_x": "112.9539", "display_y": "28.20957", "side": "N", "address": "咸嘉湖路8" }, "geometry": { "type": "Point", "coordinates": [ 112.94842428, 28.21305807 ] } },
{ "type": "Feature", "properties": { "gml_id": "layer_travel_pt.25579", "Name": "岳麓书院东门", "pyname": "ylsydm", "kind": "9080", "zipcode": null, "telephone": null, "display_x": "112.94176", "display_y": "28.18041", "side": "L", "address": null }, "geometry": { "type": "Point", "coordinates": [ 112.9363128, 28.18391769 ] } },
{ "type": "Feature", "properties": { "gml_id": "layer_travel_pt.25581", "Name": "爱晚亭", "pyname": "awt", "kind": "9080", "zipcode": null, "telephone": null, "display_x": "112.93774", "display_y": "28.18065", "side": "L", "address": "麓山路82岳麓山风景名胜区" }, "geometry": { "type": "Point", "coordinates": [ 112.9323015, 28.18416443 ] } },
{ "type": "Feature", "properties": { "gml_id": "layer_travel_pt.25582", "Name": "岳麓书院", "pyname": "ylsy", "kind": "9080", "zipcode": null, "telephone": "0731-88822352", "display_x": "112.94111", "display_y": "28.18056", "side": "R", "address": "岳麓山" }, "geometry": { "type": "Point", "coordinates": [ 112.93566426, 28.18406876 ] } },
{ "type": "Feature", "properties": { "gml_id": "layer_travel_pt.25587", "Name": "观光长廊", "pyname": "ggcl", "kind": "9080", "zipcode": null, "telephone": null, "display_x": "112.93211", "display_y": "28.18364", "side": "L", "address": "麓山路82岳麓山风景名胜区" }, "geometry": { "type": "Point", "coordinates": [ 112.92668388, 28.18716417 ] } },
{ "type": "Feature", "properties": { "gml_id": "layer_travel_pt.25597", "Name": "橘洲客栈", "pyname": "jzkz", "kind": "9080", "zipcode": null, "telephone": null, "display_x": "112.96008", "display_y": "28.17168", "side": "L", "address": null }, "geometry": { "type": "Point", "coordinates": [ 112.95459288, 28.17515597 ] } },
{ "type": "Feature", "properties": { "gml_id": "layer_travel_pt.25606", "Name": "五轮塔", "pyname": "wlt", "kind": "9080", "zipcode": null, "telephone": null, "display_x": "112.93988", "display_y": "28.17937", "side": "L", "address": "麓山路82岳麓山风景名胜区" }, "geometry": { "type": "Point", "coordinates": [ 112.93443684, 28.18288071 ] } },
{ "type": "Feature", "properties": { "gml_id": "layer_travel_pt.25635", "Name": "纪忠亭", "pyname": "jzt", "kind": "9080", "zipcode": null, "telephone": null, "display_x": "112.94392", "display_y": "28.18969", "side": "L", "address": "登高路58号" }, "geometry": { "type": "Point", "coordinates": [ 112.93846758, 28.19319462 ] } },
{ "type": "Feature", "properties": { "gml_id": "layer_travel_pt.25636", "Name": "湖南省会警察纪念堂", "pyname": "hnshjcjnt", "kind": "9080", "zipcode": null, "telephone": null, "display_x": "112.93589", "display_y": "28.17899", "side": "R", "address": "麓山路82岳麓山风景名胜区" }, "geometry": { "type": "Point", "coordinates": [ 112.9304556, 28.18250735 ] } },
{ "type": "Feature", "properties": { "gml_id": "layer_travel_pt.25637", "Name": "翊武亭", "pyname": "ywt", "kind": "9080", "zipcode": null, "telephone": null, "display_x": "112.93564", "display_y": "28.1797", "side": "L", "address": "麓山路82岳麓山风景名胜区" }, "geometry": { "type": "Point", "coordinates": [ 112.93020612, 28.18321785 ] } },
{ "type": "Feature", "properties": { "gml_id": "layer_travel_pt.25676", "Name": "岳麓山风景名胜区", "pyname": "ylsfjmsq", "kind": "9080", "zipcode": "410006", "telephone": "0731-88825011", "display_x": "112.93693", "display_y": "28.18846", "side": "L", "address": "麓山路82" }, "geometry": { "type": "Point", "coordinates": [ 112.9314933, 28.19197661 ] } },
{ "type": "Feature", "properties": { "gml_id": "layer_travel_pt.25728", "Name": "万景园", "pyname": "wjy", "kind": "9080", "zipcode": null, "telephone": null, "display_x": "112.93621", "display_y": "28.17194", "side": "R", "address": "麓山路82岳麓山风景名胜区" }, "geometry": { "type": "Point", "coordinates": [ 112.9307751, 28.17545607 ] } },
{ "type": "Feature", "properties": { "gml_id": "layer_travel_pt.25746", "Name": "高山滑道", "pyname": "gshd", "kind": "9080", "zipcode": null, "telephone": null, "display_x": "112.94331", "display_y": "28.19244", "side": "R", "address": "麓山路82岳麓山风景名胜区" }, "geometry": { "type": "Point", "coordinates": [ 112.93785864, 28.1959457 ] } },
{ "type": "Feature", "properties": { "gml_id": "layer_travel_pt.25778", "Name": "岳麓山风景名胜区南大门", "pyname": "ylsfjmsqndm", "kind": "9080", "zipcode": "410082", "telephone": "0731-88852111", "display_x": "112.94065", "display_y": "28.17851", "side": "R", "address": "河西岳麓山登高路58" }, "geometry": { "type": "Point", "coordinates": [ 112.93520526, 28.18201932 ] } },
{ "type": "Feature", "properties": { "gml_id": "layer_travel_pt.25779", "Name": "辛亥援鄂民五护国阵亡将士公墓", "pyname": "xhyemwhgzwjsgm", "kind": "9080", "zipcode": null, "telephone": null, "display_x": "112.93999", "display_y": "28.17919", "side": "L", "address": "登高路58号" }, "geometry": { "type": "Point", "coordinates": [ 112.93454664, 28.18270049 ] } },
{ "type": "Feature", "properties": { "gml_id": "layer_travel_pt.25801", "Name": "自卑亭", "pyname": "zbt", "kind": "9080", "zipcode": null, "telephone": null, "display_x": "112.94459", "display_y": "28.17965", "side": "R", "address": "麓山南路" }, "geometry": { "type": "Point", "coordinates": [ 112.93913664, 28.18315287 ] } },
{ "type": "Feature", "properties": { "gml_id": "layer_travel_pt.25806", "Name": "蔡锷墓庐", "pyname": "ceml", "kind": "9080", "zipcode": null, "telephone": null, "display_x": "112.93447", "display_y": "28.17984", "side": "L", "address": "麓山路82岳麓山风景名胜区" }, "geometry": { "type": "Point", "coordinates": [ 112.92903864, 28.18335983 ] } },
{ "type": "Feature", "properties": { "gml_id": "layer_travel_pt.25814", "Name": "肖劲光铜像纪念园", "pyname": "xjgtxjny", "kind": "9080", "zipcode": null, "telephone": null, "display_x": "112.93482", "display_y": "28.17566", "side": "R", "address": "麓山路82岳麓山风景名胜区" }, "geometry": { "type": "Point", "coordinates": [ 112.92938802, 28.17917879 ] } },
{ "type": "Feature", "properties": { "gml_id": "layer_travel_pt.25815", "Name": "禹王碑", "pyname": "ywb", "kind": "9080", "zipcode": null, "telephone": null, "display_x": "112.93391", "display_y": "28.18577", "side": "R", "address": "麓山路82岳麓山风景名胜区" }, "geometry": { "type": "Point", "coordinates": [ 112.92847992, 28.18929137 ] } },
{ "type": "Feature", "properties": { "gml_id": "layer_travel_pt.25875", "Name": "焦达峰墓", "pyname": "jdfm", "kind": "9080", "zipcode": null, "telephone": null, "display_x": "112.9356", "display_y": "28.18456", "side": "R", "address": "麓山路82岳麓山风景名胜区" }, "geometry": { "type": "Point", "coordinates": [ 112.93016616, 28.18807844 ] } },
{ "type": "Feature", "properties": { "gml_id": "layer_travel_pt.25893", "Name": "抗日战争第九战区长衡地区受降会场旧址", "pyname": "krzzdjzqchdqsxhcjz", "kind": "9080", "zipcode": "410012", "telephone": null, "display_x": "112.94418", "display_y": "28.17872", "side": "L", "address": "麓山南路2" }, "geometry": { "type": "Point", "coordinates": [ 112.9387275, 28.18222344 ] } },
{ "type": "Feature", "properties": { "gml_id": "layer_travel_pt.25911", "Name": "石濑", "pyname": "sl", "kind": "9080", "zipcode": null, "telephone": null, "display_x": "112.93671", "display_y": "28.18039", "side": "L", "address": null }, "geometry": { "type": "Point", "coordinates": [ 112.93127388, 28.18390613 ] } },
{ "type": "Feature", "properties": { "gml_id": "layer_travel_pt.25931", "Name": "覃振墓", "pyname": "qzm", "kind": "9080", "zipcode": null, "telephone": null, "display_x": "112.93634", "display_y": "28.18003", "side": "L", "address": "登高路58号" }, "geometry": { "type": "Point", "coordinates": [ 112.9309047, 28.18354671 ] } },
{ "type": "Feature", "properties": { "gml_id": "layer_travel_pt.25932", "Name": "焰火广场", "pyname": "yhgc", "kind": "9080", "zipcode": null, "telephone": null, "display_x": "112.96218", "display_y": "28.18689", "side": "R", "address": "橘洲路橘子洲大桥南" }, "geometry": { "type": "Point", "coordinates": [ 112.95668538, 28.19036151 ] } },
{ "type": "Feature", "properties": { "gml_id": "layer_travel_pt.25933", "Name": "诗词碑", "pyname": "scb", "kind": "9080", "zipcode": null, "telephone": null, "display_x": "112.9615", "display_y": "28.18216", "side": "L", "address": "橘洲路橘子洲大桥南" }, "geometry": { "type": "Point", "coordinates": [ 112.95600786, 28.185633 ] } },
{ "type": "Feature", "properties": { "gml_id": "layer_travel_pt.25934", "Name": "水景屋", "pyname": "sjw", "kind": "9080", "zipcode": null, "telephone": null, "display_x": "112.95964", "display_y": "28.16675", "side": "R", "address": null }, "geometry": { "type": "Point", "coordinates": [ 112.95415404, 28.17022635 ] } },
{ "type": "Feature", "properties": { "gml_id": "layer_travel_pt.25935", "Name": "兰涧", "pyname": "lj", "kind": "9080", "zipcode": null, "telephone": null, "display_x": "112.93683", "display_y": "28.18399", "side": "L", "address": "登高路58号" }, "geometry": { "type": "Point", "coordinates": [ 112.93139358, 28.18750631 ] } },
{ "type": "Feature", "properties": { "gml_id": "layer_travel_pt.25947", "Name": "新民学会成立会旧址", "pyname": "xmxhclhjz", "kind": "9080", "zipcode": "410006", "telephone": "0731-88883401", "display_x": "112.95256", "display_y": "28.19312", "side": "R", "address": "周家巷2" }, "geometry": { "type": "Point", "coordinates": [ 112.94708742, 28.19660927 ] } },
{ "type": "Feature", "properties": { "gml_id": "layer_travel_pt.25955", "Name": "云麓宫", "pyname": "ylg", "kind": "9080", "zipcode": null, "telephone": null, "display_x": "112.93326", "display_y": "28.17736", "side": "L", "address": "麓山路82岳麓山风景名胜区" }, "geometry": { "type": "Point", "coordinates": [ 112.92783138, 28.18088159 ] } },
{ "type": "Feature", "properties": { "gml_id": "layer_travel_pt.25956", "Name": "橘子洲头", "pyname": "jzzt", "kind": "9080", "zipcode": "410006", "telephone": "0731-88614640", "display_x": "112.96062", "display_y": "28.16965", "side": "L", "address": "桔子洲头2号" }, "geometry": { "type": "Point", "coordinates": [ 112.95513126, 28.17312444 ] } },
{ "type": "Feature", "properties": { "gml_id": "layer_travel_pt.25963", "Name": "长沙王陵公园", "pyname": "cswlgy", "kind": "9080", "zipcode": "410013", "telephone": "0731-88803122", "display_x": "112.95206", "display_y": "28.21185", "side": "L", "address": "咸嘉湖路8" }, "geometry": { "type": "Point", "coordinates": [ 112.94658882, 28.21534164 ] } },
{ "type": "Feature", "properties": { "gml_id": "layer_travel_pt.25964", "Name": "长沙王陵公园东大门", "pyname": "cswlgyddm", "kind": "9080", "zipcode": null, "telephone": null, "display_x": "112.95306", "display_y": "28.21358", "side": "R", "address": "铜盆湖路3号附近" }, "geometry": { "type": "Point", "coordinates": [ 112.94758656, 28.21707005 ] } },
{ "type": "Feature", "properties": { "gml_id": "layer_travel_pt.25970", "Name": "金九先生疗养处旧址", "pyname": "jjxslycjz", "kind": "9080", "zipcode": null, "telephone": null, "display_x": "112.93486", "display_y": "28.18123", "side": "L", "address": "麓山路82岳麓山风景名胜区" }, "geometry": { "type": "Point", "coordinates": [ 112.9294278, 28.18474929 ] } },
{ "type": "Feature", "properties": { "gml_id": "layer_travel_pt.26005", "Name": "枕江亭", "pyname": "zjt", "kind": "9080", "zipcode": null, "telephone": null, "display_x": "112.96082", "display_y": "28.16936", "side": "L", "address": "橘洲路橘子洲大桥南" }, "geometry": { "type": "Point", "coordinates": [ 112.95533052, 28.17283388 ] } },
{ "type": "Feature", "properties": { "gml_id": "layer_travel_pt.26006", "Name": "指点江山", "pyname": "zdjs", "kind": "9080", "zipcode": null, "telephone": null, "display_x": "112.96016", "display_y": "28.16583", "side": "L", "address": null }, "geometry": { "type": "Point", "coordinates": [ 112.95467244, 28.16930493 ] } },
{ "type": "Feature", "properties": { "gml_id": "layer_travel_pt.26023", "Name": "毛泽东青年艺术雕塑", "pyname": "mzdqnysds", "kind": "9080", "zipcode": null, "telephone": null, "display_x": "112.9605", "display_y": "28.16742", "side": "L", "address": "橘洲路橘子洲大桥南" }, "geometry": { "type": "Point", "coordinates": [ 112.95501156, 28.17089438 ] } },
{ "type": "Feature", "properties": { "gml_id": "layer_travel_pt.26037", "Name": "岳麓山风景名胜区东门", "pyname": "ylsfjmsqdm", "kind": "9080", "zipcode": "410006", "telephone": "0731-88825011", "display_x": "112.94987", "display_y": "28.19347", "side": "N", "address": "麓山路82" }, "geometry": { "type": "Point", "coordinates": [ 112.94440344, 28.19696405 ] } },
{ "type": "Feature", "properties": { "gml_id": "layer_travel_pt.26078", "Name": "黄爱·庞人铨墓", "pyname": "haprqm", "kind": "9080", "zipcode": null, "telephone": null, "display_x": "112.93827", "display_y": "28.17669", "side": "R", "address": "麓山路82岳麓山风景名胜区" }, "geometry": { "type": "Point", "coordinates": [ 112.93283052, 28.18020312 ] } },
{ "type": "Feature", "properties": { "gml_id": "layer_travel_pt.26091", "Name": "岳麓书院售票处", "pyname": "ylsyspc", "kind": "9081", "zipcode": null, "telephone": null, "display_x": "112.94176", "display_y": "28.18041", "side": "L", "address": "麓山路82岳麓山风景名胜区" }, "geometry": { "type": "Point", "coordinates": [ 112.9363128, 28.18391769 ] } },
{ "type": "Feature", "properties": { "gml_id": "layer_travel_pt.26103", "Name": "江神庙", "pyname": "jsm", "kind": "9080", "zipcode": null, "telephone": null, "display_x": "112.96311", "display_y": "28.19876", "side": "L", "address": null }, "geometry": { "type": "Point", "coordinates": [ 112.95761202, 28.20223004 ] } },
{ "type": "Feature", "properties": { "gml_id": "layer_travel_pt.26104", "Name": "梅园", "pyname": "my", "kind": "9080", "zipcode": null, "telephone": null, "display_x": "112.9611", "display_y": "28.17556", "side": "L", "address": "橘洲路橘子洲大桥南" }, "geometry": { "type": "Point", "coordinates": [ 112.95560934, 28.17903353 ] } },
{ "type": "Feature", "properties": { "gml_id": "layer_travel_pt.26106", "Name": "朱张渡东渡口", "pyname": "zzdddk", "kind": "9080", "zipcode": null, "telephone": null, "display_x": "112.96189", "display_y": "28.17523", "side": "R", "address": "橘洲路橘子洲大桥南" }, "geometry": { "type": "Point", "coordinates": [ 112.95639648, 28.17870125 ] } },
{ "type": "Feature", "properties": { "gml_id": "layer_travel_pt.26127", "Name": "古炮台", "pyname": "gpt", "kind": "9080", "zipcode": null, "telephone": null, "display_x": "112.93222", "display_y": "28.18399", "side": "L", "address": "麓山路82岳麓山风景名胜区" }, "geometry": { "type": "Point", "coordinates": [ 112.9267935, 28.18751405 ] } },
{ "type": "Feature", "properties": { "gml_id": "layer_travel_pt.26130", "Name": "岳王亭", "pyname": "ywt", "kind": "9080", "zipcode": null, "telephone": null, "display_x": "112.94392", "display_y": "28.18969", "side": "L", "address": "登高路58号" }, "geometry": { "type": "Point", "coordinates": [ 112.93846758, 28.19319462 ] } },
{ "type": "Feature", "properties": { "gml_id": "layer_travel_pt.26137", "Name": "第九战区司令部战时指挥所", "pyname": "djzqslbzszhs", "kind": "9080", "zipcode": null, "telephone": null, "display_x": "112.93689", "display_y": "28.18043", "side": "L", "address": null }, "geometry": { "type": "Point", "coordinates": [ 112.93145352, 28.18394582 ] } },
{ "type": "Feature", "properties": { "gml_id": "layer_travel_pt.26154", "Name": "陆军第七十三军抗战阵亡将士公墓", "pyname": "ljdqssjkzzwjsgm", "kind": "9080", "zipcode": null, "telephone": null, "display_x": "112.94392", "display_y": "28.18969", "side": "L", "address": "登高路58号" }, "geometry": { "type": "Point", "coordinates": [ 112.93846758, 28.19319462 ] } },
{ "type": "Feature", "properties": { "gml_id": "layer_travel_pt.26162", "Name": "渡学楼", "pyname": "dxl", "kind": "9080", "zipcode": null, "telephone": null, "display_x": "112.96154", "display_y": "28.17513", "side": "L", "address": "橘洲路" }, "geometry": { "type": "Point", "coordinates": [ 112.95604782, 28.1786022 ] } },
{ "type": "Feature", "properties": { "gml_id": "layer_travel_pt.26163", "Name": "潇湘名人会所", "pyname": "xxmrhs", "kind": "9080", "zipcode": null, "telephone": null, "display_x": "112.9609", "display_y": "28.17787", "side": "L", "address": "橘洲路" }, "geometry": { "type": "Point", "coordinates": [ 112.9554099, 28.18134428 ] } },
{ "type": "Feature", "properties": { "gml_id": "layer_travel_pt.26164", "Name": "张辉瓒墓", "pyname": "zhzm", "kind": "9080", "zipcode": null, "telephone": null, "display_x": "112.93391", "display_y": "28.18577", "side": "R", "address": "登高路58号" }, "geometry": { "type": "Point", "coordinates": [ 112.92847992, 28.18929137 ] } },
{ "type": "Feature", "properties": { "gml_id": "layer_travel_pt.26165", "Name": "百米高喷", "pyname": "bmgp", "kind": "9080", "zipcode": null, "telephone": null, "display_x": "112.96138", "display_y": "28.18442", "side": "L", "address": "橘洲路橘子洲大桥南" }, "geometry": { "type": "Point", "coordinates": [ 112.95588816, 28.18789358 ] } },
{ "type": "Feature", "properties": { "gml_id": "layer_travel_pt.26166", "Name": "北极峰", "pyname": "bjf", "kind": "9080", "zipcode": null, "telephone": null, "display_x": "112.9452", "display_y": "28.1952", "side": "R", "address": "登高路58号" }, "geometry": { "type": "Point", "coordinates": [ 112.93974396, 28.19870231 ] } },
{ "type": "Feature", "properties": { "gml_id": "layer_travel_pt.26167", "Name": "原长沙海关公廨旧址", "pyname": "ycshggxjz", "kind": "9080", "zipcode": null, "telephone": null, "display_x": "112.9621", "display_y": "28.19336", "side": "R", "address": "橘洲路橘子洲大桥南" }, "geometry": { "type": "Point", "coordinates": [ 112.95660564, 28.19683233 ] } },
{ "type": "Feature", "properties": { "gml_id": "layer_travel_pt.26168", "Name": "朱张渡西渡口", "pyname": "zzdxdk", "kind": "9080", "zipcode": null, "telephone": null, "display_x": "112.95994", "display_y": "28.17494", "side": "R", "address": "橘洲路橘子洲大桥南" }, "geometry": { "type": "Point", "coordinates": [ 112.95445266, 28.17841622 ] } },
{ "type": "Feature", "properties": { "gml_id": "layer_travel_pt.26170", "Name": "报春轩", "pyname": "bcx", "kind": "9080", "zipcode": null, "telephone": null, "display_x": "112.96148", "display_y": "28.17629", "side": "L", "address": "橘洲路" }, "geometry": { "type": "Point", "coordinates": [ 112.95598788, 28.17976248 ] } },
{ "type": "Feature", "properties": { "gml_id": "layer_travel_pt.26185", "Name": "沁园春·长沙诗词碑", "pyname": "qyccsscb", "kind": "9080", "zipcode": null, "telephone": null, "display_x": "112.96035", "display_y": "28.16838", "side": "R", "address": "橘洲路橘子洲大桥南" }, "geometry": { "type": "Point", "coordinates": [ 112.95486198, 28.1718549 ] } },
{ "type": "Feature", "properties": { "gml_id": "layer_travel_pt.26186", "Name": "蟒蛇洞", "pyname": "msd", "kind": "9080", "zipcode": null, "telephone": null, "display_x": "112.93391", "display_y": "28.18577", "side": "R", "address": "登高路58号" }, "geometry": { "type": "Point", "coordinates": [ 112.92847992, 28.18929137 ] } },
{ "type": "Feature", "properties": { "gml_id": "layer_travel_pt.26187", "Name": "仰云亭", "pyname": "yyt", "kind": "9080", "zipcode": null, "telephone": null, "display_x": "112.93467", "display_y": "28.18045", "side": "L", "address": "登高路58号" }, "geometry": { "type": "Point", "coordinates": [ 112.92923826, 28.18396953 ] } },
{ "type": "Feature", "properties": { "gml_id": "layer_travel_pt.26192", "Name": "天伦造纸厂旧址", "pyname": "tlzzcjz", "kind": "9080", "zipcode": null, "telephone": null, "display_x": "112.96041", "display_y": "28.17236", "side": "L", "address": null }, "geometry": { "type": "Point", "coordinates": [ 112.95492174, 28.17583515 ] } },
{ "type": "Feature", "properties": { "gml_id": "layer_travel_pt.26194", "Name": "麓山忠烈祠", "pyname": "lszlc", "kind": "9080", "zipcode": null, "telephone": null, "display_x": "112.94594", "display_y": "28.18899", "side": "R", "address": "桂花路" }, "geometry": { "type": "Point", "coordinates": [ 112.94048304, 28.192491 ] } },
{ "type": "Feature", "properties": { "gml_id": "layer_travel_pt.26199", "Name": "问天台", "pyname": "wtt", "kind": "9080", "zipcode": null, "telephone": null, "display_x": "112.96011", "display_y": "28.16545", "side": "R", "address": null }, "geometry": { "type": "Point", "coordinates": [ 112.95462258, 28.168925 ] } },
{ "type": "Feature", "properties": { "gml_id": "layer_travel_pt.26200", "Name": "桃园", "pyname": "ty", "kind": "9080", "zipcode": null, "telephone": null, "display_x": "112.96131", "display_y": "28.17912", "side": "L", "address": "橘洲路橘子洲大桥南" }, "geometry": { "type": "Point", "coordinates": [ 112.9558185, 28.18259325 ] } },
{ "type": "Feature", "properties": { "gml_id": "layer_travel_pt.26201", "Name": "柑橘文化园", "pyname": "gjwhy", "kind": "9080", "zipcode": null, "telephone": null, "display_x": "112.96027", "display_y": "28.16897", "side": "L", "address": "橘洲路橘子洲大桥南" }, "geometry": { "type": "Point", "coordinates": [ 112.95478224, 28.17244521 ] } },
{ "type": "Feature", "properties": { "gml_id": "layer_travel_pt.26202", "Name": "刘昆涛墓", "pyname": "lktm", "kind": "9080", "zipcode": null, "telephone": null, "display_x": "112.93514", "display_y": "28.17736", "side": "L", "address": "登高路58号" }, "geometry": { "type": "Point", "coordinates": [ 112.92970734, 28.18087844 ] } },
{ "type": "Feature", "properties": { "gml_id": "layer_travel_pt.26223", "Name": "婚庆园", "pyname": "hqy", "kind": "9080", "zipcode": null, "telephone": null, "display_x": "112.96169", "display_y": "28.18793", "side": "L", "address": "橘洲路橘子洲大桥南" }, "geometry": { "type": "Point", "coordinates": [ 112.95619704, 28.19140304 ] } },
{ "type": "Feature", "properties": { "gml_id": "layer_travel_pt.26224", "Name": "蒋翊武墓", "pyname": "jywm", "kind": "9080", "zipcode": null, "telephone": null, "display_x": "112.93546", "display_y": "28.18013", "side": "R", "address": "登高路58号" }, "geometry": { "type": "Point", "coordinates": [ 112.93002648, 28.18364819 ] } },
{ "type": "Feature", "properties": { "gml_id": "layer_travel_pt.26245", "Name": "竹园", "pyname": "zy", "kind": "9080", "zipcode": null, "telephone": null, "display_x": "112.96127", "display_y": "28.17471", "side": "L", "address": "橘洲路橘子洲大桥南" }, "geometry": { "type": "Point", "coordinates": [ 112.95577872, 28.17818294 ] } },
{ "type": "Feature", "properties": { "gml_id": "layer_travel_pt.26246", "Name": "美孚洋行旧址", "pyname": "mfyhjz", "kind": "9080", "zipcode": null, "telephone": null, "display_x": "112.96169", "display_y": "28.18793", "side": "L", "address": "橘洲路橘子洲大桥南" }, "geometry": { "type": "Point", "coordinates": [ 112.95619704, 28.19140304 ] } },
{ "type": "Feature", "properties": { "gml_id": "layer_travel_pt.26248", "Name": "音乐喷泉", "pyname": "yypq", "kind": "9080", "zipcode": null, "telephone": null, "display_x": "112.96218", "display_y": "28.18689", "side": "R", "address": "橘洲路橘子洲大桥南" }, "geometry": { "type": "Point", "coordinates": [ 112.95668538, 28.19036151 ] } },
{ "type": "Feature", "properties": { "gml_id": "layer_travel_pt.26251", "Name": "拱极楼", "pyname": "gjl", "kind": "9080", "zipcode": null, "telephone": null, "display_x": "112.96365", "display_y": "28.20026", "side": "R", "address": null }, "geometry": { "type": "Point", "coordinates": [ 112.95815022, 28.20372863 ] } },
{ "type": "Feature", "properties": { "gml_id": "layer_travel_pt.26252", "Name": "飞来石", "pyname": "fls", "kind": "9080", "zipcode": null, "telephone": null, "display_x": "112.93427", "display_y": "28.1769", "side": "L", "address": "登高路58号" }, "geometry": { "type": "Point", "coordinates": [ 112.9288392, 28.18041984 ] } },
{ "type": "Feature", "properties": { "gml_id": "layer_travel_pt.26253", "Name": "竹园民居", "pyname": "zymj", "kind": "9080", "zipcode": null, "telephone": null, "display_x": "112.96127", "display_y": "28.17471", "side": "L", "address": "橘洲路" }, "geometry": { "type": "Point", "coordinates": [ 112.95577872, 28.17818294 ] } },
{ "type": "Feature", "properties": { "gml_id": "layer_travel_pt.26254", "Name": "裴公亭", "pyname": "pgt", "kind": "9080", "zipcode": null, "telephone": null, "display_x": "112.96257", "display_y": "28.19974", "side": "R", "address": null }, "geometry": { "type": "Point", "coordinates": [ 112.95707364, 28.20321149 ] } },
{ "type": "Feature", "properties": { "gml_id": "layer_travel_pt.26255", "Name": "道中庸亭遗址", "pyname": "dzytyz", "kind": "9080", "zipcode": null, "telephone": null, "display_x": "112.93844", "display_y": "28.18231", "side": "L", "address": "登高路58号" }, "geometry": { "type": "Point", "coordinates": [ 112.93300008, 28.18582344 ] } },
{ "type": "Feature", "properties": { "gml_id": "layer_travel_pt.26256", "Name": "极高明亭遗址", "pyname": "jgmtyz", "kind": "9080", "zipcode": null, "telephone": null, "display_x": "112.93391", "display_y": "28.18577", "side": "R", "address": "登高路58号" }, "geometry": { "type": "Point", "coordinates": [ 112.92847992, 28.18929137 ] } },
{ "type": "Feature", "properties": { "gml_id": "layer_travel_pt.26280", "Name": "陈天华姚宏业墓", "pyname": "cthyhym", "kind": "9080", "zipcode": null, "telephone": null, "display_x": "112.93391", "display_y": "28.18577", "side": "R", "address": "登高路58号" }, "geometry": { "type": "Point", "coordinates": [ 112.92847992, 28.18929137 ] } },
{ "type": "Feature", "properties": { "gml_id": "layer_travel_pt.26352", "Name": "清风泉", "pyname": "qfq", "kind": "9080", "zipcode": null, "telephone": null, "display_x": "112.93672", "display_y": "28.18078", "side": "L", "address": "麓山路82岳麓山风景名胜区" }, "geometry": { "type": "Point", "coordinates": [ 112.93128378, 28.18429614 ] } },
{ "type": "Feature", "properties": { "gml_id": "layer_travel_pt.26353", "Name": "隋舍利塔", "pyname": "sslt", "kind": "9080", "zipcode": null, "telephone": null, "display_x": "112.93701", "display_y": "28.17975", "side": "L", "address": "麓山路82岳麓山风景名胜区" }, "geometry": { "type": "Point", "coordinates": [ 112.93157322, 28.18326555 ] } },
{ "type": "Feature", "properties": { "gml_id": "layer_travel_pt.26354", "Name": "笑啼岩", "pyname": "xty", "kind": "9080", "zipcode": null, "telephone": null, "display_x": "112.93362", "display_y": "28.17962", "side": "L", "address": "麓山路82岳麓山风景名胜区" }, "geometry": { "type": "Point", "coordinates": [ 112.92819066, 28.18314122 ] } },
{ "type": "Feature", "properties": { "gml_id": "layer_travel_pt.26440", "Name": "穿石坡", "pyname": "csp", "kind": "9080", "zipcode": null, "telephone": null, "display_x": "112.93769", "display_y": "28.17613", "side": "R", "address": "麓山路82岳麓山风景名胜区" }, "geometry": { "type": "Point", "coordinates": [ 112.93225182, 28.17964404 ] } },
{ "type": "Feature", "properties": { "gml_id": "layer_travel_pt.26470", "Name": "桂园", "pyname": "gy", "kind": "9080", "zipcode": null, "telephone": null, "display_x": "112.96164", "display_y": "28.18034", "side": "L", "address": "橘洲路橘子洲大桥南" }, "geometry": { "type": "Point", "coordinates": [ 112.95614736, 28.18381244 ] } },
{ "type": "Feature", "properties": { "gml_id": "layer_travel_pt.26493", "Name": "望江亭", "pyname": "wjt", "kind": "9080", "zipcode": null, "telephone": null, "display_x": "112.96022", "display_y": "28.16614", "side": "L", "address": null }, "geometry": { "type": "Point", "coordinates": [ 112.95473238, 28.16961485 ] } },
{ "type": "Feature", "properties": { "gml_id": "layer_travel_pt.26494", "Name": "禹之漠墓", "pyname": "yzmm", "kind": "9080", "zipcode": null, "telephone": null, "display_x": "112.93391", "display_y": "28.18577", "side": "R", "address": "登高路58号" }, "geometry": { "type": "Point", "coordinates": [ 112.92847992, 28.18929137 ] } },
{ "type": "Feature", "properties": { "gml_id": "layer_travel_pt.26523", "Name": "湖南大学礼堂", "pyname": "hndxlt", "kind": "9080", "zipcode": null, "telephone": "0731-88822745", "display_x": "112.94221", "display_y": "28.18016", "side": "R", "address": "湖南大学本部内" }, "geometry": { "type": "Point", "coordinates": [ 112.9367619, 28.18366691 ] } },
{ "type": "Feature", "properties": { "gml_id": "layer_travel_pt.26578", "Name": "广电发射塔旋转观光厅售票处", "pyname": "gdfstxzggtspc", "kind": "9081", "zipcode": null, "telephone": null, "display_x": "112.93671", "display_y": "28.18697", "side": "R", "address": "麓山路82岳麓山风景名胜区" }, "geometry": { "type": "Point", "coordinates": [ 112.9312737, 28.19048684 ] } }
]
}
